~Version Information
VERS.          2.00                            : CWLS Log ASCII Standard - Version 2.00
WRAP.          NO                              : One line per depth step
#
~Well Information
#MNEM.UNIT     DATA                            : DESCRIPTION      
#----.----     ---------                       : -----------------
STRT .M        1100.000                        : Start
STOP .M        2323.000                        : Stop
STEP .M           0.100                        : Step increment
NULL .         -999.250                        : Null value
COMP .         ESSO AUSTRALIA PTY LTD          : Company
WELL .         BREAM A20A                      : Well
FLD  .         BREAM                           : Field
PROV .         BASS STRAIT                     : Province / County
CTRY .         AUSTRALIA                       : State / Country
LOC  .         S 38 29 58.899 , E 147 46 20.056 : Location
LOC2 .         N 5738458.020 m , E 567338.25 m : Location 2
UWI  .                                         : Unique Well ID
API  .                                         : API number
SRVC .         Precision Energy Services       : Service company
LIC  .                                         : Licence number
DATE .         19-Oct-2005                     : Logging date
#
~Curve Information
#MNEM.UNIT     API CODES                       : CURVE DESCRIPTION
#----.----     ---------                       : -----------------
DEPT .M        00 001 00 00                    : Logged depth
GGCE .GAPI     30 310 00 00                    : Borehole Corrected Gamma
CGXT .DEGC     30 660 01 00                    : MCG External Temperature
CLDC .IN       45 280 01 00                    : Density Caliper
DNND .CPS      42 334 30 00                    : Near Neutron Raw
DNFD .CPS      42 334 31 00                    : Far Neutron Raw
NPRL .V/V      42 890 01 00                    : Limestone Neutron Por.
DEN  .G/C3     42 350 01 00                    : Compensated Density
DCOR .G/C3     42 356 01 00                    : Density Correction
PDPE .B/E      45 358 01 00                    : PE
DSLL .OHMM     11 220 09 00                    : Shallow Laterolog
DDLL .OHMM     11 220 10 00                    : Deep Laterolog
DT35 .US/M     60 520 32 00                    : 3-5' Compensated Sonic
DT45 .US/M     61 520 00 00                    : 4-5' Compensated Sonic
DT46 .US/M     61 520 04 00                    : 4-6' Compensated Sonic
TR21 .US       60 520 30 00                    : 3' Transit Time
TR11 .US       60 520 04 00                    : 4' Transit Time
TR22 .US       60 520 50 00                    : 5' Transit Time
TR12 .US       60 520 60 00                    : 6' Transit Time
GRGC .GAPI     30 310 01 00                    : Gamma Ray
#
~Parameter Information
#MNEM.UNIT     VALUE                           : DESCRIPTION      
#----.----     ---------                       : -----------------
EREF .M                                        : Elevation of depth reference
DREF .         RT @ 32.82 M                    : Depth reference
GL   .M        -59.40                          : Ground elevation
RUN  .         ON                              : Run number
TDD  .M        2326.000                        : TD (driller)
TDL  .M        2323.100                        : TD (logger)
CSGD .M        1123.000                        : Casing bottom (driller)
CSGL .M        1123.000                        : Casing bottom (logger)
BS   .INCHES   8.50                            : Bit size
MUD  .         KCL/GYL/POLY                    : Mud type
MUDD .LB/USG   10.15                           : Mud density
MUDV .CP       78.00                           : Mud viscosity
PH   .         9.00                            : Mud pH
FL   .         2.80                            : Mud fluid loss rate
MUDS .         FLOWLINE                        : Mud sample source
RM   .OHM-M    0.116                           : Mud resistivity
RMT  .DEGC      25.0                           : Mud sample temperature
RMF  .OHM-M    0.107                           : Mud filtrate resistivity
RMFT .DEGC      25.0                           : Mud filtrate sample temperature
RMC  .OHM-M    0.211                           : Mud cake resistivity
RMCT .DEGC      25.0                           : Mud cake sample temperature
TMAX .DEGC     77.90                           : Max recorder temperature
TIMC .DAY/HR                                   : Time circulation ended
TIML .DAY/HR                                   : Time logger at bottom
UNIT .         1                               : Equipment ID
BASE .         SALE                            : Equipment base location
ENG  .         G.McMANUS, B.MOSS               : Recording engineer
WIT  .         TREVOR LOBO                     : Witnessed by
CSGS .MM       273.050                         : Casing size
CSGW .KG/M     85.87                           : Casing weight
#
~Other Information
--------------------------------------------------------------------------------
RIG: NABORS 453

5" SHUTTLE/MEMORY COMPACT OPERATION.
CREW:  G MCMANUS , B MOSS , B GOODWIN, M KOLCZE.


FIELD FINAL LOGS TO BE CORRELATED TO ANADRILL GAMMA LOG.
DENSITY CALIPER CLOSED FROM 2286 TO TD.
TIME ALLOWED TO LEAVE PIPE STATIONARY ELAPSED, SO CALIPER WAS STILL POWERING UP WHEN LOGGING COMMENCED.

MAX. TEMPERATURE:  77.9 DEG C AT 2263.80 m MD
MAX. INCLINATION: 50.12 DEG AT 1123.20 m MD
MAX. DOGLEG SERVERITY: 11.64 DEG/30m AT 1130.05 m MD
DEPLOYMENT ANGLE:6.5 DEG

HVOL: 2062 FT^3
AVOL:  1036 FT^3

--------------------------------------------------------------------------------
~A  DEPT       GGCE       CGXT       CLDC       DNND       DNFD       NPRL        DEN       DCOR       PDPE       DSLL       DDLL       DT35       DT45       DT46       TR21       TR11       TR22       TR12       GRGC
# ...
  1817.800    64.4658    72.7137     9.3677  5544.2632   289.1625     0.3628     2.3485     0.0050     3.2905     1.3338     2.2757   365.6300   368.7513   369.7384   388.1700   495.8628   594.0686   681.5409    60.8976
  1817.900    66.7890    72.7140     9.4874  5518.8701   293.2173     0.3734     2.3423     0.0087     3.3136     1.2636     2.1555   368.8077   379.4797   374.2675   393.6971   495.8628   602.1156   681.5409    62.9144
  1818.000    69.1272    72.7173     9.5937  5266.0068   289.7867     0.3768     2.3399     0.0121     3.3674     1.2068     2.0513   370.0950   384.8858   374.5588   393.6971   496.2018   602.1156   681.5409    64.9706
  1818.100    71.0113    72.7180     9.7168  5069.1919   262.0309     0.3726     2.3352     0.0151     3.4292     1.1783     1.9849   368.8621   378.6974   371.2135   384.1570   487.7468   604.8549   688.4948    66.6180
  1818.200    72.5474    72.7236     9.7499  5041.6533   267.9092     0.3601     2.3304     0.0189     3.4754     1.1770     1.9554   364.4796   372.0709   363.0756   376.4747   487.7468   604.8549   688.4948    68.0409
  1818.300    73.0432    72.7240     9.7750  4839.7031   311.0171     0.3438     2.3271     0.0227     3.5049     1.2035     1.9692   357.0146   354.4500   352.9635   376.4747   483.0713   592.5532   707.4640    68.6623
  1818.400    71.9812    72.7268     9.7299  4888.2183   311.6414     0.3259     2.3362     0.0271     3.5438     1.2622     2.0292   347.4907   344.3322   341.8658   370.0770   483.0713   592.5532   714.5146    67.9005
  1818.500    69.5895    72.7252     9.6695  5186.2397   325.8362     0.3086     2.3564     0.0291     3.6061     1.3568     2.1334   338.0512   315.6040   333.3340   370.0770   485.8564   587.6982   714.5146    65.9347
  1818.600    66.4389    72.7165     9.5296  5371.8916   384.5419     0.2935     2.3845     0.0277     3.6778     1.4733     2.2643   331.2809   300.6944   328.3973   368.0518   485.8564   587.6982   718.3782    63.1678
  1818.700    63.4812    72.7154     9.4145  6517.9561   401.4366     0.2821     2.4099     0.0219     3.7390     1.5797     2.3800   329.8352   304.3127   329.3707   368.0518   483.8096   595.5036   718.3782    60.5802
  1818.800    61.0938    72.7099     9.2278  7417.7720   490.1338     0.2752     2.4288     0.0149     3.7748     1.6369     2.4227   334.0518   328.6198   335.9287   371.6333   483.8096   595.5036   709.8167    58.3008
  1818.900    60.6446    72.7116     9.1075  7329.5942   483.5596     0.2733     2.4333     0.0085     3.7639     1.6054     2.3470   343.2685   358.8746   346.8169   371.6333   489.5711   600.0569   709.8167    57.8979
  1819.000    61.9419    72.7192     8.9316  6927.8955   453.6102     0.2784     2.4213     0.0048     3.6958     1.4996     2.1841   354.5727   374.7387   359.2358   393.5090   489.5711   600.0569   698.2746    59.0183
  1819.100    65.0320    72.7194     8.8440  6712.9204   427.3197     0.2923     2.3968     0.0040     3.5896     1.3745     2.0031   365.6696   387.9687   370.4546   393.5090   494.4296   598.7525   698.2746    62.0657
  1819.200    68.5304    72.7201     8.7777  5853.0210   322.1577     0.3120     2.3670     0.0051     3.4702     1.2621     1.8376   373.6196   392.2549   378.5226   397.9380   494.4296   598.7525   690.7952    65.4715
  1819.300    71.8283    72.7215     8.8132  5745.8218   317.2589     0.3329     2.3397     0.0065     3.3489     1.1786     1.7104   377.2559   396.1741   381.3333   397.9380   502.9095   600.3094   690.7952    68.8772
  1819.400    73.8066    72.7268     8.9198  5365.7520   299.3959     0.3489     2.3206     0.0067     3.2470     1.1395     1.6470   376.3062   396.7673   379.7135   392.1631   502.9095   600.3094   696.1318    70.9829
  1819.500    74.2313    72.7247     9.0181  5371.2607   297.6409     0.3597     2.3147     0.0058     3.1865     1.1387     1.6355   371.6714   380.7874   373.5972   392.1631   497.0280   592.8073   696.1318    71.7886
  1819.600    72.5676    72.7178     9.0611  5365.8799   298.1781     0.3621     2.3254     0.0052     3.2007     1.1628     1.6530   364.7991   364.3392   365.0411   378.8661   497.0280   592.8073   711.5515    70.4432
  1819.700    69.5491    72.7181     9.0119  5290.4375   299.8793     0.3587     2.3490     0.0057     3.2734     1.2082     1.6950   357.1960   340.4880   354.8887   378.8661   485.5222   598.0162   711.5515    67.8884
  1819.800    65.5265    72.7192     8.9153  5455.3062   314.3642     0.3502     2.3760     0.0068     3.3932     1.2778     1.7639   350.2626   331.6153   345.8594   365.9827   485.5222   598.0162   719.5342    64.1332
  1819.900    61.4277    72.7192     8.8387  5924.5483   355.5906     0.3399     2.3978     0.0082     3.5133     1.3603     1.8427   344.7298   321.7384   338.9169   365.9827   479.9097   598.0162   719.5342    60.3872
  1820.000    57.3975    72.7192     8.7746  6076.3091   367.0862     0.3277     2.4132     0.0103     3.6209     1.4350     1.9080   341.1384   318.0672   335.2199   370.5367   479.9097   607.0778   713.1547    56.4173
  1820.100    54.1722    72.7197     8.7685  6486.6250   403.0685     0.3169     2.4196     0.0118     3.6878     1.4893     1.9469   339.9467   323.4609   335.2154   370.5367   479.9097   607.0778   713.1547    53.0653
  1820.200    52.3685    72.7189     8.7787  6465.5420   415.6728     0.3105     2.4179     0.0113     3.7286     1.5103     1.9462   340.9579   326.3577   338.9682   370.5367   481.6390   612.5140   707.7836    50.8241
  1820.300    52.0714    72.7168     8.8139  6480.0029   404.9850     0.3110     2.4109     0.0088     3.7394     1.4864     1.8946   344.2243   338.6245   345.5372   379.7319   481.6390   612.5140   707.7836    50.3214
  1820.400    52.2734    72.7173     8.8894  6634.1831   380.0467     0.3153     2.4030     0.0057     3.7190     1.4293     1.8068   349.1702   351.0148   353.1768   379.7319   484.5229   627.1488   707.7836    50.3481
  1820.500    52.9582    72.7186     8.9648  6665.8457   375.7605     0.3201     2.3915     0.0031     3.6606     1.3610     1.7137   355.3053   370.0394   360.7288   379.5824   484.5229   627.1488   709.8940    50.6443
  1820.600    54.6691    72.7186     9.0212  6733.1294   380.2049     0.3225     2.3778     0.0029     3.5772     1.2926     1.6309   361.3238   382.5296   366.5184   379.5824   498.9816   633.4515   709.8940    51.8009
  1820.700    57.6782    72.7204     9.0335  6565.5762   409.0040     0.3238     2.3635     0.0056     3.4897     1.2314     1.5644   366.7333   383.9975   370.7370   391.9227   498.9816   633.4515   718.3275    54.2658
  1820.800    61.4250    72.7240     9.0320  6006.2080   378.7159     0.3261     2.3509     0.0101     3.4126     1.1882     1.5252   370.9244   377.1855   373.1488   391.9227   508.7779   633.8287   718.3275    57.8057
  1820.900    65.1317    72.7240     9.0269  5580.7314   319.9214     0.3321     2.3390     0.0140     3.3604     1.1645     1.5117   374.1021   373.4394   375.0059   403.1547   508.7779   633.8287   734.2635    61.3457
  1821.000    68.3003    72.7240     9.0211  5509.3638   307.9148     0.3424     2.3311     0.0163     3.3374     1.1528     1.5095   376.5157   376.9259   376.4114   403.1547   518.3397   632.0416   734.2635    64.7962
  1821.100    69.9229    72.7218     9.0354  5382.4873   286.5696     0.3545     2.3271     0.0163     3.3360     1.1468     1.5077   378.6143   388.1952   378.2043   404.6974   518.3397   632.0416   740.1324    66.9473
  1821.200    69.6632    72.7181     9.0859  5457.8047   294.0503     0.3644     2.3248     0.0138     3.3351     1.1401     1.4970   380.1672   393.3588   379.9156   404.6974   521.3152   627.8845   740.1324    67.3059
  1821.300    68.6644    72.7206     9.1441  5580.6909   306.3597     0.3694     2.3213     0.0102     3.3298     1.1299     1.4738   381.3277   392.4388   381.5101   404.5497   521.3152   627.8845   748.6827    65.8720
  1821.400    68.9629    72.7248     9.1959  5577.1704   306.5296     0.3707     2.3192     0.0079     3.3244     1.1177     1.4413   381.7073   382.4237   382.2839   404.5497   517.0228   618.1285   748.6827    65.4693
