~Version Information
VERS.          2.00                            : CWLS Log ASCII Standard - Version 2.00
WRAP.          NO                              : One line per depth step
#
~Well Information
#MNEM.UNIT     DATA                            : DESCRIPTION      
#----.----     ---------                       : -----------------
STRT .M        1100.000                        : Start
STOP .M        2323.000                        : Stop
STEP .M           0.100                        : Step increment
NULL .         -999.250                        : Null value
COMP .         ESSO AUSTRALIA PTY LTD          : Company
WELL .         BREAM A20A                      : Well
FLD  .         BREAM                           : Field
PROV .         BASS STRAIT                     : Province / County
CTRY .         AUSTRALIA                       : State / Country
LOC  .         S 38 29 58.899 , E 147 46 20.056 : Location
LOC2 .         N 5738458.020 m , E 567338.25 m : Location 2
UWI  .                                         : Unique Well ID
API  .                                         : API number
SRVC .         Precision Energy Services       : Service company
LIC  .                                         : Licence number
DATE .         19-Oct-2005                     : Logging date
#
~Curve Information
#MNEM.UNIT     API CODES                       : CURVE DESCRIPTION
#----.----     ---------                       : -----------------
DEPT .M        00 001 00 00                    : Logged depth
GGCE .GAPI     30 310 00 00                    : Borehole Corrected Gamma
CGXT .DEGC     30 660 01 00                    : MCG External Temperature
CLDC .IN       45 280 01 00                    : Density Caliper
DNND .CPS      42 334 30 00                    : Near Neutron Raw
DNFD .CPS      42 334 31 00                    : Far Neutron Raw
NPRL .V/V      42 890 01 00                    : Limestone Neutron Por.
DEN  .G/C3     42 350 01 00                    : Compensated Density
DCOR .G/C3     42 356 01 00                    : Density Correction
PDPE .B/E      45 358 01 00                    : PE
DSLL .OHMM     11 220 09 00                    : Shallow Laterolog
DDLL .OHMM     11 220 10 00                    : Deep Laterolog
DT35 .US/M     60 520 32 00                    : 3-5' Compensated Sonic
DT45 .US/M     61 520 00 00                    : 4-5' Compensated Sonic
DT46 .US/M     61 520 04 00                    : 4-6' Compensated Sonic
TR21 .US       60 520 30 00                    : 3' Transit Time
TR11 .US       60 520 04 00                    : 4' Transit Time
TR22 .US       60 520 50 00                    : 5' Transit Time
TR12 .US       60 520 60 00                    : 6' Transit Time
GRGC .GAPI     30 310 01 00                    : Gamma Ray
#
~Parameter Information
#MNEM.UNIT     VALUE                           : DESCRIPTION      
#----.----     ---------                       : -----------------
EREF .M                                        : Elevation of depth reference
DREF .         RT @ 32.82 M                    : Depth reference
GL   .M        -59.40                          : Ground elevation
RUN  .         ON                              : Run number
TDD  .M        2326.000                        : TD (driller)
TDL  .M        2323.100                        : TD (logger)
CSGD .M        1123.000                        : Casing bottom (driller)
CSGL .M        1123.000                        : Casing bottom (logger)
BS   .INCHES   8.50                            : Bit size
MUD  .         KCL/GYL/POLY                    : Mud type
MUDD .LB/USG   10.15                           : Mud density
MUDV .CP       78.00                           : Mud viscosity
PH   .         9.00                            : Mud pH
FL   .         2.80                            : Mud fluid loss rate
MUDS .         FLOWLINE                        : Mud sample source
RM   .OHM-M    0.116                           : Mud resistivity
RMT  .DEGC      25.0                           : Mud sample temperature
RMF  .OHM-M    0.107                           : Mud filtrate resistivity
RMFT .DEGC      25.0                           : Mud filtrate sample temperature
RMC  .OHM-M    0.211                           : Mud cake resistivity
RMCT .DEGC      25.0                           : Mud cake sample temperature
TMAX .DEGC     77.90                           : Max recorder temperature
TIMC .DAY/HR                                   : Time circulation ended
TIML .DAY/HR                                   : Time logger at bottom
UNIT .         1                               : Equipment ID
BASE .         SALE                            : Equipment base location
ENG  .         G.McMANUS, B.MOSS               : Recording engineer
WIT  .         TREVOR LOBO                     : Witnessed by
CSGS .MM       273.050                         : Casing size
CSGW .KG/M     85.87                           : Casing weight
#
~Other Information
--------------------------------------------------------------------------------
RIG: NABORS 453

5" SHUTTLE/MEMORY COMPACT OPERATION.
CREW:  G MCMANUS , B MOSS , B GOODWIN, M KOLCZE.


FIELD FINAL LOGS TO BE CORRELATED TO ANADRILL GAMMA LOG.
DENSITY CALIPER CLOSED FROM 2286 TO TD.
TIME ALLOWED TO LEAVE PIPE STATIONARY ELAPSED, SO CALIPER WAS STILL POWERING UP WHEN LOGGING COMMENCED.

MAX. TEMPERATURE:  77.9 DEG C AT 2263.80 m MD
MAX. INCLINATION: 50.12 DEG AT 1123.20 m MD
MAX. DOGLEG SERVERITY: 11.64 DEG/30m AT 1130.05 m MD
DEPLOYMENT ANGLE:6.5 DEG

HVOL: 2062 FT^3
AVOL:  1036 FT^3

--------------------------------------------------------------------------------
~A  DEPT       GGCE       CGXT       CLDC       DNND       DNFD       NPRL        DEN       DCOR       PDPE       DSLL       DDLL       DT35       DT45       DT46       TR21       TR11       TR22       TR12       GRGC
# ...
  1181.400    77.8219    62.2886    11.4282  6339.9756   368.9451     0.3348     2.3551     0.0126     3.6217     2.1547     2.5400   361.2455   366.6291   362.6648   375.9582   493.1551   566.1680   703.6195    70.2722
  1181.500    76.1626    62.2914    11.3955  6483.4014   375.6929     0.3247     2.3645     0.0132     3.6308     2.2149     2.5902   357.7736   358.7887   357.9677   375.8974   481.7627   561.8696   700.6353    68.2654
  1181.600    75.0615    62.2936    11.3846  6613.6240   381.1912     0.3152     2.3692     0.0124     3.6427     2.2773     2.6490   353.9165   350.0530   352.8530   365.8141   475.7459   555.0675   699.1331    67.4630
  1181.700    74.0894    62.2935    11.3856  6800.3457   387.8100     0.3064     2.3696     0.0104     3.6674     2.3367     2.7155   349.8873   340.1253   347.8699   360.0766   473.5790   549.5822   699.0416    66.4041
  1181.800    73.1428    62.2878    11.3756  6939.2896   436.8665     0.2986     2.3680     0.0084     3.7158     2.3868     2.7807   346.0634   332.2323   343.5184   357.9075   468.7338   548.9214   689.0057    65.7924
  1181.900    72.5239    62.2906    11.3584  7102.4912   459.1390     0.2916     2.3667     0.0075     3.7809     2.4231     2.8403   342.8022   329.1073   340.2562   355.4317   464.3765   548.6227   681.9138    64.7617
  1182.000    71.5157    62.3005    11.3381  7117.1533   425.7068     0.2851     2.3670     0.0079     3.8437     2.4469     2.8947   340.3596   327.3949   338.3055   353.9876   461.8800   550.2896   677.5471    64.7385
  1182.100    69.4186    62.2990    11.3182  6983.3721   426.8530     0.2800     2.3690     0.0094     3.8951     2.4644     2.9404   338.7564   327.0697   337.4644   352.7967   456.9550   551.9399   668.5795    63.0189
  1182.200    67.5353    62.2967    11.3028  6919.9238   448.3344     0.2771     2.3731     0.0117     3.9236     2.4828     2.9788   337.6816   330.4827   337.1805   350.3595   450.6304   553.7230   661.2551    61.0534
  1182.300    67.0841    62.3014    11.2864  6942.3740   449.6105     0.2755     2.3782     0.0139     3.9102     2.5125     3.0254   336.5956   337.1489   336.7381   346.5092   447.4970   555.1240   658.5776    59.7149
  1182.400    67.1382    62.3049    11.2712  7044.3433   434.7401     0.2727     2.3818     0.0145     3.8615     2.5617     3.0943   334.8747   339.5837   335.5034   344.2731   444.8351   559.1148   655.8715    60.3191
  1182.500    66.8531    62.3091    11.2512  7014.7441   447.6336     0.2674     2.3829     0.0131     3.7994     2.6262     3.1757   332.3825   334.0542   333.3047   341.6695   444.6384   561.1252   654.7138    59.8470
  1182.600    67.1811    62.3168    11.2350  7105.9824   477.8757     0.2603     2.3827     0.0103     3.7481     2.6972     3.2533   329.5400   324.0744   330.5690   341.3076   446.8304   566.0485   655.6617    59.8694
  1182.700    67.8255    62.3225    11.2341  7355.4019   502.3790     0.2530     2.3820     0.0071     3.7135     2.7672     3.3217   327.2935   316.3385   328.2750   341.7402   447.6294   569.0580   657.5542    60.4963
  1182.800    67.3348    62.3233    11.2273  7397.2251   528.1124     0.2476     2.3802     0.0041     3.6910     2.8218     3.3723   326.6560   316.3840   327.5324   342.3681   449.1804   574.5074   659.3766    61.0796
  1182.900    65.7390    62.3275    11.1922  7374.7808   509.2809     0.2461     2.3778     0.0025     3.6769     2.8439     3.3889   328.2103   324.3751   329.1064   344.4806   450.4167   580.1907   664.8435    59.6465
  1183.000    64.9439    62.3365    11.1346  7382.3774   471.8806     0.2506     2.3743     0.0020     3.6547     2.8254     3.3676   331.8546   337.0793   332.9111   347.1804   452.2459   587.4859   667.0226    58.3015
  1183.100    65.2618    62.3437    11.0945  7291.8286   460.4096     0.2611     2.3689     0.0020     3.6131     2.7686     3.3134   336.8725   348.6462   338.1825   351.3710   455.2760   593.7609   670.9328    58.3218
  1183.200    66.2120    62.3502    11.1093  7036.9355   432.4958     0.2746     2.3618     0.0019     3.5514     2.6810     3.2251   342.3604   355.4532   343.8560   356.1613   458.5967   596.6004   672.5862    58.9247
  1183.300    68.0296    62.3604    11.1563  6890.8730   393.7578     0.2869     2.3552     0.0019     3.4942     2.5769     3.1087   347.4948   357.7394   349.0770   361.2953   464.2655   600.4675   675.9500    60.0229
  1183.400    70.8719    62.3676    11.2045  6789.6367   390.5672     0.2957     2.3497     0.0019     3.4535     2.4720     2.9798   351.9637   357.9394   353.4120   365.3903   468.6674   603.9880   680.0072    62.1740
  1183.500    73.6219    62.3683    11.2510  6566.1392   405.7077     0.3013     2.3459     0.0025     3.4323     2.3819     2.8586   355.6305   359.0516   356.6811   367.1804   475.1592   611.8369   685.5912    65.0220
  1183.600    75.4541    62.3728    11.2952  6501.1084   395.9805     0.3050     2.3443     0.0039     3.4155     2.3112     2.7585   358.5766   361.1227   359.0266   370.3073   478.4304   613.5292   693.7195    66.9260
  1183.700    76.9964    62.3809    11.3280  6450.2593   368.5378     0.3082     2.3438     0.0060     3.4051     2.2583     2.6852   360.8878   363.1041   360.7878   372.2416   482.3154   615.3791   699.0787    68.1723
  1183.800    78.1125    62.3856    11.3155  6284.9707   353.1681     0.3123     2.3424     0.0080     3.4037     2.2184     2.6328   362.6067   363.5741   362.2546   374.7726   486.2353   618.4863   706.6490    69.6624
  1183.900    78.3695    62.3885    11.2509  6180.8364   361.0365     0.3180     2.3410     0.0101     3.4082     2.1847     2.5915   363.9297   363.0382   363.6723   378.8120   491.1008   619.3726   711.9502    70.1697
  1184.000    77.8652    62.3989    11.1915  6180.7134   350.5739     0.3240     2.3397     0.0121     3.4258     2.1532     2.5552   365.1220   363.5229   365.2120   382.1804   492.3866   625.7899   719.9636    70.1900
  1184.100    76.8962    62.4099    11.1761  6105.4590   325.8749     0.3282     2.3369     0.0132     3.4577     2.1238     2.5159   366.4192   365.1283   366.9895   382.9710   495.2760   629.9919   722.1153    69.3393
  1184.200    76.3258    62.4143    11.1837  5937.9043   334.6939     0.3303     2.3310     0.0131     3.4941     2.0949     2.4715   367.8911   368.1562   368.9788   384.7224   498.9324   631.6726   725.4587    68.5636
  1184.300    76.2925    62.4240    11.1707  5871.0532   342.9788     0.3318     2.3247     0.0127     3.5238     2.0649     2.4276   369.6857   371.3132   371.1093   387.6552   505.1836   638.6399   728.2213    68.4405
  1184.400    76.7774    62.4340    11.1287  5758.1592   322.5774     0.3338     2.3196     0.0127     3.5483     2.0346     2.3820   371.9374   374.6869   373.3791   394.4556   506.2227   643.9382   731.0625    68.6056
  1184.500    77.3686    62.4355    11.0948  5681.4517   312.2163     0.3371     2.3146     0.0129     3.5702     2.0058     2.3335   374.5047   375.9011   375.8252   395.2049   508.3939   648.1451   737.5973    69.4371
  1184.600    78.4388    62.4368    11.0792  5661.5913   307.5634     0.3429     2.3109     0.0136     3.5873     1.9767     2.2878   377.1191   376.4317   378.4895   397.0954   513.0025   649.6053   741.6733    69.7275
  1184.700    80.0830    62.4397    11.0660  5561.8125   302.3618     0.3514     2.3089     0.0150     3.5886     1.9471     2.2478   379.5124   380.9891   381.1711   403.2013   514.6248   650.8558   743.8318    71.5419
  1184.800    81.9658    62.6119    11.0443  5483.0752   283.0117     0.3598     2.3077     0.0164     3.5674     1.9194     2.2139   381.6058   389.5579   383.5774   404.1804   521.9824   651.9177   750.6741    72.7043
  1184.900    83.9762    62.8100    11.0420  5339.7627   265.4446     0.3657     2.3045     0.0164     3.5317     1.8936     2.1895   383.2602   395.5418   385.3538   410.1804   525.2556   658.2819   755.3643    74.9903
  1185.000    85.8106    62.8156    11.0927  5226.6748   280.9999     0.3683     2.3005     0.0156     3.5063     1.8684     2.1725   384.5625   392.2135   386.6309   411.7452   527.1627   658.0854   759.3873    76.1781
