~Version Information
VERS.          2.00                            : CWLS Log ASCII Standard - Version 2.00
WRAP.          NO                              : One line per depth step
#
~Well Information
#MNEM.UNIT     DATA                            : DESCRIPTION      
#----.----     ---------                       : -----------------
STRT .M        1100.000                        : Start
STOP .M        2323.000                        : Stop
STEP .M           0.100                        : Step increment
NULL .         -999.250                        : Null value
COMP .         ESSO AUSTRALIA PTY LTD          : Company
WELL .         BREAM A20A                      : Well
FLD  .         BREAM                           : Field
PROV .         BASS STRAIT                     : Province / County
CTRY .         AUSTRALIA                       : State / Country
LOC  .         S 38 29 58.899 , E 147 46 20.056 : Location
LOC2 .         N 5738458.020 m , E 567338.25 m : Location 2
UWI  .                                         : Unique Well ID
API  .                                         : API number
SRVC .         Precision Energy Services       : Service company
LIC  .                                         : Licence number
DATE .         19-Oct-2005                     : Logging date
#
~Curve Information
#MNEM.UNIT     API CODES                       : CURVE DESCRIPTION
#----.----     ---------                       : -----------------
DEPT .M        00 001 00 00                    : Logged depth
GGCE .GAPI     30 310 00 00                    : Borehole Corrected Gamma
CGXT .DEGC     30 660 01 00                    : MCG External Temperature
CLDC .IN       45 280 01 00                    : Density Caliper
DNND .CPS      42 334 30 00                    : Near Neutron Raw
DNFD .CPS      42 334 31 00                    : Far Neutron Raw
NPRL .V/V      42 890 01 00                    : Limestone Neutron Por.
DEN  .G/C3     42 350 01 00                    : Compensated Density
DCOR .G/C3     42 356 01 00                    : Density Correction
PDPE .B/E      45 358 01 00                    : PE
DSLL .OHMM     11 220 09 00                    : Shallow Laterolog
DDLL .OHMM     11 220 10 00                    : Deep Laterolog
DT35 .US/M     60 520 32 00                    : 3-5' Compensated Sonic
DT45 .US/M     61 520 00 00                    : 4-5' Compensated Sonic
DT46 .US/M     61 520 04 00                    : 4-6' Compensated Sonic
TR21 .US       60 520 30 00                    : 3' Transit Time
TR11 .US       60 520 04 00                    : 4' Transit Time
TR22 .US       60 520 50 00                    : 5' Transit Time
TR12 .US       60 520 60 00                    : 6' Transit Time
GRGC .GAPI     30 310 01 00                    : Gamma Ray
#
~Parameter Information
#MNEM.UNIT     VALUE                           : DESCRIPTION      
#----.----     ---------                       : -----------------
EREF .M                                        : Elevation of depth reference
DREF .         RT @ 32.82 M                    : Depth reference
GL   .M        -59.40                          : Ground elevation
RUN  .         ON                              : Run number
TDD  .M        2326.000                        : TD (driller)
TDL  .M        2323.100                        : TD (logger)
CSGD .M        1123.000                        : Casing bottom (driller)
CSGL .M        1123.000                        : Casing bottom (logger)
BS   .INCHES   8.50                            : Bit size
MUD  .         KCL/GYL/POLY                    : Mud type
MUDD .LB/USG   10.15                           : Mud density
MUDV .CP       78.00                           : Mud viscosity
PH   .         9.00                            : Mud pH
FL   .         2.80                            : Mud fluid loss rate
MUDS .         FLOWLINE                        : Mud sample source
RM   .OHM-M    0.116                           : Mud resistivity
RMT  .DEGC      25.0                           : Mud sample temperature
RMF  .OHM-M    0.107                           : Mud filtrate resistivity
RMFT .DEGC      25.0                           : Mud filtrate sample temperature
RMC  .OHM-M    0.211                           : Mud cake resistivity
RMCT .DEGC      25.0                           : Mud cake sample temperature
TMAX .DEGC     77.90                           : Max recorder temperature
TIMC .DAY/HR                                   : Time circulation ended
TIML .DAY/HR                                   : Time logger at bottom
UNIT .         1                               : Equipment ID
BASE .         SALE                            : Equipment base location
ENG  .         G.McMANUS, B.MOSS               : Recording engineer
WIT  .         TREVOR LOBO                     : Witnessed by
CSGS .MM       273.050                         : Casing size
CSGW .KG/M     85.87                           : Casing weight
#
~Other Information
--------------------------------------------------------------------------------
RIG: NABORS 453

5" SHUTTLE/MEMORY COMPACT OPERATION.
CREW:  G MCMANUS , B MOSS , B GOODWIN, M KOLCZE.


FIELD FINAL LOGS TO BE CORRELATED TO ANADRILL GAMMA LOG.
DENSITY CALIPER CLOSED FROM 2286 TO TD.
TIME ALLOWED TO LEAVE PIPE STATIONARY ELAPSED, SO CALIPER WAS STILL POWERING UP WHEN LOGGING COMMENCED.

MAX. TEMPERATURE:  77.9 DEG C AT 2263.80 m MD
MAX. INCLINATION: 50.12 DEG AT 1123.20 m MD
MAX. DOGLEG SERVERITY: 11.64 DEG/30m AT 1130.05 m MD
DEPLOYMENT ANGLE:6.5 DEG

HVOL: 2062 FT^3
AVOL:  1036 FT^3

--------------------------------------------------------------------------------
~A  DEPT       GGCE       CGXT       CLDC       DNND       DNFD       NPRL        DEN       DCOR       PDPE       DSLL       DDLL       DT35       DT45       DT46       TR21       TR11       TR22       TR12       GRGC
# ...
  1980.600    90.7170    72.7014     9.8056  5116.2876   278.0790     0.3691     2.3863     0.0765     3.2317     1.1106     1.4608   354.7466   347.4850   358.1253   405.5719   518.0280   616.2297   724.6206    85.3878
  1980.700    89.3229    72.6992     9.7900  5116.2876   256.2764     0.3737     2.3947     0.0824     3.3469     1.1046     1.4214   354.7531   342.7216   358.7500   405.5719   515.0493   613.9922   724.6206    84.7889
  1980.800    87.5131    72.6989     9.7803  5006.4097   253.1618     0.3802     2.3981     0.0857     3.4643     1.0986     1.3719   355.6948   354.4866   360.1850   406.6862   515.0493   613.9922   735.0234    83.4287
  1980.900    85.3221    72.6993     9.7843  5045.0361   272.9508     0.3873     2.3969     0.0875     3.5612     1.0929     1.3217   357.8267   367.3936   362.0633   406.6862   513.0311   619.1155   735.0234    81.7385
  1981.000    83.2835    72.7103     9.7586  5051.8394   275.3966     0.3940     2.3880     0.0887     3.6383     1.0890     1.2745   360.4145   377.1961   362.8637   400.1819   513.0311   625.5132   727.0975    79.7206
  1981.100    82.5289    72.7115     9.7364  5010.5635   243.0189     0.3991     2.3764     0.0905     3.6909     1.0859     1.2399   362.6573   380.6697   362.6762   400.1819   509.4084   625.5132   727.0975    77.8837
  1981.200    83.0939    72.7063     9.7150  5006.4814   239.8167     0.4021     2.3647     0.0936     3.7506     1.0827     1.2271   363.6555   366.6252   360.8959   403.1804   509.4084   621.2557   727.8254    77.3486
  1981.300    84.7007    72.7058     9.7169  5034.3530   264.9120     0.4044     2.3606     0.0980     3.7910     1.0822     1.2302   362.7297   349.3884   358.0370   403.1804   510.7261   605.8557   727.8254    78.0241
  1981.400    86.6331    72.6995     9.7076  5036.1318   266.5139     0.4061     2.3598     0.1012     3.7972     1.0877     1.2422   360.6342   339.1039   355.0840   405.5484   510.7261   605.8557   728.0256    79.6420
  1981.500    88.9270    72.6992     9.6545  5141.9771   262.3198     0.4059     2.3658     0.1025     3.7795     1.0967     1.2586   357.6468   343.2308   353.4066   405.5484   507.1210   586.9493   728.0256    81.5565
  1981.600    90.2278    72.7011     9.5533  5146.3872   259.2986     0.4043     2.3766     0.1015     3.7537     1.1058     1.2745   354.8653   347.0912   352.9403   400.4654   509.2432   586.9493   731.7331    83.8567
  1981.700    89.9925    72.7042     9.4501  5258.5913   259.2105     0.4031     2.3911     0.0974     3.7207     1.1141     1.2884   352.1493   347.2153   353.3280   398.4011   509.2432   577.6866   731.7331    85.2124
  1981.800    88.3701    72.7043     9.3552  5204.0728   277.6567     0.4023     2.4029     0.0907     3.6798     1.1184     1.2981   350.5384   349.4161   354.2066   398.4011   511.4403   577.6866   727.9701    83.7992
  1981.900    87.0496    72.7000     9.3195  5206.9063   277.6784     0.3998     2.4117     0.0841     3.6498     1.1154     1.3008   349.8648   349.7854   355.2731   397.5410   509.9549   577.3991   716.3206    82.6914
  1982.000    85.5307    72.6999     9.3032  5487.4038   279.8314     0.3952     2.4149     0.0807     3.6241     1.1091     1.3018   351.1443   349.6776   356.7600   398.5327   509.9549   577.3991   699.2943    81.3314
  1982.100    83.9863    72.6946     9.3221  5480.7437   280.0323     0.3898     2.4129     0.0820     3.6043     1.1037     1.3058   353.4698   349.1862   358.7116   398.5327   497.9360   576.9182   699.2943    79.8830
  1982.200    82.7932    72.6946     9.3382  5265.3994   286.5292     0.3853     2.4065     0.0881     3.5893     1.1028     1.3176   356.8350   357.4321   361.2162   391.7792   497.9360   576.9182   690.3728    78.7334
  1982.300    81.8450    72.6943     9.3386  5250.6577   285.3285     0.3805     2.3990     0.0954     3.5891     1.1109     1.3459   359.3741   371.5877   363.0412   391.7792   490.2054   584.9389   690.3728    77.7924
  1982.400    80.8220    72.6948     9.3778  5019.7026   266.5170     0.3743     2.3968     0.0987     3.6003     1.1384     1.4050   359.9579   386.5304   362.6477   379.4821   490.2054   584.2909   685.3074    76.7612
  1982.500    79.8460    72.7015     9.4194  5028.6353   270.6126     0.3640     2.3991     0.0924     3.6204     1.2017     1.5136   356.7358   381.7443   358.3472   379.4821   475.9414   584.2909   685.3074    75.7753
  1982.600    78.8002    72.7009     9.4628  5131.3599   317.7127     0.3513     2.4146     0.0774     3.6382     1.2986     1.6654   349.3828   364.4141   349.7746   370.9273   472.5058   576.8267   689.3456    74.7909
  1982.700    77.1893    72.6995     9.4689  5249.6182   325.2149     0.3352     2.4370     0.0566     3.6468     1.4080     1.8282   339.2261   331.3907   338.4586   365.5194   472.5058   576.8267   689.3456    73.3144
  1982.800    74.8176    72.6881     9.4757  6206.4375   385.9143     0.3194     2.4643     0.0359     3.6492     1.5216     1.9875   328.3453   304.4841   327.0479   365.5194   473.0363   572.6447   691.4631    71.0757
  1982.900    72.2997    72.6892     9.4815  6354.4873   397.9044     0.3044     2.4840     0.0189     3.6415     1.6187     2.1148   319.5586   282.8237   317.9206   355.1517   473.0363   582.8331   692.5588    68.7022
  1983.000    69.7085    72.6966     9.4873  7345.2827   469.7786     0.2969     2.4998     0.0099     3.6231     1.6530     2.1510   314.5690   280.7874   313.0777   355.1517   474.1724   582.8331   692.5588    66.2377
  1983.100    67.5920    72.6961     9.4979  7245.3389   422.3649     0.2954     2.5033     0.0064     3.6006     1.6188     2.0944   314.7719   296.2910   313.2605   350.4041   465.6927   594.4235   695.0989    63.9511
  1983.200    67.2889    72.6939     9.5466  6613.1572   410.6280     0.3023     2.4985     0.0064     3.5707     1.5486     1.9968   319.1447   318.7477   317.8510   358.2308   465.6927   594.4235   695.0989    63.1876
  1983.300    69.0914    72.6940     9.6278  6088.4155   353.3244     0.3124     2.4852     0.0083     3.5226     1.4567     1.8785   326.2876   337.5051   325.0731   358.2308   465.0699   592.5508   696.2840    64.5765
  1983.400    71.7781    72.6931     9.7218  6015.8057   344.8755     0.3262     2.4742     0.0143     3.4555     1.3588     1.7553   334.2356   345.3395   333.3381   374.2280   465.0699   591.1127   689.5811    66.6379
  1983.500    75.7581    72.6866     9.8639  5706.2593   308.8565     0.3379     2.4629     0.0227     3.3858     1.2762     1.6543   341.6047   348.6837   340.7570   374.2280   469.2466   591.1127   689.5811    69.8200
  1983.600    80.5909    72.6861     9.9954  5591.6372   304.8580     0.3479     2.4501     0.0308     3.3263     1.2179     1.5893   347.5219   355.8610   346.9955   376.2912   489.4531   594.1048   684.8992    73.9430
  1983.700    85.1421    72.6850    10.1815  5185.2495   290.6813     0.3549     2.4358     0.0375     3.2839     1.1766     1.5471   351.7515   359.2280   351.5862   388.4197   489.4531   594.1048   684.8992    78.2006
  1983.800    88.0656    72.6881    10.2922  5135.2471   282.7400     0.3630     2.4236     0.0426     3.2643     1.1444     1.5110   355.0691   359.6451   355.3700   388.4197   496.3482   584.8613   684.9984    80.7991
  1983.900    90.0464    72.6883    10.4080  4976.9067   257.5922     0.3719     2.4097     0.0445     3.2649     1.1150     1.4720   358.3236   360.4677   357.8809   393.6522   496.3482   584.8613   691.0026    82.5457
  1984.000    91.3051    72.6890    10.4517  4949.8613   253.3956     0.3835     2.3958     0.0438     3.2667     1.0896     1.4343   361.8343   364.0499   360.4904   393.6522   498.0661   575.2789   691.0026    83.6200
  1984.100    92.1868    72.6876    10.4782  4876.7393   242.0492     0.3950     2.3842     0.0421     3.2570     1.0712     1.4022   365.4918   371.3290   362.7261   392.4666   498.0661   575.2789   696.0494    84.5156
  1984.200    93.0614    72.6838    10.4265  4780.8281   233.0230     0.4050     2.3807     0.0405     3.2586     1.0671     1.3881   368.1997   374.2888   364.2808   392.4666   494.6359   569.2598   696.0494    85.1195
