~Version Information
VERS.          2.00                            : CWLS Log ASCII Standard - Version 2.00
WRAP.          NO                              : One line per depth step
#
~Well Information
#MNEM.UNIT     DATA                            : DESCRIPTION      
#----.----     ---------                       : -----------------
STRT .M        1100.000                        : Start
STOP .M        2323.000                        : Stop
STEP .M           0.100                        : Step increment
NULL .         -999.250                        : Null value
COMP .         ESSO AUSTRALIA PTY LTD          : Company
WELL .         BREAM A20A                      : Well
FLD  .         BREAM                           : Field
PROV .         BASS STRAIT                     : Province / County
CTRY .         AUSTRALIA                       : State / Country
LOC  .         S 38 29 58.899 , E 147 46 20.056 : Location
LOC2 .         N 5738458.020 m , E 567338.25 m : Location 2
UWI  .                                         : Unique Well ID
API  .                                         : API number
SRVC .         Precision Energy Services       : Service company
LIC  .                                         : Licence number
DATE .         19-Oct-2005                     : Logging date
#
~Curve Information
#MNEM.UNIT     API CODES                       : CURVE DESCRIPTION
#----.----     ---------                       : -----------------
DEPT .M        00 001 00 00                    : Logged depth
GGCE .GAPI     30 310 00 00                    : Borehole Corrected Gamma
CGXT .DEGC     30 660 01 00                    : MCG External Temperature
CLDC .IN       45 280 01 00                    : Density Caliper
DNND .CPS      42 334 30 00                    : Near Neutron Raw
DNFD .CPS      42 334 31 00                    : Far Neutron Raw
NPRL .V/V      42 890 01 00                    : Limestone Neutron Por.
DEN  .G/C3     42 350 01 00                    : Compensated Density
DCOR .G/C3     42 356 01 00                    : Density Correction
PDPE .B/E      45 358 01 00                    : PE
DSLL .OHMM     11 220 09 00                    : Shallow Laterolog
DDLL .OHMM     11 220 10 00                    : Deep Laterolog
DT35 .US/M     60 520 32 00                    : 3-5' Compensated Sonic
DT45 .US/M     61 520 00 00                    : 4-5' Compensated Sonic
DT46 .US/M     61 520 04 00                    : 4-6' Compensated Sonic
TR21 .US       60 520 30 00                    : 3' Transit Time
TR11 .US       60 520 04 00                    : 4' Transit Time
TR22 .US       60 520 50 00                    : 5' Transit Time
TR12 .US       60 520 60 00                    : 6' Transit Time
GRGC .GAPI     30 310 01 00                    : Gamma Ray
#
~Parameter Information
#MNEM.UNIT     VALUE                           : DESCRIPTION      
#----.----     ---------                       : -----------------
EREF .M                                        : Elevation of depth reference
DREF .         RT @ 32.82 M                    : Depth reference
GL   .M        -59.40                          : Ground elevation
RUN  .         ON                              : Run number
TDD  .M        2326.000                        : TD (driller)
TDL  .M        2323.100                        : TD (logger)
CSGD .M        1123.000                        : Casing bottom (driller)
CSGL .M        1123.000                        : Casing bottom (logger)
BS   .INCHES   8.50                            : Bit size
MUD  .         KCL/GYL/POLY                    : Mud type
MUDD .LB/USG   10.15                           : Mud density
MUDV .CP       78.00                           : Mud viscosity
PH   .         9.00                            : Mud pH
FL   .         2.80                            : Mud fluid loss rate
MUDS .         FLOWLINE                        : Mud sample source
RM   .OHM-M    0.116                           : Mud resistivity
RMT  .DEGC      25.0                           : Mud sample temperature
RMF  .OHM-M    0.107                           : Mud filtrate resistivity
RMFT .DEGC      25.0                           : Mud filtrate sample temperature
RMC  .OHM-M    0.211                           : Mud cake resistivity
RMCT .DEGC      25.0                           : Mud cake sample temperature
TMAX .DEGC     77.90                           : Max recorder temperature
TIMC .DAY/HR                                   : Time circulation ended
TIML .DAY/HR                                   : Time logger at bottom
UNIT .         1                               : Equipment ID
BASE .         SALE                            : Equipment base location
ENG  .         G.McMANUS, B.MOSS               : Recording engineer
WIT  .         TREVOR LOBO                     : Witnessed by
CSGS .MM       273.050                         : Casing size
CSGW .KG/M     85.87                           : Casing weight
#
~Other Information
--------------------------------------------------------------------------------
RIG: NABORS 453

5" SHUTTLE/MEMORY COMPACT OPERATION.
CREW:  G MCMANUS , B MOSS , B GOODWIN, M KOLCZE.


FIELD FINAL LOGS TO BE CORRELATED TO ANADRILL GAMMA LOG.
DENSITY CALIPER CLOSED FROM 2286 TO TD.
TIME ALLOWED TO LEAVE PIPE STATIONARY ELAPSED, SO CALIPER WAS STILL POWERING UP WHEN LOGGING COMMENCED.

MAX. TEMPERATURE:  77.9 DEG C AT 2263.80 m MD
MAX. INCLINATION: 50.12 DEG AT 1123.20 m MD
MAX. DOGLEG SERVERITY: 11.64 DEG/30m AT 1130.05 m MD
DEPLOYMENT ANGLE:6.5 DEG

HVOL: 2062 FT^3
AVOL:  1036 FT^3

--------------------------------------------------------------------------------
~A  DEPT       GGCE       CGXT       CLDC       DNND       DNFD       NPRL        DEN       DCOR       PDPE       DSLL       DDLL       DT35       DT45       DT46       TR21       TR11       TR22       TR12       GRGC
  1100.000    28.2467    61.1824     0.9873  3749.6274   188.7427     0.4038     2.5441    -0.1689    11.6843  1285.7029     0.0168   436.6785   655.2975   666.1709   160.1530   288.2663   377.2809   676.2092    40.9150
  1100.100    29.2268    61.1876     0.9873  3885.7407   180.9427     0.3931     2.5223    -0.1633    11.7473  1285.7029     0.0168   430.9924   625.0303   649.8734   160.1530   367.3246   377.2809   676.2092    41.8280
  1100.200    30.3660    61.1826     0.9873  3961.7688   185.5128     0.3803     2.5191    -0.1648    11.6734  1285.7029     0.0168   435.2036   551.1595   617.2118   149.1799   367.3246   552.5320   667.6951    44.3238
  1100.300    30.3829    61.1888     0.9873  3752.0850   187.1166     0.3731     2.5077    -0.1683    11.5715  1285.7029     0.0168   449.7738   442.7238   589.8189   149.1799   407.0709   527.9194   876.5624    44.6099
  1100.400    29.7413    61.1917     0.9873  3632.5535   188.4558     0.3673     2.4935    -0.1715    11.5371  1285.7029     0.0168   459.2434   410.0510   574.0510   268.7776   363.5000   527.9194   876.5624    43.5246
  1100.500    29.6975    61.1908     0.9873  3726.7659   179.7777     0.3588     2.4811    -0.1747    11.6537  1285.7029     0.0168   450.6063   482.1769   564.4736   120.5793   363.5000   466.5096   593.0860    43.3016
  1100.600    30.2114    61.1917     0.9873  3628.9333   204.2441     0.3551     2.4703    -0.1774    11.8536  1285.7029     0.0168   431.2437   482.1769   553.6276   120.5793   363.5000   466.5096   593.0860    44.1808
  1100.700    30.9865    61.1951     0.9873  3622.5627   175.0118     0.3702     2.4610    -0.1784    11.9880  1285.7029     0.0168   420.4953   481.3383   535.9783   120.4128   276.4172   365.6920   671.4031    44.9695
  1100.800    31.1476    61.1954     0.9873  3547.4983   159.1285     0.3987     2.4540    -0.1786    12.0984  1285.7029     0.0168   427.7226   478.5493   508.7929   120.4128   276.4172   365.6920   671.4031    45.7712
  1100.900    30.5560    61.1904     0.9873  3408.0615   140.8094     0.4213     2.4532    -0.1782    12.1538  1285.7029     0.0168   436.5121   475.5582   479.2404   214.4729  -433.3019   365.6920   663.8521    44.8537
  1101.000    30.4908    61.1957     0.9873  3335.9829   164.4339     0.4269     2.4572    -0.1777    12.1295  1285.7029     0.0168   427.7132   487.7642   463.6730   214.4729  -433.3019   360.8504   663.8521    44.2711
  1101.100    31.1499    61.1992     0.9873  3481.3416   174.5008     0.4243     2.4671    -0.1765    11.9777  1285.7029     0.0168   402.1467   516.5045   465.3342   214.4729   305.9213   360.8504   564.0956    45.3792
  1101.200    32.3475    61.2024     0.9873  3561.8105   153.4130     0.4220     2.4784    -0.1747    11.7924  1285.7029     0.0168   371.1053   476.0848   483.2550   249.2679   305.9213   442.8455   564.0956    46.6217
  1101.300    34.2007    61.2102     0.9873  3643.1665   148.6851     0.4200     2.4906    -0.1735    11.7191  1285.7029     0.0168   352.0341   321.5500   500.0346   249.2679   305.9213   442.8455   564.0956    50.0147
  1101.400    35.7946    61.2021     0.9873  3491.8936   177.6024     0.4047     2.5160    -0.1732    11.8337  1285.7029     0.0168   350.6290   206.8586   503.9245   117.1572   288.3523   442.8455   759.5940    51.8064
  1101.500    35.8303    61.2051     0.9873  3737.3069   193.9132     0.3744     2.5520    -0.1728    11.9756  1285.7029     0.0168   367.9277   203.4133   504.4108   117.1572   288.3523   429.0116   759.5940    53.0600
  1101.600    33.8180    61.2069     0.9873  3872.1140   208.6043     0.3423     2.5890    -0.1716    11.9881  1285.7029     2.2137   403.7463   211.4219   505.6360   117.1572   391.6939   429.0116   564.5112    50.2562
  1101.700    31.0091    61.2118     0.9873  4163.6108   218.0888     0.3194     2.6127    -0.1699    11.8639  1285.7029    99.1729   441.9197   215.0977   511.7384   215.2556   391.6939   429.0116   564.5112    47.4936
  1101.800    28.3704    61.2160     0.9873  4206.0000   251.9388     0.3047     2.6190    -0.1695    11.7260  1285.7029   213.8415   469.6502   227.2101   518.1544   215.2556   391.6939   417.2090   608.9220    41.7697
  1101.900    26.8362    61.2159     0.9873  4265.6392   239.8237     0.2980     2.6192    -0.1723    11.6995  1285.7029    94.7560   478.5619   271.6196   505.3802   215.2556   400.1346   417.2090   608.9220    39.7617
  1102.000    26.0512    61.2124     0.9873  4476.3940   246.5425     0.3006     2.6253    -0.1771    11.7139  1285.7029     0.3510   480.7223   293.4570   474.3012   118.2346   400.1346   451.0182   608.9220    38.0969
  1102.100    26.2933    61.2202     0.9873  4617.2437   236.1987     0.3141     2.6242    -0.1837    11.6630  1285.7029     0.0114   483.0182   242.6964   431.8599   118.2346   378.8640   451.0182   678.6983    38.2714
  1102.200    27.3520    61.2248     0.9873  4565.8750   233.4538     0.3284     2.6067    -0.1884    11.6580  1285.7029     0.0065   484.7515   180.5665   393.2144   218.6698   378.8640   451.0182   678.6983    38.6889
  1102.300    28.7947    61.2202     0.9873  4336.1050   220.1554     0.3374     2.5817    -0.1876    11.6816  1285.7029     0.0064   491.9806   157.2522   379.6623   218.6698   378.8640   411.8677   670.2350    41.7634
  1102.400    29.5017    61.2160     0.9873  4209.1816   215.4104     0.3421     2.5595    -0.1850    11.6535  1285.7029     0.0064   511.2729   156.0515   391.9008   218.6698   361.5073   411.8677   670.2350    42.9549
  1102.500    29.4593    61.2299     0.9873  3946.3660   210.9492     0.3445     2.5518    -0.1830    11.5442  1285.7029     0.0064   535.4175   151.9157   414.2926   204.7032   361.5073   509.9571   670.2350    43.0538
  1102.600    29.6953    61.2266     0.9873  4195.9814   207.8529     0.3468     2.5655    -0.1819    11.4495  1285.7029     0.0064   551.3785   159.3190   437.7710   204.7032   361.5073   509.9571   690.9482    43.2473
  1102.700    29.8793    61.2358     0.9873  4307.0181   224.2297     0.3479     2.5870    -0.1814    11.5114  1285.7029     0.0064   555.9364   191.2528   454.4603   204.7032   393.3057   521.0098   690.9482    43.6952
  1102.800    29.3304    61.2341     0.9873  4335.4956   218.8688     0.3410     2.6083    -0.1790    11.7336  1285.7029     0.0064   555.5204   144.3880   464.7014   118.7496   393.3057   521.0098   690.9482    43.1877
  1102.900    28.3691    61.2373     0.9873  4396.6953   241.7767     0.3282     2.6259    -0.1755    11.9260  1285.7029     0.0064   570.5248    85.9176   463.6287   118.7496   513.1594   521.0098   523.0081    42.5009
  1103.000    27.3987    61.2405     0.9873  4343.2056   238.4495     0.3149     2.6321    -0.1736    11.9654  1285.7029     0.0064   608.8994    60.6992   441.3701   120.1734   513.1594   414.2304   523.0081    40.2455
  1103.100    27.1075    61.2364     0.9873  4270.3779   245.8971     0.3094     2.6309    -0.1736    11.8844  1285.7029     0.0064   655.8849    17.9555   393.9395   120.1734   513.1594   414.2304   685.5267    39.6318
  1103.200    27.7573    61.2471     0.9873  4204.3721   211.2666     0.3189     2.6223    -0.1756    11.8131  1285.7029     0.0071   696.6995    14.4160   331.2097   119.8061   470.6670   565.8416   685.5267    40.4663
  1103.300    28.5473    61.2481     0.9873  3977.4272   202.3222     0.3382     2.6093    -0.1784    11.8387  1285.7029     0.0082   719.0530    27.2161   283.1541   119.8061   470.6670   565.8416   685.5267    41.3635
  1103.400    28.9510    61.2503     0.9873  4188.9258   195.3621     0.3563     2.5985    -0.1794    11.8767  1285.7029     0.0094   722.1639    20.5832   257.5576   119.8061   451.8214   670.4702   589.5167    42.3375
  1103.500    29.3454    61.2524     0.9873  4019.7976   202.9961     0.3610     2.5839    -0.1793    11.9216  1285.7029     0.0104   706.4592    21.2723   257.0486   146.7109   451.8214   670.4702   589.5167    42.8165
  1103.600    29.1799    61.2500     0.9873  3922.1797   188.3168     0.3529     2.5686    -0.1790    11.8770  1285.7029     0.0104   686.1548    63.1404   269.2381   146.7109   473.9039   670.4702   679.5450    43.0438
