~Version Information
VERS.          2.00                            : CWLS Log ASCII Standard - Version 2.00
WRAP.          NO                              : One line per depth step
#
~Well Information
#MNEM.UNIT     DATA                            : DESCRIPTION      
#----.----     ---------                       : -----------------
STRT .M        1100.000                        : Start
STOP .M        2323.000                        : Stop
STEP .M           0.100                        : Step increment
NULL .         -999.250                        : Null value
COMP .         ESSO AUSTRALIA PTY LTD          : Company
WELL .         BREAM A20A                      : Well
FLD  .         BREAM                           : Field
PROV .         BASS STRAIT                     : Province / County
CTRY .         AUSTRALIA                       : State / Country
LOC  .         S 38 29 58.899 , E 147 46 20.056 : Location
LOC2 .         N 5738458.020 m , E 567338.25 m : Location 2
UWI  .                                         : Unique Well ID
API  .                                         : API number
SRVC .         Precision Energy Services       : Service company
LIC  .                                         : Licence number
DATE .         19-Oct-2005                     : Logging date
#
~Curve Information
#MNEM.UNIT     API CODES                       : CURVE DESCRIPTION
#----.----     ---------                       : -----------------
DEPT .M        00 001 00 00                    : Logged depth
GGCE .GAPI     30 310 00 00                    : Borehole Corrected Gamma
CGXT .DEGC     30 660 01 00                    : MCG External Temperature
CLDC .IN       45 280 01 00                    : Density Caliper
DNND .CPS      42 334 30 00                    : Near Neutron Raw
DNFD .CPS      42 334 31 00                    : Far Neutron Raw
NPRL .V/V      42 890 01 00                    : Limestone Neutron Por.
DEN  .G/C3     42 350 01 00                    : Compensated Density
DCOR .G/C3     42 356 01 00                    : Density Correction
PDPE .B/E      45 358 01 00                    : PE
DSLL .OHMM     11 220 09 00                    : Shallow Laterolog
DDLL .OHMM     11 220 10 00                    : Deep Laterolog
DT35 .US/M     60 520 32 00                    : 3-5' Compensated Sonic
DT45 .US/M     61 520 00 00                    : 4-5' Compensated Sonic
DT46 .US/M     61 520 04 00                    : 4-6' Compensated Sonic
TR21 .US       60 520 30 00                    : 3' Transit Time
TR11 .US       60 520 04 00                    : 4' Transit Time
TR22 .US       60 520 50 00                    : 5' Transit Time
TR12 .US       60 520 60 00                    : 6' Transit Time
GRGC .GAPI     30 310 01 00                    : Gamma Ray
#
~Parameter Information
#MNEM.UNIT     VALUE                           : DESCRIPTION      
#----.----     ---------                       : -----------------
EREF .M                                        : Elevation of depth reference
DREF .         RT @ 32.82 M                    : Depth reference
GL   .M        -59.40                          : Ground elevation
RUN  .         ON                              : Run number
TDD  .M        2326.000                        : TD (driller)
TDL  .M        2323.100                        : TD (logger)
CSGD .M        1123.000                        : Casing bottom (driller)
CSGL .M        1123.000                        : Casing bottom (logger)
BS   .INCHES   8.50                            : Bit size
MUD  .         KCL/GYL/POLY                    : Mud type
MUDD .LB/USG   10.15                           : Mud density
MUDV .CP       78.00                           : Mud viscosity
PH   .         9.00                            : Mud pH
FL   .         2.80                            : Mud fluid loss rate
MUDS .         FLOWLINE                        : Mud sample source
RM   .OHM-M    0.116                           : Mud resistivity
RMT  .DEGC      25.0                           : Mud sample temperature
RMF  .OHM-M    0.107                           : Mud filtrate resistivity
RMFT .DEGC      25.0                           : Mud filtrate sample temperature
RMC  .OHM-M    0.211                           : Mud cake resistivity
RMCT .DEGC      25.0                           : Mud cake sample temperature
TMAX .DEGC     77.90                           : Max recorder temperature
TIMC .DAY/HR                                   : Time circulation ended
TIML .DAY/HR                                   : Time logger at bottom
UNIT .         1                               : Equipment ID
BASE .         SALE                            : Equipment base location
ENG  .         G.McMANUS, B.MOSS               : Recording engineer
WIT  .         TREVOR LOBO                     : Witnessed by
CSGS .MM       273.050                         : Casing size
CSGW .KG/M     85.87                           : Casing weight
#
~Other Information
--------------------------------------------------------------------------------
RIG: NABORS 453

5" SHUTTLE/MEMORY COMPACT OPERATION.
CREW:  G MCMANUS , B MOSS , B GOODWIN, M KOLCZE.


FIELD FINAL LOGS TO BE CORRELATED TO ANADRILL GAMMA LOG.
DENSITY CALIPER CLOSED FROM 2286 TO TD.
TIME ALLOWED TO LEAVE PIPE STATIONARY ELAPSED, SO CALIPER WAS STILL POWERING UP WHEN LOGGING COMMENCED.

MAX. TEMPERATURE:  77.9 DEG C AT 2263.80 m MD
MAX. INCLINATION: 50.12 DEG AT 1123.20 m MD
MAX. DOGLEG SERVERITY: 11.64 DEG/30m AT 1130.05 m MD
DEPLOYMENT ANGLE:6.5 DEG

HVOL: 2062 FT^3
AVOL:  1036 FT^3

--------------------------------------------------------------------------------
~A  DEPT       GGCE       CGXT       CLDC       DNND       DNFD       NPRL        DEN       DCOR       PDPE       DSLL       DDLL       DT35       DT45       DT46       TR21       TR11       TR22       TR12       GRGC
# ...
  1740.100    84.1431    72.1577     9.5948  5663.7017   293.2124     0.4054     2.3490     0.0076     3.4702     1.0560     1.3042   369.7635   329.2420   372.4562   414.1804   548.3068   644.8552   801.4134    79.3227
  1740.200    79.9172    72.1554     9.6680  5953.9863   293.2124     0.3967     2.3654     0.0047     3.4824     1.1218     1.3818   362.9253   351.9193   366.4342   404.7726   548.3068   644.8552   796.0245    75.2378
  1740.300    76.0997    72.1554     9.6913  5953.9863   313.2333     0.3878     2.3775     0.0094     3.4701     1.1716     1.4357   359.8150   350.7825   364.5430   404.7726   539.9803   654.1710   796.0245    71.5556
  1740.400    73.1453    72.1563     9.6780  5953.9863   319.6835     0.3801     2.3814     0.0161     3.4453     1.1991     1.4559   361.8376   371.1462   368.0608   396.0847   533.1804   654.1710   791.9409    68.7061
  1740.500    72.0161    72.1563     9.7042  5825.3018   319.6835     0.3744     2.3750     0.0223     3.4134     1.1981     1.4401   365.7030   377.2558   373.0339   405.6897   533.1804   665.1109   791.9409    67.5856
  1740.600    72.2755    72.1617     9.7435  5320.1284   293.2293     0.3727     2.3654     0.0297     3.3868     1.1754     1.4013   371.7268   399.0293   379.4992   405.6897   530.0131   665.1109   782.2678    67.7649
  1740.700    73.9430    72.1617     9.7829  5320.1284   293.2293     0.3782     2.3524     0.0380     3.3654     1.1442     1.3573   377.5841   402.1217   384.3920   418.6062   530.0131   679.9424   771.3043    69.2439
  1740.800    76.6425    72.1648     9.8148  4910.9849   233.1425     0.3871     2.3428     0.0479     3.3605     1.1085     1.3172   383.7607   400.7028   389.0381   418.6062   534.2827   679.9424   771.3043    71.6646
  1740.900    80.0886    72.1648     9.8467  4910.9849   233.1425     0.3971     2.3342     0.0587     3.3602     1.0742     1.2905   388.9111   395.2398   390.9422   425.6361   534.2827   683.0930   767.4036    74.7582
  1741.000    83.4024    72.1600     9.9424  4474.0313   239.7875     0.4013     2.3271     0.0689     3.3563     1.0474     1.2803   392.9151   399.7059   391.8771   425.6361   542.5698   683.0930   767.4036    77.7178
  1741.100    86.1222    72.1600    10.0061  4474.0313   239.7875     0.4019     2.3185     0.0757     3.3439     1.0306     1.2849   394.7904   398.3746   390.3857   435.5931   542.5698   682.0746   775.1705    80.1236
  1741.200    88.0674    72.1591    10.0736  4651.9243   239.7875     0.3995     2.3082     0.0764     3.3338     1.0217     1.3007   394.8498   393.3355   389.2884   435.5931   551.3556   682.0746   775.1705    81.8412
  1741.300    89.2773    72.1661    10.0773  4651.9243   253.1604     0.4050     2.2999     0.0733     3.3301     1.0198     1.3237   393.3715   377.1453   386.9802   443.1804   551.3556   680.6382   786.3304    82.9292
  1741.400    89.4624    72.1661    10.0698  4651.9243   219.8034     0.4219     2.2962     0.0692     3.3311     1.0226     1.3485   391.7251   373.5125   386.3175   443.1804   555.3618   680.6382   786.3304    83.1347
  1741.500    88.1207    72.1615    10.0066  4723.7617   219.8034     0.4509     2.2957     0.0658     3.3463     1.0270     1.3691   390.4070   373.2347   385.9225   444.1804   555.3618   670.4969   792.5397    81.9651
  1741.600    85.9501    72.1615     9.9434  4668.3540   182.0359     0.4791     2.2957     0.0643     3.3801     1.0314     1.3798   390.6886   378.4401   388.7827   444.1804   562.4881   669.9177   792.5397    80.0503
  1741.700    84.0887    72.1572     9.8808  4668.3540   182.0359     0.4990     2.2931     0.0657     3.4226     1.0347     1.3757   392.1953   384.6701   391.7903   443.3833   562.4881   669.9177   794.8569    78.4208
  1741.800    83.8323    72.1572     9.8635  4483.6514   221.1712     0.5057     2.2879     0.0686     3.4270     1.0362     1.3606   395.0565   388.4345   396.4036   443.3833   562.7310   668.5109   794.8569    78.2718
  1741.900    85.3168    72.1572     9.8461  4483.6514   221.1712     0.5035     2.2763     0.0691     3.3953     1.0355     1.3412   397.8105   399.6447   399.7173   439.6253   557.9995   663.9200   798.3418    79.7217
  1742.000    87.7162    72.1526     9.8366  4575.3345   199.7817     0.4952     2.2675     0.0672     3.3387     1.0321     1.3204   400.2463   407.3610   403.1784   444.4189   557.9995   663.9200   798.3418    82.0083
  1742.100    90.8870    72.1640     9.8339  4575.3345   199.7817     0.4860     2.2624     0.0641     3.2837     1.0242     1.3019   402.0262   414.7845   404.4988   444.4189   566.4361   661.1793   794.0766    85.0126
  1742.200    93.8641    72.1640     9.8118  4479.4746   199.7817     0.4763     2.2667     0.0628     3.2190     1.0120     1.2888   403.3281   411.9808   404.9023   450.3741   569.0710   661.1793   784.3366    87.8383
  1742.300    95.6827    72.1650     9.7925  4479.4746   210.9113     0.4627     2.2761     0.0638     3.1715     0.9982     1.2801   404.4224   405.4854   404.4587   444.6445   569.0710   665.2458   784.3366    89.5897
  1742.400    95.7187    72.1650     9.7682  4479.4746   235.4086     0.4419     2.2936     0.0676     3.1536     0.9870     1.2782   404.8698   401.2964   404.0919   444.6445   559.1145   665.2458   785.3467    89.6829
  1742.500    95.3854    72.1648     9.7632  4478.8135   235.4086     0.4157     2.3103     0.0713     3.1659     0.9820     1.2867   404.8725   411.4288   403.7008   432.6823   559.1145   661.8929   788.7755    89.4438
  1742.600    94.8631    72.1648     9.7213  4406.2339   250.9152     0.3924     2.3265     0.0717     3.1999     0.9863     1.3026   403.1617   417.2323   401.9700   432.6823   551.0152   661.8929   788.7755    89.0506
  1742.700    92.3031    72.1618     9.6845  4406.2339   250.9152     0.3771     2.3354     0.0655     3.2532     1.0013     1.3250   400.1100   416.1826   399.3016   419.4575   551.0152   656.8487   787.8432    86.7728
  1742.800    87.7170    72.1618     9.6477  4730.7139   253.1637     0.3721     2.3402     0.0532     3.3349     1.0264     1.3548   394.9292   392.1765   394.5732   419.4575   536.9720   656.8487   787.8432    82.6290
  1742.900    82.3171    72.1682     9.5355  4730.7139   253.1637     0.3721     2.3411     0.0382     3.4139     1.0588     1.3860   389.3481   377.6005   389.1331   411.1804   536.9720   654.9293   796.4086    77.7408
  1743.000    77.8901    72.1676     9.3983  5446.7046   286.5620     0.3752     2.3441     0.0251     3.4648     1.0928     1.4089   383.0240   361.8709   383.2538   411.1804   536.0363   654.9293   796.4086    73.7673
  1743.100    74.3800    72.1676     9.2611  5446.7046   286.5620     0.3754     2.3486     0.0161     3.4697     1.1240     1.4239   378.2462   368.4398   377.9276   406.1225   536.0363   659.9792   787.6494    70.6186
  1743.200    71.9903    72.1564     9.2570  5732.0552   308.5036     0.3726     2.3503     0.0116     3.4596     1.1501     1.4342   374.5194   359.1390   374.6172   406.1225   543.1572   659.9792   787.6494    68.4568
  1743.300    70.8166    72.1656     9.2779  5732.0552   308.5036     0.3659     2.3515     0.0146     3.4497     1.1652     1.4370   373.7347   369.9910   373.5684   412.3779   543.1572   673.3364   785.7177    67.3533
  1743.400    69.8887    72.1656     9.3434  5678.2964   328.7886     0.3597     2.3455     0.0251     3.4610     1.1627     1.4221   374.7404   361.5008   376.0880   412.3779   536.8664   673.3364   785.7177    66.4122
  1743.500    68.4328    72.1681     9.3881  5678.2964   328.7886     0.3570     2.3379     0.0446     3.4903     1.1464     1.3860   378.4905   376.2291   379.7823   412.6368   536.8664   691.2067   786.5305    64.9333
  1743.600    66.4182    72.1681     9.4629  5444.6626   288.7590     0.3620     2.3218     0.0684     3.5442     1.1239     1.3436   383.5362   392.9471   385.5085   412.6368   533.9323   703.1343   786.5305    62.9181
  1743.700    65.4933    72.1691     9.4931  5444.6626   288.7590     0.3775     2.3088     0.0935     3.6016     1.0975     1.3039   389.5336   409.5364   390.7906   416.4050   533.9323   703.1343   785.1555    61.9345
