~Version Information
VERS.          2.00                            : CWLS Log ASCII Standard - Version 2.00
WRAP.          NO                              : One line per depth step
#
~Well Information
#MNEM.UNIT     DATA                            : DESCRIPTION      
#----.----     ---------                       : -----------------
STRT .M        1100.000                        : Start
STOP .M        2323.000                        : Stop
STEP .M           0.100                        : Step increment
NULL .         -999.250                        : Null value
COMP .         ESSO AUSTRALIA PTY LTD          : Company
WELL .         BREAM A20A                      : Well
FLD  .         BREAM                           : Field
PROV .         BASS STRAIT                     : Province / County
CTRY .         AUSTRALIA                       : State / Country
LOC  .         S 38 29 58.899 , E 147 46 20.056 : Location
LOC2 .         N 5738458.020 m , E 567338.25 m : Location 2
UWI  .                                         : Unique Well ID
API  .                                         : API number
SRVC .         Precision Energy Services       : Service company
LIC  .                                         : Licence number
DATE .         19-Oct-2005                     : Logging date
#
~Curve Information
#MNEM.UNIT     API CODES                       : CURVE DESCRIPTION
#----.----     ---------                       : -----------------
DEPT .M        00 001 00 00                    : Logged depth
GGCE .GAPI     30 310 00 00                    : Borehole Corrected Gamma
CGXT .DEGC     30 660 01 00                    : MCG External Temperature
CLDC .IN       45 280 01 00                    : Density Caliper
DNND .CPS      42 334 30 00                    : Near Neutron Raw
DNFD .CPS      42 334 31 00                    : Far Neutron Raw
NPRL .V/V      42 890 01 00                    : Limestone Neutron Por.
DEN  .G/C3     42 350 01 00                    : Compensated Density
DCOR .G/C3     42 356 01 00                    : Density Correction
PDPE .B/E      45 358 01 00                    : PE
DSLL .OHMM     11 220 09 00                    : Shallow Laterolog
DDLL .OHMM     11 220 10 00                    : Deep Laterolog
DT35 .US/M     60 520 32 00                    : 3-5' Compensated Sonic
DT45 .US/M     61 520 00 00                    : 4-5' Compensated Sonic
DT46 .US/M     61 520 04 00                    : 4-6' Compensated Sonic
TR21 .US       60 520 30 00                    : 3' Transit Time
TR11 .US       60 520 04 00                    : 4' Transit Time
TR22 .US       60 520 50 00                    : 5' Transit Time
TR12 .US       60 520 60 00                    : 6' Transit Time
GRGC .GAPI     30 310 01 00                    : Gamma Ray
#
~Parameter Information
#MNEM.UNIT     VALUE                           : DESCRIPTION      
#----.----     ---------                       : -----------------
EREF .M                                        : Elevation of depth reference
DREF .         RT @ 32.82 M                    : Depth reference
GL   .M        -59.40                          : Ground elevation
RUN  .         ON                              : Run number
TDD  .M        2326.000                        : TD (driller)
TDL  .M        2323.100                        : TD (logger)
CSGD .M        1123.000                        : Casing bottom (driller)
CSGL .M        1123.000                        : Casing bottom (logger)
BS   .INCHES   8.50                            : Bit size
MUD  .         KCL/GYL/POLY                    : Mud type
MUDD .LB/USG   10.15                           : Mud density
MUDV .CP       78.00                           : Mud viscosity
PH   .         9.00                            : Mud pH
FL   .         2.80                            : Mud fluid loss rate
MUDS .         FLOWLINE                        : Mud sample source
RM   .OHM-M    0.116                           : Mud resistivity
RMT  .DEGC      25.0                           : Mud sample temperature
RMF  .OHM-M    0.107                           : Mud filtrate resistivity
RMFT .DEGC      25.0                           : Mud filtrate sample temperature
RMC  .OHM-M    0.211                           : Mud cake resistivity
RMCT .DEGC      25.0                           : Mud cake sample temperature
TMAX .DEGC     77.90                           : Max recorder temperature
TIMC .DAY/HR                                   : Time circulation ended
TIML .DAY/HR                                   : Time logger at bottom
UNIT .         1                               : Equipment ID
BASE .         SALE                            : Equipment base location
ENG  .         G.McMANUS, B.MOSS               : Recording engineer
WIT  .         TREVOR LOBO                     : Witnessed by
CSGS .MM       273.050                         : Casing size
CSGW .KG/M     85.87                           : Casing weight
#
~Other Information
--------------------------------------------------------------------------------
RIG: NABORS 453

5" SHUTTLE/MEMORY COMPACT OPERATION.
CREW:  G MCMANUS , B MOSS , B GOODWIN, M KOLCZE.


FIELD FINAL LOGS TO BE CORRELATED TO ANADRILL GAMMA LOG.
DENSITY CALIPER CLOSED FROM 2286 TO TD.
TIME ALLOWED TO LEAVE PIPE STATIONARY ELAPSED, SO CALIPER WAS STILL POWERING UP WHEN LOGGING COMMENCED.

MAX. TEMPERATURE:  77.9 DEG C AT 2263.80 m MD
MAX. INCLINATION: 50.12 DEG AT 1123.20 m MD
MAX. DOGLEG SERVERITY: 11.64 DEG/30m AT 1130.05 m MD
DEPLOYMENT ANGLE:6.5 DEG

HVOL: 2062 FT^3
AVOL:  1036 FT^3

--------------------------------------------------------------------------------
~A  DEPT       GGCE       CGXT       CLDC       DNND       DNFD       NPRL        DEN       DCOR       PDPE       DSLL       DDLL       DT35       DT45       DT46       TR21       TR11       TR22       TR12       GRGC
# ...
  1581.000    80.2844    69.6769    10.1168  4365.4814   201.0478     0.4431     2.1742     0.0628     3.9801     1.0731     1.7842   419.4934   427.4188   421.3748   450.8811   567.9381   686.5412   804.6855    74.6765
  1581.100    77.6949    69.6769     9.7342  4365.4814   201.0478     0.4277     2.1888     0.0584     3.7983     1.0635     1.7408   421.2816   432.9701   421.7825   450.8811   576.2240   679.1175   804.6855    72.7471
  1581.200    77.0414    69.6792     9.4969  4646.9585   253.1628     0.4123     2.2050     0.0511     3.6043     1.0584     1.6863   422.2042   419.9572   421.0418   450.6667   575.2924   669.5534   806.7356    72.6786
  1581.300    78.5136    69.6784     9.2355  4646.9585   253.1628     0.3947     2.2199     0.0447     3.4480     1.0610     1.6349   423.2412   416.8806   420.4489   445.8923   575.2924   669.5534   806.7356    74.5619
  1581.400    81.7881    69.6784     9.1766  4587.5488   262.0548     0.3820     2.2355     0.0428     3.3796     1.0731     1.5953   423.1535   409.1163   419.0245   445.8923   569.8902   667.8832   812.1023    78.0598
  1581.500    84.9312    69.6837     9.1176  4587.5488   262.0548     0.3769     2.2514     0.0426     3.3411     1.0974     1.5754   422.5830   420.8090   417.2957   436.9175   562.8358   667.8832   815.4923    81.3103
  1581.600    88.3135    69.6837     9.0541  4579.9961   228.6725     0.3812     2.2662     0.0404     3.3695     1.1308     1.5814   420.2258   414.5621   415.0533   425.0844   562.8358   663.9169   815.4923    84.7163
  1581.700    88.7780    69.6916     9.0256  4579.9961   228.6725     0.3880     2.2804     0.0349     3.4260     1.1658     1.6078   417.3420   408.8763   412.9604   425.0844   552.2194   660.6645   812.1099    85.2825
  1581.800    86.2136    69.6916     8.9701  5201.0571   273.1874     0.3946     2.2956     0.0288     3.5006     1.1967     1.6461   414.1571   398.9853   411.3259   422.4500   552.2194   660.6645   806.6419    82.9194
  1581.900    82.1927    69.6858     8.9430  5201.0571   273.1871     0.3963     2.3048     0.0225     3.5452     1.2171     1.6905   411.2755   395.7345   410.6025   422.4500   547.5155   656.8548   806.6419    79.1359
  1582.000    80.1948    69.6858     8.9148  5339.3252   273.1871     0.3935     2.3109     0.0193     3.5632     1.2216     1.7310   409.0340   401.7690   411.2891   419.0513   544.8326   656.8548   798.2551    77.2641
  1582.100    78.4372    69.6837     8.9136  5244.5806   284.3090     0.3881     2.3113     0.0178     3.5479     1.2159     1.7581   407.2345   409.2692   412.7332   411.5186   544.8326   654.4686   798.2551    75.5876
  1582.200    76.0031    69.6833     8.9273  5244.5806   284.3090     0.3851     2.3114     0.0180     3.5191     1.2063     1.7659   406.5818   421.5440   413.5547   411.5186   545.3893   654.4992   793.4956    73.2234
  1582.300    72.8850    69.6833     8.9422  5295.5215   279.3706     0.3845     2.3105     0.0179     3.4921     1.1928     1.7488   406.0674   423.1647   412.9968   409.7390   545.3893   654.4992   794.3794    70.1716
  1582.400    71.1269    69.6989     8.9943  5295.5215   279.3706     0.3872     2.3115     0.0194     3.4927     1.1779     1.7025   406.5419   419.8548   410.9299   409.7390   542.3511   654.4440   794.3794    68.4057
  1582.500    68.6665    69.6989     9.0416  5288.2725   275.4084     0.3938     2.3108     0.0217     3.4913     1.1657     1.6443   407.1479   411.0478   408.6378   408.6881   542.3631   647.3018   791.4402    65.9557
  1582.600    66.8666    69.6951     9.0889  5288.2725   275.4084     0.4076     2.3085     0.0254     3.4694     1.1575     1.5941   408.3598   405.9370   405.4101   408.7076   542.3631   645.3931   791.4402    64.1353
  1582.700    66.2470    69.6951     9.1053  5162.1396   244.2622     0.4271     2.3044     0.0288     3.4200     1.1531     1.5552   409.0989   409.9565   403.0219   408.7076   542.3519   646.2257   787.9084    63.4435
  1582.800    67.8027    69.6932     9.1117  5162.1396   224.2615     0.4497     2.2992     0.0310     3.3729     1.1560     1.5379   409.3748   410.7913   400.6674   408.7001   538.3815   648.6982   788.0089    64.8214
  1582.900    70.2818    69.6975     9.2038  4923.3101   224.2615     0.4703     2.2946     0.0302     3.3340     1.1703     1.5531   408.0155   404.6034   399.7224   414.3702   535.7080   648.6982   788.0089    67.0509
  1583.000    73.8749    69.6975     9.2894  4883.8037   219.7871     0.4821     2.2939     0.0274     3.3272     1.1964     1.6005   405.0248   392.1798   397.7522   410.4406   532.3530   650.5004   787.9066    70.3169
  1583.100    77.7119    69.6874     9.3971  4883.8037   219.7871     0.4790     2.2997     0.0237     3.3706     1.2345     1.6793   400.5076   385.4062   395.9323   407.6936   528.6384   658.7846   771.2433    73.8127
  1583.200    79.9169    69.6874     9.4190  5005.0776   230.9122     0.4602     2.3085     0.0202     3.4563     1.2785     1.7770   395.6100   385.6434   393.3134   406.0318   528.6384   658.8113   770.8594    75.7855
  1583.300    79.4948    69.6922     9.4411  5005.0776   288.8235     0.4320     2.3155     0.0172     3.5586     1.3198     1.8746   390.6149   378.1504   390.9405   406.0318   525.5540   661.6005   770.8746    75.2941
  1583.400    77.1238    69.6970     9.4740  5406.2192   288.8235     0.4020     2.3183     0.0162     3.6394     1.3542     1.9643   386.5459   370.9579   388.2518   402.6387   528.2270   661.6005   771.6229    72.9662
  1583.500    74.5637    69.6970     9.5070  5228.7075   295.0399     0.3782     2.3193     0.0185     3.7008     1.3737     2.0243   383.4052   365.1269   386.2154   402.5485   527.4417   672.1805   771.6229    70.4592
  1583.600    72.0021    69.6896     9.5658  5228.7075   295.0399     0.3645     2.3157     0.0224     3.7031     1.3711     2.0333   382.0302   377.5714   385.6938   404.0220   531.8286   672.1805   773.8656    67.9505
  1583.700    71.1819    69.6947     9.5918  5146.8032   270.9245     0.3632     2.3087     0.0268     3.6664     1.3546     2.0141   381.8222   386.6471   386.6701   412.7660   531.8286   677.3953   784.6253    67.0991
  1583.800    72.0942    69.6947     9.6251  5146.8032   270.9245     0.3720     2.2974     0.0305     3.6092     1.3328     1.9897   383.3564   399.7975   389.7540   412.7660   551.5150   677.3953   781.6474    67.9051
  1583.900    73.2803    69.6916     9.6325  4953.9463   273.1894     0.3881     2.2878     0.0356     3.5754     1.3088     1.9615   385.8529   399.5610   394.0385   435.6769   551.5150   677.4189   780.7712    68.9803
  1584.000    72.9885    69.6916     9.6405  4953.9463   222.0291     0.4053     2.2726     0.0416     3.6076     1.2850     1.9171   390.7117   407.7241   400.1374   435.6769   559.8107   677.4189   780.7712    68.6656
  1584.100    71.9170    69.6919     9.6413  4814.9810   222.0291     0.4197     2.2578     0.0525     3.7082     1.2612     1.8412   395.9830   413.7430   405.5125   443.3056   559.8107   683.3137   787.8991    67.5902
  1584.200    71.3676    69.6919     9.6877  4583.1333   228.6913     0.4291     2.2430     0.0694     3.9107     1.2375     1.7522   402.3723   426.6685   410.5163   443.3056   563.0787   683.3137   787.8991    66.9635
  1584.300    71.5532    69.6909     9.7334  4583.1333   228.6913     0.4346     2.2366     0.0911     4.1535     1.2143     1.6680   406.8985   424.8134   412.6460   445.1804   563.0787   683.3137   795.1616    66.9649
  1584.400    72.8585    69.6894     9.8847  4440.1177   222.0296     0.4364     2.2286     0.1086     4.3350     1.1911     1.5861   411.1437   424.3564   412.8892   445.1804   570.7020   687.2029   795.1616    67.9504
  1584.500    76.1846    69.6894    10.0369  4440.1177   199.8171     0.4371     2.2297     0.1189     4.3505     1.1711     1.5222   412.5436   408.9325   409.8683   455.1804   570.7020   687.2029   795.7674    70.7762
  1584.600    80.2578    69.7017    10.1891  4120.5220   199.8171     0.4385     2.2313     0.1158     4.2191     1.1583     1.4960   413.2327   399.4381   406.8070   455.1804   570.7020   681.2104   795.7674    74.3098
