~Version Information
VERS.          2.00                            : CWLS Log ASCII Standard - Version 2.00
WRAP.          NO                              : One line per depth step
#
~Well Information
#MNEM.UNIT     DATA                            : DESCRIPTION      
#----.----     ---------                       : -----------------
STRT .M        1100.000                        : Start
STOP .M        2323.000                        : Stop
STEP .M           0.100                        : Step increment
NULL .         -999.250                        : Null value
COMP .         ESSO AUSTRALIA PTY LTD          : Company
WELL .         BREAM A20A                      : Well
FLD  .         BREAM                           : Field
PROV .         BASS STRAIT                     : Province / County
CTRY .         AUSTRALIA                       : State / Country
LOC  .         S 38 29 58.899 , E 147 46 20.056 : Location
LOC2 .         N 5738458.020 m , E 567338.25 m : Location 2
UWI  .                                         : Unique Well ID
API  .                                         : API number
SRVC .         Precision Energy Services       : Service company
LIC  .                                         : Licence number
DATE .         19-Oct-2005                     : Logging date
#
~Curve Information
#MNEM.UNIT     API CODES                       : CURVE DESCRIPTION
#----.----     ---------                       : -----------------
DEPT .M        00 001 00 00                    : Logged depth
GGCE .GAPI     30 310 00 00                    : Borehole Corrected Gamma
CGXT .DEGC     30 660 01 00                    : MCG External Temperature
CLDC .IN       45 280 01 00                    : Density Caliper
DNND .CPS      42 334 30 00                    : Near Neutron Raw
DNFD .CPS      42 334 31 00                    : Far Neutron Raw
NPRL .V/V      42 890 01 00                    : Limestone Neutron Por.
DEN  .G/C3     42 350 01 00                    : Compensated Density
DCOR .G/C3     42 356 01 00                    : Density Correction
PDPE .B/E      45 358 01 00                    : PE
DSLL .OHMM     11 220 09 00                    : Shallow Laterolog
DDLL .OHMM     11 220 10 00                    : Deep Laterolog
DT35 .US/M     60 520 32 00                    : 3-5' Compensated Sonic
DT45 .US/M     61 520 00 00                    : 4-5' Compensated Sonic
DT46 .US/M     61 520 04 00                    : 4-6' Compensated Sonic
TR21 .US       60 520 30 00                    : 3' Transit Time
TR11 .US       60 520 04 00                    : 4' Transit Time
TR22 .US       60 520 50 00                    : 5' Transit Time
TR12 .US       60 520 60 00                    : 6' Transit Time
GRGC .GAPI     30 310 01 00                    : Gamma Ray
#
~Parameter Information
#MNEM.UNIT     VALUE                           : DESCRIPTION      
#----.----     ---------                       : -----------------
EREF .M                                        : Elevation of depth reference
DREF .         RT @ 32.82 M                    : Depth reference
GL   .M        -59.40                          : Ground elevation
RUN  .         ON                              : Run number
TDD  .M        2326.000                        : TD (driller)
TDL  .M        2323.100                        : TD (logger)
CSGD .M        1123.000                        : Casing bottom (driller)
CSGL .M        1123.000                        : Casing bottom (logger)
BS   .INCHES   8.50                            : Bit size
MUD  .         KCL/GYL/POLY                    : Mud type
MUDD .LB/USG   10.15                           : Mud density
MUDV .CP       78.00                           : Mud viscosity
PH   .         9.00                            : Mud pH
FL   .         2.80                            : Mud fluid loss rate
MUDS .         FLOWLINE                        : Mud sample source
RM   .OHM-M    0.116                           : Mud resistivity
RMT  .DEGC      25.0                           : Mud sample temperature
RMF  .OHM-M    0.107                           : Mud filtrate resistivity
RMFT .DEGC      25.0                           : Mud filtrate sample temperature
RMC  .OHM-M    0.211                           : Mud cake resistivity
RMCT .DEGC      25.0                           : Mud cake sample temperature
TMAX .DEGC     77.90                           : Max recorder temperature
TIMC .DAY/HR                                   : Time circulation ended
TIML .DAY/HR                                   : Time logger at bottom
UNIT .         1                               : Equipment ID
BASE .         SALE                            : Equipment base location
ENG  .         G.McMANUS, B.MOSS               : Recording engineer
WIT  .         TREVOR LOBO                     : Witnessed by
CSGS .MM       273.050                         : Casing size
CSGW .KG/M     85.87                           : Casing weight
#
~Other Information
--------------------------------------------------------------------------------
RIG: NABORS 453

5" SHUTTLE/MEMORY COMPACT OPERATION.
CREW:  G MCMANUS , B MOSS , B GOODWIN, M KOLCZE.


FIELD FINAL LOGS TO BE CORRELATED TO ANADRILL GAMMA LOG.
DENSITY CALIPER CLOSED FROM 2286 TO TD.
TIME ALLOWED TO LEAVE PIPE STATIONARY ELAPSED, SO CALIPER WAS STILL POWERING UP WHEN LOGGING COMMENCED.

MAX. TEMPERATURE:  77.9 DEG C AT 2263.80 m MD
MAX. INCLINATION: 50.12 DEG AT 1123.20 m MD
MAX. DOGLEG SERVERITY: 11.64 DEG/30m AT 1130.05 m MD
DEPLOYMENT ANGLE:6.5 DEG

HVOL: 2062 FT^3
AVOL:  1036 FT^3

--------------------------------------------------------------------------------
~A  DEPT       GGCE       CGXT       CLDC       DNND       DNFD       NPRL        DEN       DCOR       PDPE       DSLL       DDLL       DT35       DT45       DT46       TR21       TR11       TR22       TR12       GRGC
# ...
  1259.100    71.8433    63.3773     9.7623  5667.8589   353.0198     0.3148     2.2989    -0.0036     3.0519     2.3664     2.7450   353.0376   356.9859   353.1674   362.0267   467.7886   579.8040   683.0604    65.9067
  1259.200    73.5823    63.3781     9.7909  5636.5039   355.5031     0.3125     2.3007    -0.0031     3.0793     2.3172     2.6837   354.7965   359.9250   354.8678   362.0267   470.9690   579.8040   683.0604    67.7873
  1259.300    75.2258    63.3777     9.7969  5598.2964   348.9643     0.3108     2.3028    -0.0026     3.1062     2.2701     2.6254   356.4880   362.3445   356.4834   365.8073   472.7794   583.8557   686.7308    70.3461
  1259.400    76.1780    63.3729     9.8010  5426.3633   319.5399     0.3101     2.3051    -0.0018     3.1294     2.2318     2.5786   357.8681   361.8908   357.8264   365.8073   472.7794   583.8557   686.7308    70.3461
  1259.500    76.7662    63.3724     9.7764  5363.5942   311.5320     0.3106     2.3068    -0.0012     3.1408     2.2006     2.5414   359.0961   362.3998   358.8392   366.1103   472.7794   583.8557   686.7308    71.6957
  1259.600    77.0882    63.3742     9.7405  5371.5283   315.4669     0.3119     2.3082    -0.0005     3.1461     2.1747     2.5112   360.1713   363.2596   359.6076   366.1103   475.3750   583.8073   684.4793    72.1946
  1259.700    76.6989    63.3742     9.7682  5498.4722   315.4669     0.3143     2.3095     0.0004     3.1627     2.1573     2.4927   360.6985   361.4847   359.8701   366.1103   475.3750   583.8073   684.4793    72.1946
  1259.800    76.0519    63.3732     9.7971  5513.1055   326.1567     0.3182     2.3103     0.0013     3.1802     2.1447     2.4812   361.0831   361.4988   360.0536   366.7163   475.3750   583.8073   687.2440    71.5673
  1259.900    75.1616    63.3711     9.8268  5416.9536   347.2021     0.3236     2.3106     0.0022     3.1985     2.1369     2.4769   361.3210   363.2736   360.1565   366.7163   475.3750   586.3821   687.2440    71.5673
  1260.000    73.8083    63.3756     9.8854  5409.3228   309.4656     0.3307     2.3113     0.0034     3.2232     2.1343     2.4818   361.0689   362.7651   360.0404   366.7163   475.9370   586.3821   687.2440    70.1332
  1260.100    72.7859    63.3788     9.9499  5360.5532   282.0812     0.3381     2.3117     0.0044     3.2456     2.1337     2.4895   360.6484   361.4537   359.8374   366.7484   475.9370   586.3821   692.6895    67.9378
  1260.200    72.4043    63.3788    10.0237  5218.6792   282.0812     0.3461     2.3115     0.0052     3.2634     2.1355     2.5012   359.9731   358.9514   359.4981   366.7484   475.9370   586.3821   692.6895    67.9378
  1260.300    72.5971    63.3774    10.0963  5188.0942   269.4799     0.3523     2.3114     0.0060     3.2873     2.1438     2.5216   359.0265   358.0829   358.7307   366.7484   475.7232   589.9066   692.6895    67.1769
  1260.400    73.0042    63.3752    10.1692  5188.5630   256.3642     0.3573     2.3112     0.0067     3.3107     2.1560     2.5479   357.9469   357.3934   357.8535   364.6877   475.7232   597.7743   692.3616    67.4920
  1260.500    73.5926    63.3721    10.2385  5188.5630   256.3642     0.3598     2.3109     0.0074     3.3231     2.1758     2.5858   356.7260   355.6449   357.0874   364.6877   475.7232   597.7743   692.3616    67.4920
  1260.600    73.8253    63.3709    10.2799  5179.7358   286.2274     0.3592     2.3108     0.0082     3.3228     2.1979     2.6257   355.5548   354.0107   356.3076   364.6877   477.0298   597.7743   692.3616    68.1663
  1260.700    73.8224    63.3713    10.3066  5166.4951   329.0647     0.3566     2.3108     0.0091     3.3147     2.2218     2.6676   354.4019   352.3151   355.5308   365.9251   479.1023   601.8766   697.1497    68.0782
  1260.800    73.2745    63.3769    10.3380  5166.4951   298.2326     0.3500     2.3097     0.0096     3.2986     2.2454     2.7061   353.5452   349.3708   355.2160   365.9251   479.1023   601.8766   697.1497    68.0782
  1260.900    72.4504    63.3798    10.3602  5124.9009   282.0824     0.3421     2.3088     0.0100     3.2925     2.2686     2.7437   353.0089   347.3627   355.0038   367.1156   479.1023   601.8766   697.1497    67.1825
  1261.000    71.3417    63.3798    10.3721  5039.0293   282.0824     0.3330     2.3080     0.0102     3.2972     2.2909     2.7799   352.8283   346.4007   354.9060   367.1156   479.1023   603.4802   697.1497    67.1825
  1261.100    69.8143    63.3798    10.3839  5177.9565   310.4665     0.3254     2.3071     0.0100     3.3210     2.3064     2.8049   353.1902   351.4323   355.4879   367.1156   477.9916   603.4802   702.6468    65.5235
  1261.200    68.3619    63.3791    10.3954  5283.4165   331.0205     0.3188     2.3065     0.0096     3.3484     2.3183     2.8230   353.7951   356.4193   356.1999   367.1827   477.9916   607.6934   710.4791    63.1917
  1261.300    67.1903    63.3773    10.4059  5283.4165   331.0205     0.3142     2.3063     0.0091     3.3784     2.3238     2.8287   354.7478   360.1107   357.0161   367.1827   477.9916   607.6934   710.4791    63.1917
  1261.400    66.6897    63.3768    10.4117  5571.0601   337.5803     0.3113     2.3054     0.0080     3.4048     2.3234     2.8252   355.9149   364.9171   358.1467   367.1827   483.3331   607.6934   710.4791    61.4420
  1261.500    66.5740    63.3756    10.4209  5870.4438   344.4079     0.3088     2.3044     0.0067     3.4319     2.3195     2.8173   357.1977   368.6740   359.3718   374.3195   488.7348   607.6591   713.9166    60.9923
  1261.600    67.1320    63.3697    10.4489  5870.4438   344.4079     0.3062     2.3038     0.0053     3.4659     2.3093     2.8037   358.6712   367.0695   360.5863   374.3195   488.7348   607.6591   713.9166    60.9923
  1261.700    67.7320    63.3675    10.4591  6060.1597   356.8836     0.3033     2.3049     0.0044     3.5026     2.2961     2.7868   360.2701   365.6216   362.0727   382.0642   488.7348   607.6591   713.9166    61.7983
  1261.800    68.3448    63.3675    10.4584  6344.7334   375.5972     0.3003     2.3072     0.0039     3.5401     2.2812     2.7681   361.9238   364.3811   363.7062   382.0642   501.6119   606.2637   713.3199    62.7403
  1261.900    69.0197    63.3673    10.4577  6344.7334   375.5972     0.2954     2.3123     0.0042     3.5814     2.2630     2.7427   363.9979   364.6908   365.7974   382.0642   501.6119   606.2637   713.3199    62.7403
  1262.000    69.7323    63.3710    10.4140  6406.5010   397.8770     0.2905     2.3182     0.0049     3.6183     2.2402     2.7110   366.2411   366.1296   368.0753   394.0384   501.6119   610.9327   714.2948    63.8615
  1262.100    70.5102    63.3792    10.3217  6538.2725   445.4072     0.2851     2.3252     0.0059     3.6517     2.2118     2.6712   368.7452   368.8583   370.6343   394.0384   501.6119   610.9327   714.2948    63.8615
  1262.200    71.3415    63.3800    10.1619  6550.6260   449.8632     0.2797     2.3325     0.0070     3.6857     2.1764     2.6214   371.5602   376.3723   373.3131   394.0384   503.1354   610.9327   714.2948    65.2511
  1262.300    72.2063    63.3783     9.9976  6570.4736   446.4237     0.2757     2.3397     0.0081     3.7139     2.1418     2.5713   374.2470   382.8014   375.7961   392.4151   502.8225   613.6926   714.2197    66.8196
  1262.400    73.1686    63.3733     9.8307  6630.9624   435.9415     0.2743     2.3469     0.0093     3.7313     2.1085     2.5204   376.7411   386.3767   377.9810   392.4151   502.8225   613.6926   714.2197    66.8196
  1262.500    74.2263    63.3732     9.6922  6645.1392   433.4848     0.2772     2.3527     0.0102     3.7373     2.0782     2.4729   378.6751   389.7563   379.6870   393.8039   502.8225   613.6926   714.2197    68.6127
  1262.600    75.2846    63.3744     9.5770  6633.6289   428.6810     0.2826     2.3575     0.0108     3.7345     2.0485     2.4267   380.2115   391.8669   381.0400   393.8039   501.5970   611.8377   717.0862    70.5857
  1262.700    76.1211    63.3744     9.5374  6572.2422   403.0611     0.2925     2.3595     0.0108     3.7092     2.0204     2.3858   380.6085   388.4386   381.3581   393.8039   501.5970   611.8377   717.0862    70.5857
