~Version Information
VERS.          2.00                            : CWLS Log ASCII Standard - Version 2.00
WRAP.          NO                              : One line per depth step
#
~Well Information
#MNEM.UNIT     DATA                            : DESCRIPTION      
#----.----     ---------                       : -----------------
STRT .M        1100.000                        : Start
STOP .M        2323.000                        : Stop
STEP .M           0.100                        : Step increment
NULL .         -999.250                        : Null value
COMP .         ESSO AUSTRALIA PTY LTD          : Company
WELL .         BREAM A20A                      : Well
FLD  .         BREAM                           : Field
PROV .         BASS STRAIT                     : Province / County
CTRY .         AUSTRALIA                       : State / Country
LOC  .         S 38 29 58.899 , E 147 46 20.056 : Location
LOC2 .         N 5738458.020 m , E 567338.25 m : Location 2
UWI  .                                         : Unique Well ID
API  .                                         : API number
SRVC .         Precision Energy Services       : Service company
LIC  .                                         : Licence number
DATE .         19-Oct-2005                     : Logging date
#
~Curve Information
#MNEM.UNIT     API CODES                       : CURVE DESCRIPTION
#----.----     ---------                       : -----------------
DEPT .M        00 001 00 00                    : Logged depth
GGCE .GAPI     30 310 00 00                    : Borehole Corrected Gamma
CGXT .DEGC     30 660 01 00                    : MCG External Temperature
CLDC .IN       45 280 01 00                    : Density Caliper
DNND .CPS      42 334 30 00                    : Near Neutron Raw
DNFD .CPS      42 334 31 00                    : Far Neutron Raw
NPRL .V/V      42 890 01 00                    : Limestone Neutron Por.
DEN  .G/C3     42 350 01 00                    : Compensated Density
DCOR .G/C3     42 356 01 00                    : Density Correction
PDPE .B/E      45 358 01 00                    : PE
DSLL .OHMM     11 220 09 00                    : Shallow Laterolog
DDLL .OHMM     11 220 10 00                    : Deep Laterolog
DT35 .US/M     60 520 32 00                    : 3-5' Compensated Sonic
DT45 .US/M     61 520 00 00                    : 4-5' Compensated Sonic
DT46 .US/M     61 520 04 00                    : 4-6' Compensated Sonic
TR21 .US       60 520 30 00                    : 3' Transit Time
TR11 .US       60 520 04 00                    : 4' Transit Time
TR22 .US       60 520 50 00                    : 5' Transit Time
TR12 .US       60 520 60 00                    : 6' Transit Time
GRGC .GAPI     30 310 01 00                    : Gamma Ray
#
~Parameter Information
#MNEM.UNIT     VALUE                           : DESCRIPTION      
#----.----     ---------                       : -----------------
EREF .M                                        : Elevation of depth reference
DREF .         RT @ 32.82 M                    : Depth reference
GL   .M        -59.40                          : Ground elevation
RUN  .         ON                              : Run number
TDD  .M        2326.000                        : TD (driller)
TDL  .M        2323.100                        : TD (logger)
CSGD .M        1123.000                        : Casing bottom (driller)
CSGL .M        1123.000                        : Casing bottom (logger)
BS   .INCHES   8.50                            : Bit size
MUD  .         KCL/GYL/POLY                    : Mud type
MUDD .LB/USG   10.15                           : Mud density
MUDV .CP       78.00                           : Mud viscosity
PH   .         9.00                            : Mud pH
FL   .         2.80                            : Mud fluid loss rate
MUDS .         FLOWLINE                        : Mud sample source
RM   .OHM-M    0.116                           : Mud resistivity
RMT  .DEGC      25.0                           : Mud sample temperature
RMF  .OHM-M    0.107                           : Mud filtrate resistivity
RMFT .DEGC      25.0                           : Mud filtrate sample temperature
RMC  .OHM-M    0.211                           : Mud cake resistivity
RMCT .DEGC      25.0                           : Mud cake sample temperature
TMAX .DEGC     77.90                           : Max recorder temperature
TIMC .DAY/HR                                   : Time circulation ended
TIML .DAY/HR                                   : Time logger at bottom
UNIT .         1                               : Equipment ID
BASE .         SALE                            : Equipment base location
ENG  .         G.McMANUS, B.MOSS               : Recording engineer
WIT  .         TREVOR LOBO                     : Witnessed by
CSGS .MM       273.050                         : Casing size
CSGW .KG/M     85.87                           : Casing weight
#
~Other Information
--------------------------------------------------------------------------------
RIG: NABORS 453

5" SHUTTLE/MEMORY COMPACT OPERATION.
CREW:  G MCMANUS , B MOSS , B GOODWIN, M KOLCZE.


FIELD FINAL LOGS TO BE CORRELATED TO ANADRILL GAMMA LOG.
DENSITY CALIPER CLOSED FROM 2286 TO TD.
TIME ALLOWED TO LEAVE PIPE STATIONARY ELAPSED, SO CALIPER WAS STILL POWERING UP WHEN LOGGING COMMENCED.

MAX. TEMPERATURE:  77.9 DEG C AT 2263.80 m MD
MAX. INCLINATION: 50.12 DEG AT 1123.20 m MD
MAX. DOGLEG SERVERITY: 11.64 DEG/30m AT 1130.05 m MD
DEPLOYMENT ANGLE:6.5 DEG

HVOL: 2062 FT^3
AVOL:  1036 FT^3

--------------------------------------------------------------------------------
~A  DEPT       GGCE       CGXT       CLDC       DNND       DNFD       NPRL        DEN       DCOR       PDPE       DSLL       DDLL       DT35       DT45       DT46       TR21       TR11       TR22       TR12       GRGC
# ...
  2139.700   150.5688    69.0647     9.5651  5239.7480   284.3043     0.3279     2.4815     0.0011     3.4917     2.4744     2.4930   312.8569   314.5028   313.2334   341.0828   436.6715   528.7095   624.6683   142.0781
  2139.800   151.3393    69.0646     9.5380  5201.3193   297.6596     0.3296     2.4795     0.0019     3.4252     2.4702     2.4908   313.0980   317.1404   313.4301   340.9226   436.2449   525.4145   624.3535   142.9557
  2139.900   151.8887    69.0591     9.4849  5262.2153   337.6847     0.3309     2.4772     0.0030     3.3535     2.4667     2.4928   312.8823   316.1943   313.6114   340.7503   435.4255   523.5927   620.5438   143.6269
  2140.000   152.9662    69.0571     9.4471  5491.8442   311.0117     0.3313     2.4721     0.0031     3.3010     2.4635     2.4968   312.2619   312.4626   313.4899   339.7132   435.1936   521.8005   624.3815   144.7920
  2140.100   153.2987    69.0570     9.4138  5686.3774   304.3815     0.3295     2.4686     0.0037     3.2593     2.4626     2.5039   311.4275   311.9769   313.1353   340.0873   434.6153   520.3546   622.8538   145.2129
  2140.200   152.8759    69.0530     9.4111  5665.2236   344.3652     0.3272     2.4650     0.0042     3.2506     2.4645     2.5135   310.6520   308.4816   312.4702   339.3201   434.1208   519.6510   623.1099   144.8712
  2140.300   151.5343    69.0481     9.4055  5704.9209   344.3798     0.3259     2.4637     0.0054     3.2284     2.4690     2.5209   309.9915   309.6732   311.7827   338.5233   434.0649   519.4937   622.0842   143.5902
  2140.400   151.2341    69.0481     9.4316  5747.7007   344.3798     0.3262     2.4633     0.0066     3.2067     2.4762     2.5248   309.6854   307.9470   310.8881   338.3344   433.7825   518.6311   620.9565   143.2627
  2140.500   151.7879    69.0404     9.4578  5923.7920   343.2837     0.3282     2.4661     0.0086     3.1859     2.4856     2.5292   309.6017   310.4210   310.1025   337.2748   433.5277   517.9025   619.4932   143.7418
  2140.600   152.5745    69.0376     9.4906  5923.7920   317.6627     0.3293     2.4687     0.0096     3.1894     2.4979     2.5382   309.6475   308.9611   309.2063   337.5294   432.0237   517.7085   617.8053   144.4879
  2140.700   154.0286    69.0316     9.4603  5814.2700   337.7238     0.3285     2.4735     0.0108     3.2122     2.5154     2.5549   309.3931   307.8208   308.5257   337.2198   429.9675   517.6265   617.2716   145.9218
  2140.800   155.8416    69.0367     9.4214  5838.2827   337.7238     0.3231     2.4783     0.0115     3.2320     2.5413     2.5827   308.8488   307.1355   307.6623   335.5063   428.7487   517.2155   616.3517   147.7572
  2140.900   158.5436    69.0280     9.3642  5912.9175   404.5910     0.3156     2.4817     0.0119     3.2389     2.5787     2.6243   307.7302   306.8364   306.7696   333.4057   427.9785   515.4651   614.4644   150.4590
  2141.000   159.2713    69.0171     9.3386  5912.9175   362.2611     0.3060     2.4824     0.0120     3.2147     2.6319     2.6825   306.1472   304.0057   305.6995   332.4781   425.8491   514.8182   613.7342   151.2786
  2141.100   160.2004    69.0225     9.3215  6049.5024   373.3297     0.2988     2.4808     0.0121     3.1724     2.7024     2.7568   304.2252   301.4749   304.6403   331.2679   424.9918   514.8293   613.8917   152.2346
  2141.200   159.2977    69.0094     9.3254  6075.6504   388.9660     0.2938     2.4750     0.0112     3.1123     2.7791     2.8361   302.4430   297.7040   303.6026   330.5645   423.1978   515.0776   613.1409   151.3841
  2141.300   158.5512    69.0020     9.3380  6281.7295   395.6375     0.2920     2.4681     0.0101     3.0579     2.8480     2.9083   301.1665   298.1902   302.6066   328.7647   422.5032   516.1838   612.8856   150.6061
  2141.400   156.4976    69.0017     9.3639  6439.6309   391.1885     0.2898     2.4643     0.0099     3.0280     2.9021     2.9659   300.6879   298.5979   301.9469   328.1772   422.3491   515.6772   612.4128   148.5283
  2141.500   155.8056    68.9987     9.4083  6317.6509   411.2197     0.2868     2.4670     0.0116     3.0364     2.9327     3.0004   301.0241   300.2943   301.8448   327.9816   423.1680   517.1885   610.9224   147.7045
  2141.600   155.4240    68.9965     9.4607  6365.9990   422.4849     0.2831     2.4708     0.0132     3.0598     2.9347     3.0100   301.9338   299.8209   302.5724   328.8164   423.3600   517.1885   610.2589   147.1667
  2141.700   157.0016    68.9891     9.5032  6244.4351   382.4285     0.2796     2.4749     0.0148     3.0559     2.9194     3.0069   303.2448   301.9075   303.7690   330.8116   423.6081   523.1656   609.6928   148.5103
  2141.800   158.5943    68.9894     9.5223  6096.3740   411.2617     0.2769     2.4772     0.0160     3.0419     2.9004     3.0027   304.6407   306.6624   305.2829   331.2637   424.2034   527.8256   609.6282   149.9168
  2141.900   160.8420    68.9831     9.5222  5983.8687   400.0725     0.2748     2.4752     0.0159     3.0232     2.8888     3.0093   305.9746   312.0748   306.5994   332.5816   424.2034   528.4488   610.5093   151.9977
  2142.000   161.8775    68.9841     9.5110  5923.0410   377.8152     0.2739     2.4680     0.0139     3.0088     2.9002     3.0450   306.8678   313.6190   307.4851   332.5816   424.3726   528.8281   608.3013   152.9621
  2142.100   163.0605    68.9841     9.5007  5876.8950   400.1316     0.2746     2.4601     0.0108     2.9822     2.9425     3.1182   307.2379   310.2906   307.6446   332.8675   424.7257   527.4049   608.9020   154.0636
  2142.200   162.6189    68.9679     9.5018  6103.4922   400.1316     0.2778     2.4539     0.0077     2.9655     3.0121     3.2259   306.9440   306.8047   307.3334   331.6804   424.0384   526.1633   608.9020   153.5964
  2142.300   161.6745    68.9738     9.5259  6083.3560   377.7878     0.2823     2.4488     0.0042     2.9746     3.1095     3.3718   306.0590   304.2019   306.6221   330.4137   424.4022   525.3017   615.6742   152.6077
  2142.400   159.9895    68.9774     9.5676  6083.3560   353.4041     0.2861     2.4476     0.0020     2.9808     3.2336     3.5510   304.8422   302.6866   305.7977   330.8812   424.6059   524.9445   621.1728   150.8801
  2142.500   157.7422    68.9700     9.6142  5983.8716   382.5744     0.2884     2.4481     0.0007     2.9805     3.3642     3.7303   303.7970   300.7283   304.9586   330.8782   427.0959   523.9795   622.4185   148.6098
  2142.600   154.6369    68.9632     9.6499  6073.8481   404.5405     0.2880     2.4464     0.0011     2.9675     3.4801     3.8857   303.6808   299.5198   304.8405   333.1916   431.1268   523.3943   622.9431   145.5373
  2142.700   151.7809    68.9625     9.6708  6139.9263   386.6872     0.2841     2.4379     0.0022     2.9514     3.5580     3.9971   304.9436   300.7833   305.9102   337.1134   433.2783   521.7587   621.0158   142.7262
  2142.800   149.6079    68.9615     9.6783  6105.7988   382.2928     0.2755     2.4212     0.0048     2.9028     3.5622     4.0193   307.7787   304.4468   308.4802   339.3221   434.7665   523.1224   620.5614   140.5708
  2142.900   147.2163    68.9607     9.6990  6388.8828   453.6162     0.2654     2.3973     0.0090     2.8459     3.4778     3.9375   311.7059   313.3888   312.2053   340.7976   437.2530   522.7474   619.0240   138.2114
  2143.000   144.0960    68.9553     9.7172  6404.7407   433.5323     0.2553     2.3696     0.0147     2.7812     3.3348     3.7940   315.8642   324.0464   316.2728   343.9477   435.7345   522.1754   618.8516   135.1437
  2143.100   139.7777    68.9486     9.7729  6153.6079   471.4134     0.2477     2.3457     0.0218     2.7575     3.1799     3.6327   319.1601   332.3732   319.6652   343.2518   434.4120   520.0913   618.5381   130.9301
  2143.200   134.0874    68.9497     9.8260  6124.6514   424.7017     0.2431     2.3331     0.0288     2.7708     3.0528     3.4979   320.5441   333.0133   321.1739   342.3511   433.6016   518.2827   616.4240   125.4247
  2143.300   129.4347    68.9466     9.8977  6072.0947   420.5570     0.2445     2.3355     0.0338     2.8220     2.9961     3.4493   319.6591   327.5976   320.5781   342.2552   433.1520   515.1542   616.6363   120.9043
