~Version Information
VERS.          2.00                            : CWLS Log ASCII Standard - Version 2.00
WRAP.          NO                              : One line per depth step
#
~Well Information
#MNEM.UNIT     DATA                            : DESCRIPTION      
#----.----     ---------                       : -----------------
STRT .M        1100.000                        : Start
STOP .M        2323.000                        : Stop
STEP .M           0.100                        : Step increment
NULL .         -999.250                        : Null value
COMP .         ESSO AUSTRALIA PTY LTD          : Company
WELL .         BREAM A20A                      : Well
FLD  .         BREAM                           : Field
PROV .         BASS STRAIT                     : Province / County
CTRY .         AUSTRALIA                       : State / Country
LOC  .         S 38 29 58.899 , E 147 46 20.056 : Location
LOC2 .         N 5738458.020 m , E 567338.25 m : Location 2
UWI  .                                         : Unique Well ID
API  .                                         : API number
SRVC .         Precision Energy Services       : Service company
LIC  .                                         : Licence number
DATE .         19-Oct-2005                     : Logging date
#
~Curve Information
#MNEM.UNIT     API CODES                       : CURVE DESCRIPTION
#----.----     ---------                       : -----------------
DEPT .M        00 001 00 00                    : Logged depth
GGCE .GAPI     30 310 00 00                    : Borehole Corrected Gamma
CGXT .DEGC     30 660 01 00                    : MCG External Temperature
CLDC .IN       45 280 01 00                    : Density Caliper
DNND .CPS      42 334 30 00                    : Near Neutron Raw
DNFD .CPS      42 334 31 00                    : Far Neutron Raw
NPRL .V/V      42 890 01 00                    : Limestone Neutron Por.
DEN  .G/C3     42 350 01 00                    : Compensated Density
DCOR .G/C3     42 356 01 00                    : Density Correction
PDPE .B/E      45 358 01 00                    : PE
DSLL .OHMM     11 220 09 00                    : Shallow Laterolog
DDLL .OHMM     11 220 10 00                    : Deep Laterolog
DT35 .US/M     60 520 32 00                    : 3-5' Compensated Sonic
DT45 .US/M     61 520 00 00                    : 4-5' Compensated Sonic
DT46 .US/M     61 520 04 00                    : 4-6' Compensated Sonic
TR21 .US       60 520 30 00                    : 3' Transit Time
TR11 .US       60 520 04 00                    : 4' Transit Time
TR22 .US       60 520 50 00                    : 5' Transit Time
TR12 .US       60 520 60 00                    : 6' Transit Time
GRGC .GAPI     30 310 01 00                    : Gamma Ray
#
~Parameter Information
#MNEM.UNIT     VALUE                           : DESCRIPTION      
#----.----     ---------                       : -----------------
EREF .M                                        : Elevation of depth reference
DREF .         RT @ 32.82 M                    : Depth reference
GL   .M        -59.40                          : Ground elevation
RUN  .         ON                              : Run number
TDD  .M        2326.000                        : TD (driller)
TDL  .M        2323.100                        : TD (logger)
CSGD .M        1123.000                        : Casing bottom (driller)
CSGL .M        1123.000                        : Casing bottom (logger)
BS   .INCHES   8.50                            : Bit size
MUD  .         KCL/GYL/POLY                    : Mud type
MUDD .LB/USG   10.15                           : Mud density
MUDV .CP       78.00                           : Mud viscosity
PH   .         9.00                            : Mud pH
FL   .         2.80                            : Mud fluid loss rate
MUDS .         FLOWLINE                        : Mud sample source
RM   .OHM-M    0.116                           : Mud resistivity
RMT  .DEGC      25.0                           : Mud sample temperature
RMF  .OHM-M    0.107                           : Mud filtrate resistivity
RMFT .DEGC      25.0                           : Mud filtrate sample temperature
RMC  .OHM-M    0.211                           : Mud cake resistivity
RMCT .DEGC      25.0                           : Mud cake sample temperature
TMAX .DEGC     77.90                           : Max recorder temperature
TIMC .DAY/HR                                   : Time circulation ended
TIML .DAY/HR                                   : Time logger at bottom
UNIT .         1                               : Equipment ID
BASE .         SALE                            : Equipment base location
ENG  .         G.McMANUS, B.MOSS               : Recording engineer
WIT  .         TREVOR LOBO                     : Witnessed by
CSGS .MM       273.050                         : Casing size
CSGW .KG/M     85.87                           : Casing weight
#
~Other Information
--------------------------------------------------------------------------------
RIG: NABORS 453

5" SHUTTLE/MEMORY COMPACT OPERATION.
CREW:  G MCMANUS , B MOSS , B GOODWIN, M KOLCZE.


FIELD FINAL LOGS TO BE CORRELATED TO ANADRILL GAMMA LOG.
DENSITY CALIPER CLOSED FROM 2286 TO TD.
TIME ALLOWED TO LEAVE PIPE STATIONARY ELAPSED, SO CALIPER WAS STILL POWERING UP WHEN LOGGING COMMENCED.

MAX. TEMPERATURE:  77.9 DEG C AT 2263.80 m MD
MAX. INCLINATION: 50.12 DEG AT 1123.20 m MD
MAX. DOGLEG SERVERITY: 11.64 DEG/30m AT 1130.05 m MD
DEPLOYMENT ANGLE:6.5 DEG

HVOL: 2062 FT^3
AVOL:  1036 FT^3

--------------------------------------------------------------------------------
~A  DEPT       GGCE       CGXT       CLDC       DNND       DNFD       NPRL        DEN       DCOR       PDPE       DSLL       DDLL       DT35       DT45       DT46       TR21       TR11       TR22       TR12       GRGC
# ...
  2058.300    81.6347    71.7777     9.1360  6404.9585   399.2408     0.3056     2.4451     0.0125     3.3374     1.2424     1.3789   336.1860   316.1889   333.6727   357.4433   467.3321   548.3893   670.3789    78.5047
  2058.400    80.2548    71.7753     9.1287  6501.9316   423.9266     0.2906     2.4573     0.0136     3.3772     1.3282     1.4662   331.5122   314.7897   329.0550   351.6906   463.3365   547.1085   673.2606    77.5188
  2058.500    78.7706    71.7752     9.1270  6512.2510   464.3626     0.2796     2.4646     0.0136     3.3998     1.4013     1.5370   328.4936   316.7639   326.7307   348.6765   458.2650   545.2523   673.4545    75.9663
  2058.600    77.7529    71.7773     9.1271  6588.1587   444.7055     0.2741     2.4668     0.0121     3.4136     1.4483     1.5778   327.0944   320.9364   326.4819   348.3661   453.6983   543.4832   671.9692    74.7729
  2058.700    77.0391    71.7752     9.1287  6588.9272   420.4977     0.2732     2.4651     0.0090     3.4245     1.4611     1.5822   327.0151   326.6104   327.6945   348.6965   449.8545   541.9719   666.8373    74.0719
  2058.800    76.2075    71.7732     9.1336  6691.1587   417.8520     0.2753     2.4621     0.0053     3.4458     1.4477     1.5619   327.6458   331.5502   329.5160   347.5270   448.1216   542.3149   658.6500    73.4007
  2058.900    75.1057    71.7723     9.1477  6700.2012   449.0231     0.2801     2.4599     0.0026     3.4782     1.4233     1.5341   328.5326   334.2345   331.2866   347.3572   451.3073   543.8063   653.1361    72.4593
  2059.000    74.7036    71.7758     9.1707  6676.7417   431.0823     0.2866     2.4580     0.0011     3.5007     1.3983     1.5083   329.4473   334.9206   332.6357   349.8618   451.5081   545.2324   648.0306    71.2495
  2059.100    75.2089    71.7755     9.2047  6667.6553   405.1988     0.2937     2.4536     0.0002     3.4976     1.3818     1.4933   330.2384   334.6896   333.2965   352.4331   451.8646   544.7605   644.9457    71.4721
  2059.200    76.3844    71.7717     9.2488  6425.0879   381.0872     0.2997     2.4461    -0.0006     3.4759     1.3775     1.4940   330.6571   334.0084   333.0929   351.1998   452.5384   543.8836   643.8538    72.0103
  2059.300    77.6795    71.7701     9.2994  6345.1206   372.7036     0.3047     2.4392    -0.0010     3.4536     1.3835     1.5075   330.5949   334.9333   331.9907   351.6761   452.6171   541.9221   642.3658    73.3984
  2059.400    79.5371    71.7693     9.3415  6263.7500   389.4947     0.3074     2.4360    -0.0010     3.4442     1.3978     1.5279   329.8624   335.7301   330.0941   351.2031   449.5014   540.4291   644.6144    74.3398
  2059.500    81.5667    71.7719     9.3639  6072.6074   393.9970     0.3073     2.4371    -0.0012     3.4442     1.4195     1.5528   328.1318   332.9103   327.4108   348.6107   447.6513   537.4385   646.3707    76.5355
  2059.600    82.7116    71.7699     9.3649  6044.9736   365.2642     0.3033     2.4431    -0.0014     3.4475     1.4479     1.5846   325.2274   325.1666   324.1363   346.1738   447.1436   532.5239   647.0540    78.1380
  2059.700    81.9578    71.7634     9.3547  6321.7681   395.0578     0.2972     2.4517    -0.0018     3.4496     1.4862     1.6272   321.5854   315.6508   320.7724   345.2702   447.2620   527.9504   645.6229    78.8425
  2059.800    80.0922    71.7616     9.3457  6600.9063   422.7997     0.2908     2.4606    -0.0020     3.4594     1.5325     1.6764   317.9654   307.1289   317.9372   346.9758   447.2886   524.5456   643.5913    77.2616
  2059.900    77.4614    71.7690     9.3548  6690.9263   443.0317     0.2861     2.4661    -0.0022     3.4551     1.5802     1.7267   315.1933   301.3567   316.0683   346.1829   446.0367   517.6447   642.9018    75.3796
  2060.000    74.5506    71.7649     9.3875  6556.5127   437.4738     0.2845     2.4676    -0.0021     3.4466     1.6216     1.7718   313.9372   303.0153   315.4062   344.7186   444.0279   522.7086   639.3134    72.5564
  2060.100    71.9668    71.7610     9.4507  6455.5742   389.8195     0.2877     2.4656    -0.0017     3.4311     1.6497     1.8022   314.2294   311.3546   316.0095   344.0903   442.7734   528.5483   634.0095    69.7459
  2060.200    70.9168    71.7589     9.5251  6253.4858   381.8993     0.2957     2.4642    -0.0003     3.4290     1.6602     1.8129   315.4141   320.8282   317.4701   345.0041   441.3999   535.3351   629.2551    67.3382
  2060.300    71.0919    71.7557     9.6061  6146.3599   370.8853     0.3061     2.4617     0.0014     3.4219     1.6580     1.8114   316.4782   324.8548   319.0458   344.4977   441.8874   541.6277   624.7321    66.8145
  2060.400    71.6765    71.7533     9.6684  6230.3955   348.4092     0.3142     2.4595     0.0031     3.4246     1.6530     1.8101   316.4614   322.6535   319.7794   345.5605   439.6834   547.4907   621.1226    67.0830
  2060.500    71.9785    71.7576     9.7108  6084.0562   354.3797     0.3162     2.4593     0.0049     3.4420     1.6607     1.8251   315.0645   320.2172   319.1634   346.0895   437.1859   551.9642   619.6302    67.5760
  2060.600    73.0630    71.7542     9.7257  6093.3232   377.8584     0.3116     2.4648     0.0075     3.5032     1.6966     1.8713   312.3427   317.2619   316.8423   344.7832   435.6332   555.3600   625.2330    67.6639
  2060.700    75.0974    71.7573     9.7196  6107.9746   393.1528     0.3008     2.4721     0.0094     3.5830     1.7634     1.9487   308.7256   314.7847   313.0509   341.0541   434.4867   556.4500   629.2949    68.9639
  2060.800    77.8998    71.7511     9.6845  6352.2988   428.3192     0.2871     2.4792     0.0102     3.6640     1.8514     2.0428   305.0760   307.6822   308.5568   336.5791   435.6985   559.4347   633.9855    71.0686
  2060.900    79.9971    71.7503     9.6251  6682.8867   453.6629     0.2730     2.4848     0.0100     3.7258     1.9477     2.1404   302.4660   299.4839   304.8044   335.8346   437.1708   561.1638   643.3089    73.9368
  2061.000    80.8828    71.7470     9.5481  6912.3638   484.4524     0.2633     2.4885     0.0091     3.7567     2.0240     2.2138   302.1542   290.4590   303.2590   337.8731   444.7131   563.7269   650.4144    75.7738
  2061.100    80.3460    71.7407     9.4728  6957.4668   469.8432     0.2590     2.4853     0.0068     3.7231     2.0387     2.2185   305.0210   288.8098   305.2704   348.0308   447.9291   567.5153   655.8452    76.4921
  2061.200    78.7081    71.7367     9.4131  6830.0415   472.0980     0.2616     2.4738     0.0037     3.6161     1.9688     2.1339   311.6455   299.1638   311.3767   353.1073   453.9077   569.2484   655.6808    75.8597
  2061.300    76.3910    71.7345     9.3610  6730.5210   414.4573     0.2680     2.4582     0.0012     3.4599     1.8228     1.9725   321.4146   322.3281   321.1616   360.6954   458.2938   574.7805   656.8647    74.2862
  2061.400    74.6531    71.7411     9.3253  6655.1187   425.1733     0.2787     2.4402    -0.0005     3.2909     1.6266     1.7586   332.9624   350.1988   333.2108   367.4361   460.1164   577.6224   657.0156    72.1303
  2061.500    75.3675    71.7394     9.2976  6298.2734   379.9099     0.2907     2.4240    -0.0011     3.1254     1.4239     1.5384   343.6955   369.1205   344.9484   369.4008   462.1804   577.4373   656.9380    70.7185
  2061.600    77.8660    71.7351     9.2878  5933.3833   380.8366     0.3065     2.4108    -0.0008     2.9908     1.2524     1.3561   351.8560   376.9088   354.1137   372.3101   465.5641   576.1078   658.4733    71.8609
  2061.700    80.8922    71.7356     9.2860  5573.1855   311.6996     0.3222     2.4032     0.0001     2.9277     1.1316     1.2322   355.7971   372.5800   358.6775   374.7106   469.1284   575.6996   660.0613    74.4424
  2061.800    83.3797    71.7352     9.2871  5663.6543   315.9743     0.3387     2.4018     0.0013     2.9302     1.0630     1.1661   355.7892   361.6461   358.6638   375.1832   472.6502   572.9078   665.1103    77.3601
  2061.900    85.3934    71.7302     9.2864  5645.9268   297.6707     0.3489     2.4058     0.0024     2.9829     1.0443     1.1547   352.5704   347.9429   354.6830   373.2723   475.2228   570.7387   668.9066    79.6527
