~Version Information
VERS.          2.00                            : CWLS Log ASCII Standard - Version 2.00
WRAP.          NO                              : One line per depth step
#
~Well Information
#MNEM.UNIT     DATA                            : DESCRIPTION      
#----.----     ---------                       : -----------------
STRT .M        1100.000                        : Start
STOP .M        2323.000                        : Stop
STEP .M           0.100                        : Step increment
NULL .         -999.250                        : Null value
COMP .         ESSO AUSTRALIA PTY LTD          : Company
WELL .         BREAM A20A                      : Well
FLD  .         BREAM                           : Field
PROV .         BASS STRAIT                     : Province / County
CTRY .         AUSTRALIA                       : State / Country
LOC  .         S 38 29 58.899 , E 147 46 20.056 : Location
LOC2 .         N 5738458.020 m , E 567338.25 m : Location 2
UWI  .                                         : Unique Well ID
API  .                                         : API number
SRVC .         Precision Energy Services       : Service company
LIC  .                                         : Licence number
DATE .         19-Oct-2005                     : Logging date
#
~Curve Information
#MNEM.UNIT     API CODES                       : CURVE DESCRIPTION
#----.----     ---------                       : -----------------
DEPT .M        00 001 00 00                    : Logged depth
GGCE .GAPI     30 310 00 00                    : Borehole Corrected Gamma
CGXT .DEGC     30 660 01 00                    : MCG External Temperature
CLDC .IN       45 280 01 00                    : Density Caliper
DNND .CPS      42 334 30 00                    : Near Neutron Raw
DNFD .CPS      42 334 31 00                    : Far Neutron Raw
NPRL .V/V      42 890 01 00                    : Limestone Neutron Por.
DEN  .G/C3     42 350 01 00                    : Compensated Density
DCOR .G/C3     42 356 01 00                    : Density Correction
PDPE .B/E      45 358 01 00                    : PE
DSLL .OHMM     11 220 09 00                    : Shallow Laterolog
DDLL .OHMM     11 220 10 00                    : Deep Laterolog
DT35 .US/M     60 520 32 00                    : 3-5' Compensated Sonic
DT45 .US/M     61 520 00 00                    : 4-5' Compensated Sonic
DT46 .US/M     61 520 04 00                    : 4-6' Compensated Sonic
TR21 .US       60 520 30 00                    : 3' Transit Time
TR11 .US       60 520 04 00                    : 4' Transit Time
TR22 .US       60 520 50 00                    : 5' Transit Time
TR12 .US       60 520 60 00                    : 6' Transit Time
GRGC .GAPI     30 310 01 00                    : Gamma Ray
#
~Parameter Information
#MNEM.UNIT     VALUE                           : DESCRIPTION      
#----.----     ---------                       : -----------------
EREF .M                                        : Elevation of depth reference
DREF .         RT @ 32.82 M                    : Depth reference
GL   .M        -59.40                          : Ground elevation
RUN  .         ON                              : Run number
TDD  .M        2326.000                        : TD (driller)
TDL  .M        2323.100                        : TD (logger)
CSGD .M        1123.000                        : Casing bottom (driller)
CSGL .M        1123.000                        : Casing bottom (logger)
BS   .INCHES   8.50                            : Bit size
MUD  .         KCL/GYL/POLY                    : Mud type
MUDD .LB/USG   10.15                           : Mud density
MUDV .CP       78.00                           : Mud viscosity
PH   .         9.00                            : Mud pH
FL   .         2.80                            : Mud fluid loss rate
MUDS .         FLOWLINE                        : Mud sample source
RM   .OHM-M    0.116                           : Mud resistivity
RMT  .DEGC      25.0                           : Mud sample temperature
RMF  .OHM-M    0.107                           : Mud filtrate resistivity
RMFT .DEGC      25.0                           : Mud filtrate sample temperature
RMC  .OHM-M    0.211                           : Mud cake resistivity
RMCT .DEGC      25.0                           : Mud cake sample temperature
TMAX .DEGC     77.90                           : Max recorder temperature
TIMC .DAY/HR                                   : Time circulation ended
TIML .DAY/HR                                   : Time logger at bottom
UNIT .         1                               : Equipment ID
BASE .         SALE                            : Equipment base location
ENG  .         G.McMANUS, B.MOSS               : Recording engineer
WIT  .         TREVOR LOBO                     : Witnessed by
CSGS .MM       273.050                         : Casing size
CSGW .KG/M     85.87                           : Casing weight
#
~Other Information
--------------------------------------------------------------------------------
RIG: NABORS 453

5" SHUTTLE/MEMORY COMPACT OPERATION.
CREW:  G MCMANUS , B MOSS , B GOODWIN, M KOLCZE.


FIELD FINAL LOGS TO BE CORRELATED TO ANADRILL GAMMA LOG.
DENSITY CALIPER CLOSED FROM 2286 TO TD.
TIME ALLOWED TO LEAVE PIPE STATIONARY ELAPSED, SO CALIPER WAS STILL POWERING UP WHEN LOGGING COMMENCED.

MAX. TEMPERATURE:  77.9 DEG C AT 2263.80 m MD
MAX. INCLINATION: 50.12 DEG AT 1123.20 m MD
MAX. DOGLEG SERVERITY: 11.64 DEG/30m AT 1130.05 m MD
DEPLOYMENT ANGLE:6.5 DEG

HVOL: 2062 FT^3
AVOL:  1036 FT^3

--------------------------------------------------------------------------------
~A  DEPT       GGCE       CGXT       CLDC       DNND       DNFD       NPRL        DEN       DCOR       PDPE       DSLL       DDLL       DT35       DT45       DT46       TR21       TR11       TR22       TR12       GRGC
# ...
  1499.600    77.4379    68.0222     9.4084  5298.0396   273.1814     0.3784     2.3152     0.0215     3.4523     1.3561     1.6494   396.6368   384.3934   399.2014   424.3930   548.3821   657.6651   792.3952    73.4744
  1499.700    76.6366    68.0242     9.4611  5691.5347   295.6193     0.3704     2.3196     0.0164     3.4663     1.3692     1.6500   396.3592   389.7864   398.9946   424.3930   544.4087   657.6651   791.1086    73.0785
  1499.800    74.9314    68.0211     9.5453  5710.3530   335.5090     0.3630     2.3230     0.0141     3.4817     1.3735     1.6491   397.7347   401.3883   399.0516   413.5815   539.1347   669.7856   791.1086    71.4725
  1499.900    73.5480    68.1026     9.6109  5678.2026   321.3714     0.3586     2.3243     0.0145     3.4853     1.3705     1.6490   399.9106   409.7263   398.7111   414.2294   539.1347   669.7856   791.1086    69.5524
  1500.000    73.8819    68.2451     9.6497  5623.4600   297.2992     0.3577     2.3215     0.0162     3.4616     1.3633     1.6462   401.6869   410.2253   397.1827   414.2294   538.7880   669.3002   788.9108    69.0594
  1500.100    76.0698    68.2513     9.6316  5480.6396   291.3506     0.3601     2.3159     0.0178     3.4089     1.3549     1.6423   402.1947   399.0931   394.5777   419.7528   538.7880   669.3002   783.2457    70.5389
  1500.200    78.9703    68.2573     9.5898  5257.2534   282.0466     0.3644     2.3089     0.0183     3.3380     1.3474     1.6402   401.1941   383.5082   392.1236   419.7528   539.3723   656.5134   783.2457    73.4446
  1500.300    80.5471    68.2605     9.5496  5185.3076   282.9797     0.3689     2.3019     0.0175     3.2737     1.3411     1.6379   399.2643   374.5489   390.9086   420.7784   539.3723   656.5134   788.9247    75.8937
  1500.400    79.6120    68.2600     9.5472  5081.7754   284.3225     0.3727     2.2974     0.0163     3.2361     1.3366     1.6354   397.2823   377.1223   391.2292   420.7784   536.6049   654.2026   788.9247    75.9675
  1500.500    76.8000    68.2669     9.5975  5154.2217   274.9679     0.3771     2.2987     0.0164     3.2337     1.3344     1.6349   395.7363   389.5379   392.5844   407.5419   536.6049   654.2026   787.5382    73.7184
  1500.600    73.3835    68.2746     9.6717  5254.2666   263.9560     0.3831     2.3051     0.0180     3.2544     1.3330     1.6359   394.7043   397.8608   394.6442   407.5419   538.5685   664.8819   787.5382    70.3563
  1500.700    70.4482    68.2721     9.7553  5254.5796   266.4829     0.3902     2.3122     0.0200     3.2775     1.3307     1.6359   394.5294   398.4117   396.9277   415.1035   538.5685   664.8819   785.0558    67.1366
  1500.800    68.7425    68.2679     9.8308  5226.1289   263.4947     0.3964     2.3159     0.0210     3.2849     1.3250     1.6332   395.3111   392.4020   399.1173   415.1035   541.9669   671.7375   785.0558    64.6875
  1500.900    68.2607    68.2680     9.9162  5190.8691   259.8423     0.4000     2.3158     0.0212     3.2702     1.3133     1.6264   397.0150   390.7719   401.1863   419.7339   541.9669   671.7375   779.4778    63.8080
  1501.000    68.2218    68.2692     9.9831  5153.1641   267.1730     0.4011     2.3134     0.0216     3.2379     1.2970     1.6155   399.4580   399.6823   403.6558   419.7339   547.5868   672.2462   779.4778    63.5479
  1501.100    68.0713    68.2737    10.0330  5110.6460   264.4387     0.4010     2.3105     0.0235     3.1998     1.2792     1.6026   402.3731   415.2883   406.5103   427.0940   547.5868   672.2462   789.0384    63.5035
  1501.200    67.6083    68.2786    10.0540  5080.9893   252.5212     0.4012     2.3086     0.0266     3.1697     1.2627     1.5905   404.9199   431.3388   408.8467   427.0940   552.1406   684.3627   789.0384    63.0554
  1501.300    67.0289    68.2795    10.0814  4982.5532   251.7319     0.4033     2.3083     0.0297     3.1561     1.2519     1.5822   406.2385   433.3410   409.7859   425.4621   552.1406   684.3627   792.8335    62.4724
  1501.400    66.5629    68.2805    10.1241  4913.5396   250.9105     0.4084     2.3098     0.0315     3.1744     1.2519     1.5809   406.2171   425.3533   409.2642   425.4621   557.5292   685.6763   792.8335    61.8445
  1501.500    66.4621    68.2800    10.1639  4878.1807   240.7121     0.4161     2.3127     0.0313     3.2300     1.2619     1.5864   405.3266   412.7006   407.9327   435.3646   557.5292   685.6763   798.7023    61.4859
  1501.600    66.6473    68.2794    10.1945  4844.2085   230.9137     0.4236     2.3156     0.0291     3.3134     1.2748     1.5923   404.4588   400.9098   406.5656   435.3646   561.0218   684.3557   798.7023    61.5315
  1501.700    66.8857    68.2805    10.2140  4908.5283   233.2740     0.4271     2.3177     0.0265     3.4062     1.2848     1.5922   404.2825   395.2460   405.8821   434.8763   561.0218   684.3557   805.5342    61.7120
  1501.800    67.1838    68.2815    10.2328  4965.5664   235.3671     0.4232     2.3183     0.0257     3.4845     1.2890     1.5844   405.3040   397.0589   406.4485   434.8763   557.7905   689.1188   805.5342    61.8898
  1501.900    67.6428    68.2856    10.2440  4990.8911   254.5699     0.4119     2.3156     0.0275     3.5291     1.2850     1.5688   407.1989   407.2402   408.1049   433.3599   557.7905   689.1188   813.6357    62.2438
  1502.000    68.1129    68.2891    10.2076  5012.4639   275.8363     0.3967     2.3089     0.0309     3.5322     1.2749     1.5478   409.1023   416.3472   409.9703   433.3599   564.5071   690.8466   813.6357    62.8214
  1502.100    68.3127    68.2878    10.0744  4929.2505   279.8524     0.3836     2.3015     0.0352     3.5112     1.2672     1.5290   410.2387   417.6779   411.1245   444.7862   564.5071   690.8466   809.4597    63.3566
  1502.200    68.0127    68.2868     9.8903  4795.7905   253.2577     0.3764     2.2957     0.0389     3.4888     1.2665     1.5178   410.4581   410.7553   411.3691   444.7862   567.9624   690.8466   809.4597    63.5802
  1502.300    67.7987    68.2837     9.7430  4744.4336   245.7012     0.3762     2.2924     0.0414     3.4919     1.2688     1.5120   410.0046   403.3725   410.8899   446.9925   567.9624   688.7875   809.7580    63.2684
  1502.400    68.5239    68.2815     9.6882  4824.1919   254.7573     0.3809     2.2920     0.0440     3.5331     1.2680     1.5072   409.3311   401.9008   409.9815   446.9925   567.9624   688.7875   809.7580    63.4523
  1502.500    69.5917    68.2846     9.7315  4936.6963   252.4944     0.3871     2.2945     0.0480     3.6082     1.2621     1.5007   408.9166   405.2482   409.1095   446.9925   573.3584   687.9556   811.1339    64.6226
  1502.600    70.1359    68.2868     9.8166  4976.3613   250.9220     0.3913     2.2969     0.0533     3.6930     1.2516     1.4899   409.0086   408.2246   408.6823   443.2683   573.3584   687.9556   811.1339    65.4765
  1502.700    69.7492    68.2912     9.9460  4736.1689   241.4350     0.3922     2.2940     0.0579     3.8008     1.2382     1.4752   409.5185   407.7263   408.7505   443.2683   570.1242   694.9017   811.1339    65.5658
  1502.800    68.8885    68.2940    10.0477  4582.6030   238.1289     0.3905     2.2863     0.0618     3.9388     1.2260     1.4602   410.1887   407.2717   409.3189   440.9795   570.1242   694.9017   818.9809    64.6691
  1502.900    67.3868    68.2948    10.1256  4577.1289   239.8201     0.3876     2.2765     0.0653     4.0726     1.2188     1.4490   410.6112   407.9555   410.2609   440.9795   564.1393   695.4158   818.9809    63.6827
  1503.000    65.7705    68.2953    10.1668  4508.1616   242.6603     0.3839     2.2668     0.0673     4.1548     1.2161     1.4445   410.6994   410.4752   411.4322   446.4862   564.1393   688.6944   816.0112    61.8443
  1503.100    64.7985    68.2980    10.1761  4471.1758   244.2579     0.3796     2.2595     0.0668     4.1689     1.2146     1.4480   410.4766   413.3832   412.3453   446.4862   568.1096   688.6944   816.0112    60.4096
  1503.200    64.6309    68.2994    10.1679  4656.3125   241.3553     0.3755     2.2592     0.0657     4.1241     1.2118     1.4580   410.2352   415.1301   412.7835   446.5554   570.0406   681.9265   813.5484    59.7376
