~Version Information
VERS.          2.00                            : CWLS Log ASCII Standard - Version 2.00
WRAP.          NO                              : One line per depth step
#
~Well Information
#MNEM.UNIT     DATA                            : DESCRIPTION      
#----.----     ---------                       : -----------------
STRT .M        1100.000                        : Start
STOP .M        2323.000                        : Stop
STEP .M           0.100                        : Step increment
NULL .         -999.250                        : Null value
COMP .         ESSO AUSTRALIA PTY LTD          : Company
WELL .         BREAM A20A                      : Well
FLD  .         BREAM                           : Field
PROV .         BASS STRAIT                     : Province / County
CTRY .         AUSTRALIA                       : State / Country
LOC  .         S 38 29 58.899 , E 147 46 20.056 : Location
LOC2 .         N 5738458.020 m , E 567338.25 m : Location 2
UWI  .                                         : Unique Well ID
API  .                                         : API number
SRVC .         Precision Energy Services       : Service company
LIC  .                                         : Licence number
DATE .         19-Oct-2005                     : Logging date
#
~Curve Information
#MNEM.UNIT     API CODES                       : CURVE DESCRIPTION
#----.----     ---------                       : -----------------
DEPT .M        00 001 00 00                    : Logged depth
GGCE .GAPI     30 310 00 00                    : Borehole Corrected Gamma
CGXT .DEGC     30 660 01 00                    : MCG External Temperature
CLDC .IN       45 280 01 00                    : Density Caliper
DNND .CPS      42 334 30 00                    : Near Neutron Raw
DNFD .CPS      42 334 31 00                    : Far Neutron Raw
NPRL .V/V      42 890 01 00                    : Limestone Neutron Por.
DEN  .G/C3     42 350 01 00                    : Compensated Density
DCOR .G/C3     42 356 01 00                    : Density Correction
PDPE .B/E      45 358 01 00                    : PE
DSLL .OHMM     11 220 09 00                    : Shallow Laterolog
DDLL .OHMM     11 220 10 00                    : Deep Laterolog
DT35 .US/M     60 520 32 00                    : 3-5' Compensated Sonic
DT45 .US/M     61 520 00 00                    : 4-5' Compensated Sonic
DT46 .US/M     61 520 04 00                    : 4-6' Compensated Sonic
TR21 .US       60 520 30 00                    : 3' Transit Time
TR11 .US       60 520 04 00                    : 4' Transit Time
TR22 .US       60 520 50 00                    : 5' Transit Time
TR12 .US       60 520 60 00                    : 6' Transit Time
GRGC .GAPI     30 310 01 00                    : Gamma Ray
#
~Parameter Information
#MNEM.UNIT     VALUE                           : DESCRIPTION      
#----.----     ---------                       : -----------------
EREF .M                                        : Elevation of depth reference
DREF .         RT @ 32.82 M                    : Depth reference
GL   .M        -59.40                          : Ground elevation
RUN  .         ON                              : Run number
TDD  .M        2326.000                        : TD (driller)
TDL  .M        2323.100                        : TD (logger)
CSGD .M        1123.000                        : Casing bottom (driller)
CSGL .M        1123.000                        : Casing bottom (logger)
BS   .INCHES   8.50                            : Bit size
MUD  .         KCL/GYL/POLY                    : Mud type
MUDD .LB/USG   10.15                           : Mud density
MUDV .CP       78.00                           : Mud viscosity
PH   .         9.00                            : Mud pH
FL   .         2.80                            : Mud fluid loss rate
MUDS .         FLOWLINE                        : Mud sample source
RM   .OHM-M    0.116                           : Mud resistivity
RMT  .DEGC      25.0                           : Mud sample temperature
RMF  .OHM-M    0.107                           : Mud filtrate resistivity
RMFT .DEGC      25.0                           : Mud filtrate sample temperature
RMC  .OHM-M    0.211                           : Mud cake resistivity
RMCT .DEGC      25.0                           : Mud cake sample temperature
TMAX .DEGC     77.90                           : Max recorder temperature
TIMC .DAY/HR                                   : Time circulation ended
TIML .DAY/HR                                   : Time logger at bottom
UNIT .         1                               : Equipment ID
BASE .         SALE                            : Equipment base location
ENG  .         G.McMANUS, B.MOSS               : Recording engineer
WIT  .         TREVOR LOBO                     : Witnessed by
CSGS .MM       273.050                         : Casing size
CSGW .KG/M     85.87                           : Casing weight
#
~Other Information
--------------------------------------------------------------------------------
RIG: NABORS 453

5" SHUTTLE/MEMORY COMPACT OPERATION.
CREW:  G MCMANUS , B MOSS , B GOODWIN, M KOLCZE.


FIELD FINAL LOGS TO BE CORRELATED TO ANADRILL GAMMA LOG.
DENSITY CALIPER CLOSED FROM 2286 TO TD.
TIME ALLOWED TO LEAVE PIPE STATIONARY ELAPSED, SO CALIPER WAS STILL POWERING UP WHEN LOGGING COMMENCED.

MAX. TEMPERATURE:  77.9 DEG C AT 2263.80 m MD
MAX. INCLINATION: 50.12 DEG AT 1123.20 m MD
MAX. DOGLEG SERVERITY: 11.64 DEG/30m AT 1130.05 m MD
DEPLOYMENT ANGLE:6.5 DEG

HVOL: 2062 FT^3
AVOL:  1036 FT^3

--------------------------------------------------------------------------------
~A  DEPT       GGCE       CGXT       CLDC       DNND       DNFD       NPRL        DEN       DCOR       PDPE       DSLL       DDLL       DT35       DT45       DT46       TR21       TR11       TR22       TR12       GRGC
# ...
  2217.400    54.4792    68.2844     9.4380  8588.9922  1121.1533     0.0762     2.1531     0.0537     2.2558   167.0773   235.1357   272.2986   270.1697   275.6656   310.3708   399.2774   490.7022   567.6626    52.8180
  2217.500    53.3956    68.2973     9.3339  9510.6377  1171.3896     0.0767     2.1546     0.0422     2.1499   169.1512   238.0546   273.3146   271.3861   274.9516   317.1971   402.5459   488.1907   569.3644    51.1675
  2217.600    53.1717    68.3034     9.3209  9856.0234  1289.0211     0.0752     2.1578     0.0273     2.0609   172.4880   243.7304   275.3274   277.0656   275.3462   322.4745   403.2091   486.1493   570.9081    50.4485
  2217.700    54.1258    68.3043     9.3759 10255.2441  1457.2372     0.0722     2.1615     0.0149     2.0148   176.3549   251.3437   277.9893   284.6028   276.9328   322.0199   404.8065   484.0152   570.1060    50.5136
  2217.800    55.6217    68.3085     9.3576 10121.0215  1458.7521     0.0684     2.1621     0.0081     2.0072   181.8736   261.2636   280.8595   291.1373   279.2620   319.2926   409.3023   485.4011   571.7108    51.8475
  2217.900    56.9534    68.3142     9.2659  9785.3057  1448.8717     0.0645     2.1540     0.0060     2.0145   187.5598   272.4514   283.3672   294.0682   281.2013   318.6380   404.1571   485.5028   571.3969    53.3839
  2218.000    57.6791    68.3162     9.1533  9870.0293  1457.8055     0.0612     2.1397     0.0072     2.0096   191.9759   283.0285   285.0908   293.2697   282.1434   316.5681   398.7529   486.0177   573.0239    54.6407
  2218.100    58.2612    68.3257     9.1056 10280.7520  1539.0122     0.0589     2.1181     0.0092     2.0008   196.5219   292.6467   285.4514   283.4686   282.0946   314.7963   395.5137   488.2144   577.0911    55.2345
  2218.200    58.8417    69.0638     9.1029 10247.2285  1565.4686     0.0571     2.0958     0.0122     2.0099   199.1507   297.2589   284.5593   271.6616   281.5732   312.7278   394.3110   484.8280   572.7967    55.8729
  2218.300    59.6104    69.3159     9.1194  9991.7539  1517.2738     0.0554     2.0789     0.0161     2.0352   193.6766   287.5018   282.8888   265.8027   280.7690   311.4820   397.5029   478.6137   569.7780    56.4554
  2218.400    60.2575    69.3381     9.1439  9926.1328  1582.3627     0.0540     2.0735     0.0198     2.0517   179.9125   263.8971   281.1628   270.1452   279.9370   313.3405   396.4209   482.9321   568.9477    57.2623
  2218.500    60.4573    69.3504     9.1458 10068.5615  1562.2039     0.0534     2.0758     0.0202     2.0451   163.3334   237.0829   279.6866   276.3155   279.0981   311.5078   393.0438   483.4986   568.7896    57.8336
  2218.600    59.5603    69.3559     9.0912 10086.6670  1553.2469     0.0534     2.0845     0.0167     2.0126   147.5300   213.4979   278.9372   278.9500   278.2072   307.0308   397.4414   482.8675   571.4410    57.9568
  2218.700    57.9000    69.3672     9.0068 10065.4951  1557.8220     0.0538     2.0961     0.0108     1.9556   134.8887   196.6109   279.0602   279.3381   277.0081   312.5211   399.3063   481.7852   569.0161    56.9154
  2218.800    56.4850    69.3819     8.9349 10272.2832  1566.3572     0.0541     2.1065     0.0046     1.8955   128.9227   191.7217   279.8696   278.4754   275.8802   312.7614   396.2612   484.5113   563.9434    55.3072
  2218.900    56.2431    69.3845     8.9037 10522.6396  1627.2091     0.0538     2.1103    -0.0005     1.8505   130.5167   198.7520   280.6926   276.3894   275.3403   308.6859   398.3014   481.3391   566.8165    54.1468
  2219.000    56.2309    69.3993     8.8870 10831.3398  1645.5883     0.0527     2.1084    -0.0035     1.8335   136.9427   211.1850   281.1317   275.3241   275.8446   308.1840   398.7313   479.1435   569.4795    54.2413
  2219.100    57.3181    69.4249     8.8551 10877.6533  1752.2473     0.0507     2.1052    -0.0042     1.8353   145.7822   223.7892   281.0216   277.2451   277.2361   310.6435   396.1949   478.6513   569.5930    54.2861
  2219.200    58.7058    69.4342     8.8311 10638.0342  1793.0076     0.0486     2.1055    -0.0035     1.8514   154.9345   233.9178   280.4429   281.9989   279.1985   308.7664   394.2365   479.6753   571.4022    55.5854
  2219.300    60.6093    69.4366     8.8402 10359.3145  1744.4677     0.0469     2.1096    -0.0018     1.8699   161.6608   239.1483   279.5353   284.5060   280.9258   307.5340   391.7748   481.3090   571.5208    56.9247
  2219.400    60.7558    69.4507     8.8834 10539.5400  1752.6583     0.0460     2.1176     0.0010     1.8915   165.0853   239.0670   278.9332   286.1056   282.1774   305.9551   392.3002   485.7755   567.5964    58.8021
  2219.500    60.6671    69.4665     8.9428 10569.2236  1755.4910     0.0459     2.1227     0.0036     1.9057   167.3854   238.9954   278.8873   287.6184   282.6679   305.7955   393.9382   488.7032   564.8797    58.5736
  2219.600    59.6276    69.4597     9.0065 11203.9766  1741.9784     0.0462     2.1221     0.0056     1.9205   170.5657   244.5590   279.5668   285.4198   282.7628   306.3828   398.1670   491.3305   563.6409    58.4198
  2219.700    59.0790    69.4774     9.0614 11298.9668  1757.5807     0.0460     2.1123     0.0060     1.9322   174.9742   255.0608   280.7411   280.8971   282.4581   311.3490   399.7101   492.1222   566.0857    57.1906
  2219.800    57.4213    69.4891     9.0933 11140.5361  1865.0873     0.0452     2.0990     0.0068     1.9572   179.7310   263.8204   282.3070   280.2806   282.0829   314.0278   399.2910   492.9393   568.1389    56.6780
  2219.900    57.6776    69.5008     9.0996 11164.5771  1906.7235     0.0441     2.0848     0.0077     2.0037   182.7970   265.6295   283.7984   287.7420   282.0299   315.0934   401.0322   494.4927   572.2058    54.8854
  2220.000    58.3559    69.5102     9.1002 10835.3926  1841.8420     0.0430     2.0747     0.0101     2.0734   182.0587   259.7293   284.9399   294.9706   282.3810   316.0847   404.6496   494.0732   573.9631    55.3332
  2220.100    60.4165    69.5187     9.1000 10801.6318  1824.7253     0.0424     2.0687     0.0124     2.1327   175.6675   244.9487   285.3854   292.9471   282.6071   318.7224   404.7999   493.8874   574.6143    55.9798
  2220.200    60.6570    69.5334     9.0988 10690.5703  1775.9238     0.0427     2.0666     0.0138     2.1629   164.7892   224.4381   285.4032   288.4524   282.3577   318.5000   405.5942   501.9142   576.0354    58.0606
  2220.300    61.3925    69.5334     9.0882 10736.0957  1750.5452     0.0438     2.0636     0.0123     2.1582   153.3849   205.1418   284.8248   283.2246   281.9127   319.7548   403.5703   501.9142   577.6875    58.1254
  2220.400    61.1275    69.5401     9.0917 10716.3164  1763.9366     0.0449     2.0591     0.0102     2.1493   143.9593   190.1803   283.8389   277.7946   281.4323   317.5054   401.2238   501.9442   579.2365    58.8457
  2220.500    61.0452    69.5547     9.1563 10893.9004  1699.8081     0.0457     2.0554     0.0096     2.1362   136.2563   178.1105   282.4186   271.2035   280.8329   314.5776   405.4867   505.2767   580.0871    58.4452
  2220.600    59.4723    69.5634     9.2835 10812.5840  1668.5667     0.0459     2.0518     0.0110     2.1203   131.0973   169.2568   281.2101   269.2368   280.3321   320.7118   405.4867   507.8387   580.1444    58.2685
  2220.700    58.7743    69.5686     9.4121 10719.5820  1814.7444     0.0464     2.0495     0.0125     2.1048   129.2210   164.4543   280.4196   274.2910   280.6712   320.7118   404.0941   512.6299   579.9310    56.5652
  2220.800    57.3158    69.5853     9.4789 10034.3281  1599.4415     0.0474     2.0485     0.0128     2.0905   128.6584   162.7906   280.4932   278.1135   281.9829   319.4943   408.4354   514.8829   587.3276    55.8029
  2220.900    56.3264    69.5936     9.4940  9416.7539  1441.9948     0.0490     2.0517     0.0114     2.0684   127.8102   163.3551   281.4671   282.7329   283.9521   322.8068   410.9658   519.5134   587.3276    54.2760
  2221.000    55.6447    69.6065     9.4955  9265.8691  1426.6915     0.0513     2.0545     0.0076     2.0413   125.4319   161.7129   283.7701   288.5996   286.5359   325.0515   414.2134   524.1760   586.3550    53.2873
