~Version Information
VERS.          2.00                            : CWLS Log ASCII Standard - Version 2.00
WRAP.          NO                              : One line per depth step
#
~Well Information
#MNEM.UNIT     DATA                            : DESCRIPTION      
#----.----     ---------                       : -----------------
STRT .M        1100.000                        : Start
STOP .M        2323.000                        : Stop
STEP .M           0.100                        : Step increment
NULL .         -999.250                        : Null value
COMP .         ESSO AUSTRALIA PTY LTD          : Company
WELL .         BREAM A20A                      : Well
FLD  .         BREAM                           : Field
PROV .         BASS STRAIT                     : Province / County
CTRY .         AUSTRALIA                       : State / Country
LOC  .         S 38 29 58.899 , E 147 46 20.056 : Location
LOC2 .         N 5738458.020 m , E 567338.25 m : Location 2
UWI  .                                         : Unique Well ID
API  .                                         : API number
SRVC .         Precision Energy Services       : Service company
LIC  .                                         : Licence number
DATE .         19-Oct-2005                     : Logging date
#
~Curve Information
#MNEM.UNIT     API CODES                       : CURVE DESCRIPTION
#----.----     ---------                       : -----------------
DEPT .M        00 001 00 00                    : Logged depth
GGCE .GAPI     30 310 00 00                    : Borehole Corrected Gamma
CGXT .DEGC     30 660 01 00                    : MCG External Temperature
CLDC .IN       45 280 01 00                    : Density Caliper
DNND .CPS      42 334 30 00                    : Near Neutron Raw
DNFD .CPS      42 334 31 00                    : Far Neutron Raw
NPRL .V/V      42 890 01 00                    : Limestone Neutron Por.
DEN  .G/C3     42 350 01 00                    : Compensated Density
DCOR .G/C3     42 356 01 00                    : Density Correction
PDPE .B/E      45 358 01 00                    : PE
DSLL .OHMM     11 220 09 00                    : Shallow Laterolog
DDLL .OHMM     11 220 10 00                    : Deep Laterolog
DT35 .US/M     60 520 32 00                    : 3-5' Compensated Sonic
DT45 .US/M     61 520 00 00                    : 4-5' Compensated Sonic
DT46 .US/M     61 520 04 00                    : 4-6' Compensated Sonic
TR21 .US       60 520 30 00                    : 3' Transit Time
TR11 .US       60 520 04 00                    : 4' Transit Time
TR22 .US       60 520 50 00                    : 5' Transit Time
TR12 .US       60 520 60 00                    : 6' Transit Time
GRGC .GAPI     30 310 01 00                    : Gamma Ray
#
~Parameter Information
#MNEM.UNIT     VALUE                           : DESCRIPTION      
#----.----     ---------                       : -----------------
EREF .M                                        : Elevation of depth reference
DREF .         RT @ 32.82 M                    : Depth reference
GL   .M        -59.40                          : Ground elevation
RUN  .         ON                              : Run number
TDD  .M        2326.000                        : TD (driller)
TDL  .M        2323.100                        : TD (logger)
CSGD .M        1123.000                        : Casing bottom (driller)
CSGL .M        1123.000                        : Casing bottom (logger)
BS   .INCHES   8.50                            : Bit size
MUD  .         KCL/GYL/POLY                    : Mud type
MUDD .LB/USG   10.15                           : Mud density
MUDV .CP       78.00                           : Mud viscosity
PH   .         9.00                            : Mud pH
FL   .         2.80                            : Mud fluid loss rate
MUDS .         FLOWLINE                        : Mud sample source
RM   .OHM-M    0.116                           : Mud resistivity
RMT  .DEGC      25.0                           : Mud sample temperature
RMF  .OHM-M    0.107                           : Mud filtrate resistivity
RMFT .DEGC      25.0                           : Mud filtrate sample temperature
RMC  .OHM-M    0.211                           : Mud cake resistivity
RMCT .DEGC      25.0                           : Mud cake sample temperature
TMAX .DEGC     77.90                           : Max recorder temperature
TIMC .DAY/HR                                   : Time circulation ended
TIML .DAY/HR                                   : Time logger at bottom
UNIT .         1                               : Equipment ID
BASE .         SALE                            : Equipment base location
ENG  .         G.McMANUS, B.MOSS               : Recording engineer
WIT  .         TREVOR LOBO                     : Witnessed by
CSGS .MM       273.050                         : Casing size
CSGW .KG/M     85.87                           : Casing weight
#
~Other Information
--------------------------------------------------------------------------------
RIG: NABORS 453

5" SHUTTLE/MEMORY COMPACT OPERATION.
CREW:  G MCMANUS , B MOSS , B GOODWIN, M KOLCZE.


FIELD FINAL LOGS TO BE CORRELATED TO ANADRILL GAMMA LOG.
DENSITY CALIPER CLOSED FROM 2286 TO TD.
TIME ALLOWED TO LEAVE PIPE STATIONARY ELAPSED, SO CALIPER WAS STILL POWERING UP WHEN LOGGING COMMENCED.

MAX. TEMPERATURE:  77.9 DEG C AT 2263.80 m MD
MAX. INCLINATION: 50.12 DEG AT 1123.20 m MD
MAX. DOGLEG SERVERITY: 11.64 DEG/30m AT 1130.05 m MD
DEPLOYMENT ANGLE:6.5 DEG

HVOL: 2062 FT^3
AVOL:  1036 FT^3

--------------------------------------------------------------------------------
~A  DEPT       GGCE       CGXT       CLDC       DNND       DNFD       NPRL        DEN       DCOR       PDPE       DSLL       DDLL       DT35       DT45       DT46       TR21       TR11       TR22       TR12       GRGC
# ...
  1418.200    76.6839    66.3077     9.8970  4887.7524   239.2557     0.4049     2.2889     0.0161     3.1999     1.5336     1.8774   400.4351   402.9318   402.9790   437.5977   561.1757   674.0439   801.9075    71.7412
  1418.300    75.7899    66.3110     9.9674  4838.5234   240.2987     0.4136     2.2871     0.0147     3.1827     1.5250     1.8570   400.7503   401.4897   403.1011   439.2802   561.1757   674.0439   797.4255    71.1133
  1418.400    74.2524    66.3119    10.0682  4824.6377   233.7747     0.4172     2.2859     0.0145     3.2071     1.5163     1.8349   401.0214   400.2460   403.0791   439.2802   563.7078   675.3145   797.4255    69.7685
  1418.500    72.7793    66.3140    10.1757  4819.5195   231.7601     0.4141     2.2842     0.0155     3.2811     1.5072     1.8132   401.4814   400.0511   403.2441   442.2848   563.7078   675.9448   796.5760    67.9784
  1418.600    71.5801    66.3180    10.2583  4737.6206   245.0523     0.4064     2.2798     0.0181     3.4191     1.4988     1.7948   402.2643   400.7403   403.7778   442.2848   560.7975   675.9448   796.5760    66.7710
  1418.700    71.0476    66.3236    10.2923  4610.7529   243.6487     0.3986     2.2730     0.0230     3.6309     1.4923     1.7803   403.3784   402.6289   404.6797   439.8570   556.8470   675.7291   796.9490    65.5639
  1418.800    71.9036    66.3264    10.2692  4453.1211   242.7713     0.3952     2.2657     0.0315     3.8847     1.4874     1.7688   404.5373   408.0609   405.6859   436.0630   556.8470   676.6436   796.9490    65.6539
  1418.900    74.0933    66.3288    10.1978  4348.9238   222.4659     0.3977     2.2593     0.0417     4.0954     1.4847     1.7616   405.3597   413.2728   406.3745   436.0630   555.5217   676.6436   797.3218    67.0883
  1419.000    76.5708    66.3307    10.1124  4403.7896   203.9734     0.4045     2.2551     0.0505     4.1919     1.4842     1.7591   405.3808   414.6280   406.1803   435.2357   555.1901   675.8059   797.3232    69.7296
  1419.100    79.0240    66.3346    10.0443  4300.2300   207.6500     0.4117     2.2540     0.0541     4.1460     1.4856     1.7601   404.4507   407.6069   405.0019   434.6756   555.1901   675.8059   797.3232    71.9233
  1419.200    80.9645    66.3373    10.0030  4260.7573   219.4094     0.4159     2.2558     0.0506     3.9754     1.4883     1.7632   402.8129   396.9592   403.1804   434.6756   556.0610   664.7193   796.6663    74.4304
  1419.300    81.6572    66.3373     9.9402  4329.2378   220.3925     0.4141     2.2588     0.0403     3.7314     1.4921     1.7671   401.0932   390.8503   401.3904   434.7584   556.0610   664.7193   797.6481    75.9542
  1419.400    80.7976    66.3418     9.8612  4363.9629   221.5642     0.4068     2.2626     0.0267     3.4966     1.4966     1.7709   399.8499   391.6310   400.0886   434.7584   555.6942   658.6613   797.6481    76.2227
  1419.500    79.4830    66.3478     9.7881  4488.6631   232.5647     0.3959     2.2671     0.0142     3.3328     1.5013     1.7737   399.3549   397.2902   399.7274   425.2382   555.6942   657.8282   797.7247    74.9702
  1419.600    78.9135    66.3497     9.7611  4713.4478   265.0769     0.3859     2.2723     0.0060     3.2535     1.5047     1.7755   399.4977   401.0570   400.1708   425.2382   552.8407   657.8282   797.7247    73.9417
  1419.700    79.0794    66.3486     9.7776  5091.5420   269.6015     0.3792     2.2773     0.0028     3.2403     1.5048     1.7768   399.9341   402.3385   400.9808   419.4284   545.5630   654.4412   794.8949    73.8094
  1419.800    79.7349    66.3526     9.8051  5156.5161   276.4052     0.3778     2.2819     0.0029     3.2392     1.5030     1.7782   400.3140   401.8557   401.4988   419.8202   545.5630   652.8676   794.8949    74.1679
  1419.900    80.2460    66.3560     9.8077  5221.1777   271.3219     0.3819     2.2842     0.0040     3.2264     1.5032     1.7814   400.4424   401.2376   401.4948   419.8202   538.5701   652.8676   790.6973    74.9297
  1420.000    80.1544    66.3567     9.7598  5338.5742   263.4441     0.3913     2.2842     0.0048     3.2244     1.5072     1.7885   400.2839   399.3732   400.8841   416.4653   538.1027   650.6497   783.0933    75.3330
  1420.100    79.5103    66.3617     9.6759  5311.4736   261.6520     0.4036     2.2845     0.0056     3.2466     1.5151     1.7985   399.9573   397.5374   399.7296   414.0758   538.1027   649.0416   783.0933    75.1459
  1420.200    78.4817    66.3617     9.5984  5298.3765   261.4613     0.4161     2.2852     0.0061     3.2816     1.5273     1.8108   399.4163   396.2842   398.0288   414.0758   534.7072   649.0416   776.2477    74.5480
  1420.300    76.8353    66.3613     9.5469  5263.6250   263.6033     0.4267     2.2871     0.0065     3.3176     1.5430     1.8285   398.7057   395.9910   396.1265   411.0255   532.3718   646.6566   777.3932    73.6365
  1420.400    75.2094    66.3680     9.5150  5250.9136   240.6291     0.4335     2.2887     0.0064     3.3484     1.5586     1.8482   397.7433   394.4024   394.0947   409.0917   532.3718   646.6566   777.3932    72.0606
  1420.500    73.8682    66.3701     9.5031  5310.2466   251.9642     0.4361     2.2923     0.0070     3.3595     1.5724     1.8644   396.6000   389.9133   392.0212   409.0917   529.3261   644.9356   774.8842    70.6714
  1420.600    72.3496    66.3716     9.5041  5285.8545   268.1545     0.4352     2.2970     0.0078     3.3337     1.5843     1.8779   395.4191   386.7671   390.0190   406.3457   529.3261   644.5510   772.7318    69.5141
  1420.700    70.5272    66.3638     9.5150  5337.0186   263.8430     0.4308     2.3026     0.0089     3.2807     1.5934     1.8885   394.2140   385.2964   388.5209   406.3457   525.3784   644.5510   772.7318    68.0505
  1420.800    69.9471    66.3706     9.5276  5487.2705   274.8459     0.4235     2.3071     0.0097     3.2354     1.5990     1.8935   393.0114   384.8935   387.8285   402.9383   524.8793   650.7639   770.0360    66.2732
  1420.900    71.3483    66.3726     9.5354  5520.0449   269.7891     0.4137     2.3115     0.0106     3.2134     1.6008     1.8945   391.6388   384.1176   387.8208   401.3043   524.8793   648.7687   770.0360    66.0118
  1421.000    74.0573    66.3795     9.5522  5637.2900   297.0249     0.4042     2.3141     0.0110     3.2108     1.6002     1.8944   390.3843   385.1858   388.5129   401.3043   524.9966   648.7687   767.6002    67.6251
  1421.100    76.4764    66.3808     9.5718  5587.7148   286.8121     0.3948     2.3140     0.0108     3.2305     1.5991     1.8940   389.2540   386.6008   389.6333   401.9642   524.1325   648.1097   768.7177    70.2691
  1421.200    77.7391    66.3836     9.5925  5425.2271   299.7680     0.3865     2.3122     0.0100     3.2475     1.5985     1.8937   388.6881   389.3573   391.1699   402.3881   524.1325   651.5381   768.7177    72.4207
  1421.300    78.0662    66.3840     9.6033  5380.8643   286.2616     0.3786     2.3103     0.0091     3.2478     1.5982     1.8932   388.6138   392.8182   392.5986   402.3881   525.8047   654.1775   773.4080    73.4071
  1421.400    77.1517    66.3820     9.6092  5449.1274   284.3070     0.3735     2.3082     0.0078     3.2326     1.5983     1.8923   389.3358   398.2285   393.9952   403.1600   529.8759   657.2777   770.0121    73.5808
  1421.500    75.9551    66.3840     9.6098  5391.3467   308.8688     0.3706     2.3077     0.0074     3.2242     1.5985     1.8913   390.4675   402.7073   395.0143   407.3171   529.8759   659.6177   770.0121    72.5829
  1421.600    75.1196    66.3842     9.6097  5385.6367   279.9954     0.3688     2.3097     0.0085     3.2160     1.5976     1.8886   392.3904   403.5932   396.2737   407.3171   539.8865   659.6177   770.8074    71.4505
  1421.700    76.8955    66.3892     9.6119  5414.7607   294.0097     0.3692     2.3130     0.0107     3.2167     1.5930     1.8817   394.8866   401.4612   397.6555   419.3436   540.5769   660.1714   773.2375    70.6826
  1421.800    80.6206    66.3893     9.6346  5357.9224   282.5963     0.3712     2.3140     0.0124     3.2231     1.5841     1.8716   398.2603   401.5367   399.7999   420.6488   541.2440   660.1714   773.2375    72.4751
