~Version Information
VERS.          2.00                            : CWLS Log ASCII Standard - Version 2.00
WRAP.          NO                              : One line per depth step
#
~Well Information
#MNEM.UNIT     DATA                            : DESCRIPTION      
#----.----     ---------                       : -----------------
STRT .M        1100.000                        : Start
STOP .M        2323.000                        : Stop
STEP .M           0.100                        : Step increment
NULL .         -999.250                        : Null value
COMP .         ESSO AUSTRALIA PTY LTD          : Company
WELL .         BREAM A20A                      : Well
FLD  .         BREAM                           : Field
PROV .         BASS STRAIT                     : Province / County
CTRY .         AUSTRALIA                       : State / Country
LOC  .         S 38 29 58.899 , E 147 46 20.056 : Location
LOC2 .         N 5738458.020 m , E 567338.25 m : Location 2
UWI  .                                         : Unique Well ID
API  .                                         : API number
SRVC .         Precision Energy Services       : Service company
LIC  .                                         : Licence number
DATE .         19-Oct-2005                     : Logging date
#
~Curve Information
#MNEM.UNIT     API CODES                       : CURVE DESCRIPTION
#----.----     ---------                       : -----------------
DEPT .M        00 001 00 00                    : Logged depth
GGCE .GAPI     30 310 00 00                    : Borehole Corrected Gamma
CGXT .DEGC     30 660 01 00                    : MCG External Temperature
CLDC .IN       45 280 01 00                    : Density Caliper
DNND .CPS      42 334 30 00                    : Near Neutron Raw
DNFD .CPS      42 334 31 00                    : Far Neutron Raw
NPRL .V/V      42 890 01 00                    : Limestone Neutron Por.
DEN  .G/C3     42 350 01 00                    : Compensated Density
DCOR .G/C3     42 356 01 00                    : Density Correction
PDPE .B/E      45 358 01 00                    : PE
DSLL .OHMM     11 220 09 00                    : Shallow Laterolog
DDLL .OHMM     11 220 10 00                    : Deep Laterolog
DT35 .US/M     60 520 32 00                    : 3-5' Compensated Sonic
DT45 .US/M     61 520 00 00                    : 4-5' Compensated Sonic
DT46 .US/M     61 520 04 00                    : 4-6' Compensated Sonic
TR21 .US       60 520 30 00                    : 3' Transit Time
TR11 .US       60 520 04 00                    : 4' Transit Time
TR22 .US       60 520 50 00                    : 5' Transit Time
TR12 .US       60 520 60 00                    : 6' Transit Time
GRGC .GAPI     30 310 01 00                    : Gamma Ray
#
~Parameter Information
#MNEM.UNIT     VALUE                           : DESCRIPTION      
#----.----     ---------                       : -----------------
EREF .M                                        : Elevation of depth reference
DREF .         RT @ 32.82 M                    : Depth reference
GL   .M        -59.40                          : Ground elevation
RUN  .         ON                              : Run number
TDD  .M        2326.000                        : TD (driller)
TDL  .M        2323.100                        : TD (logger)
CSGD .M        1123.000                        : Casing bottom (driller)
CSGL .M        1123.000                        : Casing bottom (logger)
BS   .INCHES   8.50                            : Bit size
MUD  .         KCL/GYL/POLY                    : Mud type
MUDD .LB/USG   10.15                           : Mud density
MUDV .CP       78.00                           : Mud viscosity
PH   .         9.00                            : Mud pH
FL   .         2.80                            : Mud fluid loss rate
MUDS .         FLOWLINE                        : Mud sample source
RM   .OHM-M    0.116                           : Mud resistivity
RMT  .DEGC      25.0                           : Mud sample temperature
RMF  .OHM-M    0.107                           : Mud filtrate resistivity
RMFT .DEGC      25.0                           : Mud filtrate sample temperature
RMC  .OHM-M    0.211                           : Mud cake resistivity
RMCT .DEGC      25.0                           : Mud cake sample temperature
TMAX .DEGC     77.90                           : Max recorder temperature
TIMC .DAY/HR                                   : Time circulation ended
TIML .DAY/HR                                   : Time logger at bottom
UNIT .         1                               : Equipment ID
BASE .         SALE                            : Equipment base location
ENG  .         G.McMANUS, B.MOSS               : Recording engineer
WIT  .         TREVOR LOBO                     : Witnessed by
CSGS .MM       273.050                         : Casing size
CSGW .KG/M     85.87                           : Casing weight
#
~Other Information
--------------------------------------------------------------------------------
RIG: NABORS 453

5" SHUTTLE/MEMORY COMPACT OPERATION.
CREW:  G MCMANUS , B MOSS , B GOODWIN, M KOLCZE.


FIELD FINAL LOGS TO BE CORRELATED TO ANADRILL GAMMA LOG.
DENSITY CALIPER CLOSED FROM 2286 TO TD.
TIME ALLOWED TO LEAVE PIPE STATIONARY ELAPSED, SO CALIPER WAS STILL POWERING UP WHEN LOGGING COMMENCED.

MAX. TEMPERATURE:  77.9 DEG C AT 2263.80 m MD
MAX. INCLINATION: 50.12 DEG AT 1123.20 m MD
MAX. DOGLEG SERVERITY: 11.64 DEG/30m AT 1130.05 m MD
DEPLOYMENT ANGLE:6.5 DEG

HVOL: 2062 FT^3
AVOL:  1036 FT^3

--------------------------------------------------------------------------------
~A  DEPT       GGCE       CGXT       CLDC       DNND       DNFD       NPRL        DEN       DCOR       PDPE       DSLL       DDLL       DT35       DT45       DT46       TR21       TR11       TR22       TR12       GRGC
# ...
  1899.200    87.6276    72.8502     9.3188  5086.7798   270.9707     0.3740     2.3872     0.0291     3.2884     1.1568     1.2449   366.1184   375.1669   365.8082   390.9466   493.6007   613.1088   706.4066    83.3312
  1899.300    87.0146    72.8507     9.2807  5086.7798   253.1972     0.3869     2.3861     0.0288     3.3127     1.1533     1.2598   370.1689   380.6667   367.7510   391.1804   493.6007   613.1280   714.3626    82.7739
  1899.400    86.2876    72.8515     9.2824  4936.2729   253.1972     0.3988     2.3875     0.0273     3.3635     1.1646     1.2904   372.1752   374.6603   369.3649   391.1804   493.6176   609.3445   717.0732    82.0908
  1899.500    85.8829    72.8515     9.3097  5180.6816   253.1972     0.4067     2.3918     0.0251     3.4268     1.1832     1.3295   370.8733   373.5388   369.6991   391.1804   493.6176   617.1672   716.9947    81.6851
  1899.600    85.7481    72.8508     9.3420  5180.6816   261.4659     0.4062     2.3976     0.0228     3.5042     1.2035     1.3702   367.8940   373.4761   368.9249   391.1804   493.6195   612.6851   716.9947    81.5132
  1899.700    85.5932    72.8508     9.3470  5180.6816   286.5136     0.3965     2.4036     0.0224     3.5592     1.2267     1.4076   363.4915   368.4983   366.2117   391.1804   505.1844   601.0047   717.0514    81.3074
  1899.800    85.8221    72.8426     9.3719  5569.3164   286.5136     0.3795     2.4106     0.0262     3.5869     1.2549     1.4394   359.9897   345.3499   363.0169   395.3777   513.2431   591.0513   717.0514    81.4613
  1899.900    85.6307    72.8426     9.3917  5580.8457   335.5110     0.3633     2.4170     0.0339     3.5734     1.2811     1.4619   357.3574   329.9584   359.2644   400.1804   499.3734   581.9568   717.0679    81.2022
  1900.000    85.1091    72.8466     9.4385  5580.8457   335.5110     0.3543     2.4202     0.0420     3.5276     1.3035     1.4761   356.5359   344.5910   356.4381   388.2681   493.7448   586.8629   720.2917    80.6196
  1900.100    84.6082    72.8520     9.4656  5215.4170   290.9940     0.3538     2.4189     0.0457     3.4706     1.3183     1.4763   356.0179   363.4622   354.3396   377.6081   494.1620   586.8629   730.3767    80.0370
  1900.200    85.3855    72.8520     9.5282  5215.4170   270.9324     0.3580     2.4150     0.0431     3.4100     1.3138     1.4548   355.6732   367.9655   354.6461   371.5410   498.6463   576.6805   723.5396    80.6644
  1900.300    87.0561    72.8533     9.5637  5457.3862   270.9324     0.3637     2.4089     0.0343     3.3557     1.2932     1.4219   355.7864   343.2234   356.3124   387.1804   503.8593   599.6447   717.6641    82.1438
  1900.400    88.4080    72.8533     9.6045  5608.2402   317.6901     0.3690     2.3961     0.0235     3.2938     1.2687     1.3880   357.9318   329.1245   359.6908   402.1804   503.8593   599.6447   711.1034    83.3549
  1900.500    89.3733    72.8454     9.6099  5608.2402   317.6901     0.3720     2.3832     0.0194     3.2441     1.2468     1.3640   361.4691   354.8385   363.2888   402.1804   497.0640   599.3625   694.7759    84.2345
  1900.600    90.3136    72.8454     9.6154  5065.4023   257.6764     0.3722     2.3730     0.0266     3.1891     1.2359     1.3681   364.8997   393.8974   366.4153   381.4394   484.6100   599.3625   690.8034    85.1405
  1900.700    90.5064    72.8502     9.5763  5065.4023   257.6764     0.3712     2.3765     0.0423     3.1593     1.2573     1.4195   365.0382   414.5164   366.0179   377.3858   484.6100   583.0059   690.8034    85.3738
  1900.800    89.2587    72.8502     9.5372  4862.0962   281.6029     0.3726     2.3825     0.0543     3.1496     1.3248     1.5291   360.5054   390.3630   360.0853   377.3858   475.9496   583.0059   694.2743    84.2800
  1900.900    87.8197    72.8468     9.4886  4862.0962   281.6029     0.3732     2.3980     0.0574     3.1798     1.4188     1.6779   350.7945   335.7534   349.0797   376.5458   475.9496   577.2841   706.7238    83.0246
  1901.000    86.4214    72.8489     9.4793  5529.5718   297.6268     0.3709     2.4128     0.0483     3.2167     1.5159     1.8315   338.8036   293.1154   336.4377   376.5458   483.0936   577.2841   706.7238    81.8319
  1901.100    84.5701    72.8489     9.4041  5529.5718   297.6268     0.3627     2.4351     0.0327     3.2768     1.6076     1.9551   327.6301   274.1259   326.3337   363.0304   483.0936   600.2051   699.4103    80.2093
  1901.200    81.4611    72.8389     9.3382  6628.3657   373.3638     0.3534     2.4490     0.0138     3.3351     1.6656     2.0090   321.7392   297.8835   321.8841   363.0304   495.3751   600.2051   699.4103    77.3768
  1901.300    77.6324    72.8502     9.2574  6628.3657   373.3638     0.3412     2.4622     0.0016     3.4063     1.6473     1.9664   322.6539   324.8961   324.3424   374.7387   495.3751   615.5602   700.9608    73.8095
  1901.400    73.1853    72.8502     9.2802  6911.9297   449.1534     0.3312     2.4609    -0.0031     3.4581     1.5666     1.8579   329.7531   337.5696   332.3903   374.7387   473.4260   615.5602   700.9608    69.5965
  1901.500    69.6713    72.8484     9.3030  6911.9297   400.1157     0.3212     2.4559     0.0028     3.5088     1.4743     1.7394   340.1078   356.5268   342.9964   375.6154   473.4260   615.5402   697.0732    66.1902
  1901.600    67.0587    72.8484     9.4085  6946.6143   400.1157     0.3196     2.4388     0.0150     3.5265     1.3921     1.6417   350.0018   368.1414   352.8622   375.6154   474.5196   615.5402   697.0732    63.5904
  1901.700    66.9275    72.8500     9.4764  6154.8677   362.1833     0.3237     2.4212     0.0328     3.5269     1.3249     1.5789   357.1880   397.2639   358.9247   377.3308   474.5196   619.2238   699.1450    63.3235
  1901.800    68.5080    72.8500     9.5792  6154.8677   362.1833     0.3388     2.3985     0.0490     3.4921     1.2822     1.5517   359.7360   388.6230   360.2368   377.3308   484.7645   619.2238   699.1450    64.7086
  1901.900    71.1002    72.8518     9.5824  5372.8008   282.1305     0.3547     2.3916     0.0630     3.4366     1.2693     1.5507   357.8658   358.1216   356.9506   388.0449   484.7645   600.7105   712.6630    67.0944
  1902.000    72.0718    72.8518     9.5856  5372.8008   265.9449     0.3689     2.3920     0.0664     3.3606     1.2704     1.5538   354.2396   337.8580   353.0656   388.0449   508.4979   600.7105   712.6630    67.9994
  1902.100    73.0074    72.8562     9.5539  5130.0483   265.9449     0.3731     2.4015     0.0592     3.2956     1.2724     1.5486   351.3522   320.9768   349.6778   411.4812   508.4979   600.8188   711.6733    68.9104
  1902.200    73.4690    72.8500     9.5238  5506.4214   324.3752     0.3721     2.4059     0.0416     3.2526     1.2741     1.5317   351.9880   338.3520   350.0393   411.4812   521.2466   600.8188   711.6733    69.4015
  1902.300    75.4926    72.8500     9.4919  5506.4214   324.3752     0.3652     2.4091     0.0250     3.2221     1.2632     1.4928   355.3806   348.8120   353.3267   404.1804   521.2466   612.3483   715.5950    71.3768
  1902.400    78.0175    72.8512     9.4600  5589.1401   304.2998     0.3595     2.4045     0.0146     3.1997     1.2309     1.4350   362.0861   368.9039   360.3882   404.1804   509.9550   612.3483   715.5950    73.8297
  1902.500    83.0908    72.8512     9.4475  5589.1401   304.2998     0.3577     2.3909     0.0158     3.1682     1.1894     1.3796   368.4970   388.1628   366.5594   396.2646   509.9550   623.9740   716.3870    78.7045
  1902.600    87.9478    72.8518     9.4367  5363.0400   282.0923     0.3640     2.3753     0.0285     3.1372     1.1488     1.3373   372.9606   390.3067   370.6334   396.2646   496.4926   623.9740   716.3870    83.3946
  1902.700    92.9989    72.8503     9.3942  5363.0400   273.1891     0.3750     2.3607     0.0482     3.1006     1.1158     1.3124   373.1656   381.3286   371.0031   394.0395   496.4926   622.4833   715.6146    88.2792
  1902.800    95.3699    72.8503     9.3349  4948.3232   273.1891     0.3880     2.3601     0.0681     3.1243     1.1065     1.3158   369.2291   364.8962   368.1920   394.0395   491.5843   622.4833   715.6146    90.6118
