~Version Information
VERS.          2.00                            : CWLS Log ASCII Standard - Version 2.00
WRAP.          NO                              : One line per depth step
#
~Well Information
#MNEM.UNIT     DATA                            : DESCRIPTION      
#----.----     ---------                       : -----------------
STRT .M        1100.000                        : Start
STOP .M        2323.000                        : Stop
STEP .M           0.100                        : Step increment
NULL .         -999.250                        : Null value
COMP .         ESSO AUSTRALIA PTY LTD          : Company
WELL .         BREAM A20A                      : Well
FLD  .         BREAM                           : Field
PROV .         BASS STRAIT                     : Province / County
CTRY .         AUSTRALIA                       : State / Country
LOC  .         S 38 29 58.899 , E 147 46 20.056 : Location
LOC2 .         N 5738458.020 m , E 567338.25 m : Location 2
UWI  .                                         : Unique Well ID
API  .                                         : API number
SRVC .         Precision Energy Services       : Service company
LIC  .                                         : Licence number
DATE .         19-Oct-2005                     : Logging date
#
~Curve Information
#MNEM.UNIT     API CODES                       : CURVE DESCRIPTION
#----.----     ---------                       : -----------------
DEPT .M        00 001 00 00                    : Logged depth
GGCE .GAPI     30 310 00 00                    : Borehole Corrected Gamma
CGXT .DEGC     30 660 01 00                    : MCG External Temperature
CLDC .IN       45 280 01 00                    : Density Caliper
DNND .CPS      42 334 30 00                    : Near Neutron Raw
DNFD .CPS      42 334 31 00                    : Far Neutron Raw
NPRL .V/V      42 890 01 00                    : Limestone Neutron Por.
DEN  .G/C3     42 350 01 00                    : Compensated Density
DCOR .G/C3     42 356 01 00                    : Density Correction
PDPE .B/E      45 358 01 00                    : PE
DSLL .OHMM     11 220 09 00                    : Shallow Laterolog
DDLL .OHMM     11 220 10 00                    : Deep Laterolog
DT35 .US/M     60 520 32 00                    : 3-5' Compensated Sonic
DT45 .US/M     61 520 00 00                    : 4-5' Compensated Sonic
DT46 .US/M     61 520 04 00                    : 4-6' Compensated Sonic
TR21 .US       60 520 30 00                    : 3' Transit Time
TR11 .US       60 520 04 00                    : 4' Transit Time
TR22 .US       60 520 50 00                    : 5' Transit Time
TR12 .US       60 520 60 00                    : 6' Transit Time
GRGC .GAPI     30 310 01 00                    : Gamma Ray
#
~Parameter Information
#MNEM.UNIT     VALUE                           : DESCRIPTION      
#----.----     ---------                       : -----------------
EREF .M                                        : Elevation of depth reference
DREF .         RT @ 32.82 M                    : Depth reference
GL   .M        -59.40                          : Ground elevation
RUN  .         ON                              : Run number
TDD  .M        2326.000                        : TD (driller)
TDL  .M        2323.100                        : TD (logger)
CSGD .M        1123.000                        : Casing bottom (driller)
CSGL .M        1123.000                        : Casing bottom (logger)
BS   .INCHES   8.50                            : Bit size
MUD  .         KCL/GYL/POLY                    : Mud type
MUDD .LB/USG   10.15                           : Mud density
MUDV .CP       78.00                           : Mud viscosity
PH   .         9.00                            : Mud pH
FL   .         2.80                            : Mud fluid loss rate
MUDS .         FLOWLINE                        : Mud sample source
RM   .OHM-M    0.116                           : Mud resistivity
RMT  .DEGC      25.0                           : Mud sample temperature
RMF  .OHM-M    0.107                           : Mud filtrate resistivity
RMFT .DEGC      25.0                           : Mud filtrate sample temperature
RMC  .OHM-M    0.211                           : Mud cake resistivity
RMCT .DEGC      25.0                           : Mud cake sample temperature
TMAX .DEGC     77.90                           : Max recorder temperature
TIMC .DAY/HR                                   : Time circulation ended
TIML .DAY/HR                                   : Time logger at bottom
UNIT .         1                               : Equipment ID
BASE .         SALE                            : Equipment base location
ENG  .         G.McMANUS, B.MOSS               : Recording engineer
WIT  .         TREVOR LOBO                     : Witnessed by
CSGS .MM       273.050                         : Casing size
CSGW .KG/M     85.87                           : Casing weight
#
~Other Information
--------------------------------------------------------------------------------
RIG: NABORS 453

5" SHUTTLE/MEMORY COMPACT OPERATION.
CREW:  G MCMANUS , B MOSS , B GOODWIN, M KOLCZE.


FIELD FINAL LOGS TO BE CORRELATED TO ANADRILL GAMMA LOG.
DENSITY CALIPER CLOSED FROM 2286 TO TD.
TIME ALLOWED TO LEAVE PIPE STATIONARY ELAPSED, SO CALIPER WAS STILL POWERING UP WHEN LOGGING COMMENCED.

MAX. TEMPERATURE:  77.9 DEG C AT 2263.80 m MD
MAX. INCLINATION: 50.12 DEG AT 1123.20 m MD
MAX. DOGLEG SERVERITY: 11.64 DEG/30m AT 1130.05 m MD
DEPLOYMENT ANGLE:6.5 DEG

HVOL: 2062 FT^3
AVOL:  1036 FT^3

--------------------------------------------------------------------------------
~A  DEPT       GGCE       CGXT       CLDC       DNND       DNFD       NPRL        DEN       DCOR       PDPE       DSLL       DDLL       DT35       DT45       DT46       TR21       TR11       TR22       TR12       GRGC
# ...
  1658.700    96.7264    71.1567    10.0355  4362.3086   217.5548     0.4138     2.2505     0.0718     3.6375     1.0534     1.3840   408.2232   416.3615   408.1568   457.1804   574.2491   693.2798   825.4560    89.9019
  1658.800    90.5890    71.1607    10.0251  4362.3086   217.5548     0.4149     2.2546     0.0796     3.7324     1.0407     1.3691   407.7595   428.3427   409.5501   451.5873   574.2491   695.9297   819.4598    84.3192
  1658.900    84.9650    71.1607     9.9266  4463.6499   217.5824     0.4137     2.2596     0.0892     3.8125     1.0274     1.3553   407.4153   412.3337   410.5374   451.5873   584.9811   687.5051   819.4598    79.2994
  1659.000    82.2662    71.1511     9.8387  4463.6499   217.5824     0.4092     2.2650     0.0995     3.8569     1.0154     1.3415   407.0859   394.1234   410.7078   461.2688   584.9811   687.5051   809.3325    77.1056
  1659.100    81.8990    71.1511     9.6075  4533.0947   248.7472     0.4037     2.2712     0.1089     3.8745     1.0053     1.3283   408.5878   391.4582   411.4352   461.2688   585.3755   692.8809   809.3325    77.1293
  1659.200    83.2876    71.1534     9.4643  4533.0947   248.7472     0.4004     2.2770     0.1146     3.8696     0.9975     1.3173   410.6571   411.2724   412.1974   463.1804   575.1851   692.8809   816.7822    78.7880
  1659.300    85.1271    71.1534     9.2964  4354.6021   219.7955     0.4032     2.2848     0.1147     3.8625     0.9932     1.3162   412.8825   437.5659   413.0942   443.5988   575.1851   697.5713   816.7822    80.8057
  1659.400    86.2841    71.1617     9.2717  4354.6021   219.7955     0.4143     2.2915     0.1073     3.8485     0.9954     1.3329   412.7224   443.9838   411.1750   443.5988   572.5350   697.5713   818.8853    82.1062
  1659.500    84.9326    71.1639     9.2295  4720.6689   226.4836     0.4352     2.3028     0.0965     3.8211     1.0053     1.3611   410.3304   436.4349   406.8008   445.6656   572.5350   695.0964   819.2487    80.9414
  1659.600    81.8067    71.1639     9.2120  4720.6689   213.1413     0.4566     2.3157     0.0866     3.7929     1.0243     1.3989   404.3842   396.4966   399.4868   445.6656   567.2745   689.5956   819.2487    78.0282
  1659.700    79.5334    71.1613     9.2066  4962.5859   213.1413     0.4691     2.3293     0.0817     3.7688     1.0555     1.4514   397.8033   369.5503   392.6187   443.6416   567.2745   689.5956   819.5953    75.8638
  1659.800    78.9432    71.1613     9.2187  5056.3735   213.1413     0.4679     2.3377     0.0823     3.7556     1.0931     1.5041   390.9885   349.7857   387.3799   443.6416   569.7313   694.1500   819.5953    75.2549
  1659.900    79.8655    71.1635     9.2659  5056.3735   270.9665     0.4599     2.3396     0.0870     3.7608     1.1271     1.5359   387.0895   367.4453   385.4868   440.2807   566.8596   694.1500   820.1815    76.0353
  1660.000    82.1064    71.1635     9.3009  5056.3735   270.9665     0.4492     2.3338     0.0931     3.7822     1.1524     1.5502   385.2961   382.8753   386.0770   432.1804   566.8596   706.8163   820.1815    78.0390
  1660.100    84.6286    71.1680     9.4030  4639.5781   209.9899     0.4405     2.3192     0.0971     3.7887     1.1641     1.5543   386.4412   399.6148   388.4669   432.1804   563.2567   713.7589   824.1675    80.3242
  1660.200    86.0893    71.1680     9.4701  4639.5781   209.9899     0.4363     2.3013     0.0980     3.7729     1.1602     1.5454   388.5066   395.0347   391.5776   436.2299   563.2567   713.7589   823.4800    81.6361
  1660.300    85.8739    71.1634     9.4636  4582.3140   244.2584     0.4404     2.2664     0.0937     3.7747     1.1490     1.5303   391.4812   389.9352   394.2614   436.2299   563.8749   720.8008   823.4800    81.3924
  1660.400    85.4641    71.1634     9.3901  4582.3140   206.4707     0.4458     2.2279     0.0929     3.8045     1.1353     1.5199   394.8154   393.0204   396.7743   452.1804   570.9987   727.0964   822.0309    80.9694
  1660.500    85.7572    71.1614     9.3779  4406.8877   206.4707     0.4472     2.1895     0.0994     3.8429     1.1189     1.5146   398.7171   403.6353   399.2947   457.1804   570.9987   727.0964   822.0309    81.2055
  1660.600    86.5151    71.1614     9.4392  4258.5459   210.8884     0.4431     2.1670     0.1144     3.8740     1.1039     1.5071   402.8420   412.7169   403.1532   457.1804   584.0072   726.8326   819.1243    81.8322
  1660.700    87.1530    71.1649     9.5350  4258.5459   210.8884     0.4400     2.1533     0.1297     3.8905     1.0900     1.4954   407.0279   415.1715   407.0474   466.1804   592.8310   726.8326   827.7338    82.2808
  1660.800    87.9558    71.1649     9.5694  4172.2144   206.4680     0.4401     2.1556     0.1422     3.8746     1.0750     1.4811   411.2185   418.8558   410.8420   476.3864   592.8310   733.3833   827.7338    82.8190
  1660.900    88.0087    71.1689     9.7219  4172.2144   206.4680     0.4452     2.1704     0.1481     3.7755     1.0611     1.4667   415.4935   429.8057   413.5389   476.3864   596.1852   733.3833   838.6032    82.6398
  1661.000    88.1221    71.1689     9.8399  4027.3904   177.5714     0.4514     2.1881     0.1444     3.6275     1.0507     1.4571   418.7126   429.9493   415.4493   478.1804   596.1852   725.4969   843.4633    82.5055
  1661.100    89.0504    71.1617     9.9279  4027.3904   177.5714     0.4571     2.1900     0.1304     3.4889     1.0430     1.4533   421.4303   425.1733   417.3491   478.1804   607.8441   713.6249   843.4633    83.1336
  1661.200    90.9788    71.1617     9.8979  4013.0801   193.1885     0.4579     2.1785     0.1146     3.4075     1.0354     1.4531   422.9118   409.2340   419.0166   489.1804   607.8441   713.6249   845.2245    84.6897
  1661.300    92.6738    71.1640    10.0093  4013.0801   193.1885     0.4541     2.1674     0.1043     3.3465     1.0266     1.4552   424.3180   409.8230   421.3407   489.1804   608.3297   702.8259   845.2245    86.0533
  1661.400    92.3314    71.1640    10.1506  3919.5898   196.5931     0.4479     2.1575     0.0974     3.3143     1.0182     1.4578   424.6095   418.6682   423.3146   490.1804   612.1804   702.8259   851.3586    85.5346
  1661.500    89.9947    71.1682    10.2896  3919.5898   196.5931     0.4482     2.1549     0.0917     3.3030     1.0115     1.4590   424.6675   432.1600   425.8214   486.1804   612.1804   691.1853   851.3586    83.1911
  1661.600    87.8409    71.1650    10.2872  3990.9326   179.7766     0.4613     2.1602     0.0867     3.3090     1.0052     1.4603   423.6101   435.5110   425.9941   486.1804   612.5228   691.1853   843.7966    81.0394
  1661.700    87.4888    71.1650    10.3024  3990.9326   179.7766     0.4855     2.1801     0.0840     3.2998     0.9978     1.4610   422.2990   432.0207   424.6102   484.1840   612.5228   687.6422   838.0269    80.6039
  1661.800    88.1659    71.1624    10.3200  4123.2480   159.7971     0.5092     2.2042     0.0818     3.2855     0.9894     1.4586   420.2718   419.3510   420.6911   484.1840   603.6617   687.6422   838.0269    81.1675
  1661.900    88.8531    71.1624    10.3474  4123.2480   159.7971     0.5216     2.2284     0.0794     3.2640     0.9811     1.4542   418.0033   409.9682   417.6302   471.4140   603.6617   679.2504   829.9554    81.7760
  1662.000    89.8495    71.1637    10.3573  4235.9619   195.3473     0.5152     2.2440     0.0753     3.2279     0.9781     1.4555   414.7540   401.8766   414.0233   471.4140   596.0306   676.0941   829.9554    82.6854
  1662.100    90.3264    71.1637    10.3433  4235.9619   202.0256     0.4893     2.2588     0.0710     3.1745     0.9901     1.4775   411.4836   409.7976   412.1676   458.7111   596.0306   676.0941   823.6025    83.1341
  1662.200    89.5079    71.1649    10.3214  4199.5288   202.0256     0.4509     2.2677     0.0633     3.1223     1.0204     1.5279   407.5809   412.9279   409.6266   458.7111   581.3209   675.0771   823.6025    82.4175
  1662.300    87.1021    71.1649    10.2994  4244.8096   255.3868     0.4171     2.2754     0.0523     3.0801     1.0630     1.5913   403.5223   420.2902   407.4539   445.1804   566.7261   675.0771   823.7803    80.2667
