~Version Information
VERS.          2.00                            : CWLS Log ASCII Standard - Version 2.00
WRAP.          NO                              : One line per depth step
#
~Well Information
#MNEM.UNIT     DATA                            : DESCRIPTION      
#----.----     ---------                       : -----------------
STRT .M        1100.000                        : Start
STOP .M        2323.000                        : Stop
STEP .M           0.100                        : Step increment
NULL .         -999.250                        : Null value
COMP .         ESSO AUSTRALIA PTY LTD          : Company
WELL .         BREAM A20A                      : Well
FLD  .         BREAM                           : Field
PROV .         BASS STRAIT                     : Province / County
CTRY .         AUSTRALIA                       : State / Country
LOC  .         S 38 29 58.899 , E 147 46 20.056 : Location
LOC2 .         N 5738458.020 m , E 567338.25 m : Location 2
UWI  .                                         : Unique Well ID
API  .                                         : API number
SRVC .         Precision Energy Services       : Service company
LIC  .                                         : Licence number
DATE .         19-Oct-2005                     : Logging date
#
~Curve Information
#MNEM.UNIT     API CODES                       : CURVE DESCRIPTION
#----.----     ---------                       : -----------------
DEPT .M        00 001 00 00                    : Logged depth
GGCE .GAPI     30 310 00 00                    : Borehole Corrected Gamma
CGXT .DEGC     30 660 01 00                    : MCG External Temperature
CLDC .IN       45 280 01 00                    : Density Caliper
DNND .CPS      42 334 30 00                    : Near Neutron Raw
DNFD .CPS      42 334 31 00                    : Far Neutron Raw
NPRL .V/V      42 890 01 00                    : Limestone Neutron Por.
DEN  .G/C3     42 350 01 00                    : Compensated Density
DCOR .G/C3     42 356 01 00                    : Density Correction
PDPE .B/E      45 358 01 00                    : PE
DSLL .OHMM     11 220 09 00                    : Shallow Laterolog
DDLL .OHMM     11 220 10 00                    : Deep Laterolog
DT35 .US/M     60 520 32 00                    : 3-5' Compensated Sonic
DT45 .US/M     61 520 00 00                    : 4-5' Compensated Sonic
DT46 .US/M     61 520 04 00                    : 4-6' Compensated Sonic
TR21 .US       60 520 30 00                    : 3' Transit Time
TR11 .US       60 520 04 00                    : 4' Transit Time
TR22 .US       60 520 50 00                    : 5' Transit Time
TR12 .US       60 520 60 00                    : 6' Transit Time
GRGC .GAPI     30 310 01 00                    : Gamma Ray
#
~Parameter Information
#MNEM.UNIT     VALUE                           : DESCRIPTION      
#----.----     ---------                       : -----------------
EREF .M                                        : Elevation of depth reference
DREF .         RT @ 32.82 M                    : Depth reference
GL   .M        -59.40                          : Ground elevation
RUN  .         ON                              : Run number
TDD  .M        2326.000                        : TD (driller)
TDL  .M        2323.100                        : TD (logger)
CSGD .M        1123.000                        : Casing bottom (driller)
CSGL .M        1123.000                        : Casing bottom (logger)
BS   .INCHES   8.50                            : Bit size
MUD  .         KCL/GYL/POLY                    : Mud type
MUDD .LB/USG   10.15                           : Mud density
MUDV .CP       78.00                           : Mud viscosity
PH   .         9.00                            : Mud pH
FL   .         2.80                            : Mud fluid loss rate
MUDS .         FLOWLINE                        : Mud sample source
RM   .OHM-M    0.116                           : Mud resistivity
RMT  .DEGC      25.0                           : Mud sample temperature
RMF  .OHM-M    0.107                           : Mud filtrate resistivity
RMFT .DEGC      25.0                           : Mud filtrate sample temperature
RMC  .OHM-M    0.211                           : Mud cake resistivity
RMCT .DEGC      25.0                           : Mud cake sample temperature
TMAX .DEGC     77.90                           : Max recorder temperature
TIMC .DAY/HR                                   : Time circulation ended
TIML .DAY/HR                                   : Time logger at bottom
UNIT .         1                               : Equipment ID
BASE .         SALE                            : Equipment base location
ENG  .         G.McMANUS, B.MOSS               : Recording engineer
WIT  .         TREVOR LOBO                     : Witnessed by
CSGS .MM       273.050                         : Casing size
CSGW .KG/M     85.87                           : Casing weight
#
~Other Information
--------------------------------------------------------------------------------
RIG: NABORS 453

5" SHUTTLE/MEMORY COMPACT OPERATION.
CREW:  G MCMANUS , B MOSS , B GOODWIN, M KOLCZE.


FIELD FINAL LOGS TO BE CORRELATED TO ANADRILL GAMMA LOG.
DENSITY CALIPER CLOSED FROM 2286 TO TD.
TIME ALLOWED TO LEAVE PIPE STATIONARY ELAPSED, SO CALIPER WAS STILL POWERING UP WHEN LOGGING COMMENCED.

MAX. TEMPERATURE:  77.9 DEG C AT 2263.80 m MD
MAX. INCLINATION: 50.12 DEG AT 1123.20 m MD
MAX. DOGLEG SERVERITY: 11.64 DEG/30m AT 1130.05 m MD
DEPLOYMENT ANGLE:6.5 DEG

HVOL: 2062 FT^3
AVOL:  1036 FT^3

--------------------------------------------------------------------------------
~A  DEPT       GGCE       CGXT       CLDC       DNND       DNFD       NPRL        DEN       DCOR       PDPE       DSLL       DDLL       DT35       DT45       DT46       TR21       TR11       TR22       TR12       GRGC
# ...
  2298.800  -999.2500  -999.2500     0.9371  -999.2500  -999.2500  -999.2500     2.1653     0.2062     3.0609     1.4905     2.4371   263.7148   250.5030   264.9400   316.8177   395.0065   469.1652   547.6463  -999.2500
  2298.900  -999.2500  -999.2500     0.9372  -999.2500  -999.2500  -999.2500     2.1592     0.2139     3.1115     1.4435     2.3813   263.0038   249.1722   263.3426   319.2021   394.8378   465.9893   546.6021  -999.2500
  2299.000  -999.2500  -999.2500     0.9373  -999.2500  -999.2500  -999.2500     2.1563     0.2182     3.1329     1.4079     2.3390   263.0204   254.6056   262.5946   320.8855   393.1192   464.8867   545.5192  -999.2500
  2299.100  -999.2500  -999.2500     0.9373  -999.2500  -999.2500  -999.2500     2.1556     0.2202     3.1514     1.3897     2.3210   263.3079   258.0523   262.4171   317.6337   393.6820   463.3894   547.6321  -999.2500
  2299.200  -999.2500  -999.2500     0.9372  -999.2500  -999.2500  -999.2500     2.1558     0.2209     3.1473     1.3915     2.3315   263.6940   260.3582   262.2249   315.9730   392.4509   462.7510   546.9461  -999.2500
  2299.300  -999.2500  -999.2500     0.9373  -999.2500  -999.2500  -999.2500     2.1543     0.2203     3.1409     1.4054     2.3580   263.6724   263.5237   261.4346   314.5130   389.1804   461.1993   546.2263  -999.2500
  2299.400  -999.2500  -999.2500     0.9373  -999.2500  -999.2500  -999.2500     2.1512     0.2191     3.1187     1.4228     2.3877   262.9894   262.9087   260.1196   311.4973   385.9745   457.6102   546.7421  -999.2500
  2299.500  -999.2500  -999.2500     0.9378  -999.2500  -999.2500  -999.2500    -1.#IND    -1.#IND -7456.9341     1.4415     2.4156   261.4477   256.1289   258.7964   308.9366   386.4929   450.1366   543.9012  -999.2500
  2299.600  -999.2500  -999.2500     0.9383  -999.2500  -999.2500  -999.2500    -1.#IND    -1.#IND -9999.9999     1.4571     2.4338   259.3695   245.3684   257.4543   306.6287   386.4515   449.7117   542.6613  -999.2500
  2299.700  -999.2500  -999.2500     0.9387  -999.2500  -999.2500  -999.2500    -1.#IND    -1.#IND -9999.9999     1.4658     2.4347   257.3151   243.6217   256.5277   305.1914   383.8694   450.5933   540.4719  -999.2500
  2299.800  -999.2500  -999.2500  -999.2500  -999.2500  -999.2500  -999.2500    -1.#IND    -1.#IND -9999.9999     1.4711     2.4232   255.9196   250.2020   256.0488   301.3136   377.8720   451.5920   542.5810  -999.2500
  2299.900  -999.2500  -999.2500  -999.2500  -999.2500  -999.2500  -999.2500    -1.#IND    -1.#IND -9999.9999     1.4765     2.4093   255.3486   256.7576   255.9922   294.0246   375.5633   448.9490   542.4384  -999.2500
  2300.000  -999.2500  -999.2500  -999.2500  -999.2500  -999.2500  -999.2500    -1.#IND    -1.#IND -9999.9999     1.4818     2.3957   255.5898   259.0296   255.6658   292.0661   374.6438   450.0068   540.3405  -999.2500
  2300.100  -999.2500  -999.2500  -999.2500  -999.2500  -999.2500  -999.2500    -1.#IND    -1.#IND -9999.9999     1.4888     2.3830   256.5237   258.3159   255.2928   291.2604   374.2800   452.1259   533.9304  -999.2500
  2300.200  -999.2500  -999.2500  -999.2500  -999.2500  -999.2500  -999.2500  -999.2500  -999.2500  -999.2500     1.5006     2.3768   257.7834   255.7973   254.3260   291.6883   370.8874   452.2157   533.3595  -999.2500
  2300.300  -999.2500  -999.2500  -999.2500  -999.2500  -999.2500  -999.2500  -999.2500  -999.2500  -999.2500     1.5180     2.3809   259.0392   253.4723   253.3237   289.5300   369.7676   452.1860   534.2555  -999.2500
  2300.400  -999.2500  -999.2500  -999.2500  -999.2500  -999.2500  -999.2500  -999.2500  -999.2500  -999.2500     1.5397     2.3904   259.9273   255.0995   251.5083   289.4231   368.8293   450.9475   534.0177  -999.2500
  2300.500  -999.2500  -999.2500  -999.2500  -999.2500  -999.2500  -999.2500  -999.2500  -999.2500  -999.2500     1.5636     2.3995   260.3317   254.3358   251.5000   289.3486   368.8396   450.9839   530.3085  -999.2500
  2300.600  -999.2500  -999.2500  -999.2500  -999.2500  -999.2500  -999.2500  -999.2500  -999.2500  -999.2500     1.5876     2.4076   260.0385   253.7389   251.5722   289.3425   368.8065   460.4623   530.9049  -999.2500
  2300.700  -999.2500  -999.2500  -999.2500  -999.2500  -999.2500  -999.2500  -999.2500  -999.2500  -999.2500     1.6019     2.4094   258.9114   245.3334   253.8839   289.3356   366.7566   474.7419   531.7592  -999.2500
  2300.800  -999.2500  -999.2500  -999.2500  -999.2500  -999.2500  -999.2500  -999.2500  -999.2500  -999.2500     1.5986     2.3978   257.6874   254.4382   256.1434   282.9384   366.8641   510.5396   531.8232  -999.2500
  2300.900  -999.2500  -999.2500  -999.2500  -999.2500  -999.2500  -999.2500  -999.2500  -999.2500  -999.2500     1.5866     2.3770   256.1422   258.3441   260.5413   282.9506   367.2399   514.7323   531.8267  -999.2500
  2301.000  -999.2500  -999.2500  -999.2500  -999.2500  -999.2500  -999.2500  -999.2500  -999.2500  -999.2500     1.5746     2.3590   255.3923   263.0380   263.1964   285.7046   366.2997   541.6989   533.5515  -999.2500
  2301.100  -999.2500  -999.2500  -999.2500  -999.2500  -999.2500  -999.2500  -999.2500  -999.2500  -999.2500     1.5643     2.3536   255.4270   266.5206   264.7851   285.5970   371.5154   569.9129   533.6915  -999.2500
  2301.200  -999.2500  -999.2500  -999.2500  -999.2500  -999.2500  -999.2500  -999.2500  -999.2500  -999.2500     1.5636     2.3636   257.2365   269.1901   264.5464   289.2466   372.4074   578.7681   541.1399  -999.2500
  2301.300  -999.2500  -999.2500  -999.2500  -999.2500  -999.2500  -999.2500  -999.2500  -999.2500  -999.2500     1.5779     2.3895   259.6931   274.6058   264.9329   289.5525   373.2861   606.4106   556.4376  -999.2500
  2301.400  -999.2500  -999.2500  -999.2500  -999.2500  -999.2500  -999.2500  -999.2500  -999.2500  -999.2500     1.6017     2.4312   263.8226   265.2994   265.9983   292.1216   388.0447   614.9996   593.0082  -999.2500
  2301.500  -999.2500  -999.2500  -999.2500  -999.2500  -999.2500  -999.2500  -999.2500  -999.2500  -999.2500     1.6348     2.4806   269.9283   270.2897   268.5324   305.8684   394.1208   640.1194   596.6096  -999.2500
  2301.600  -999.2500  -999.2500  -999.2500  -999.2500  -999.2500  -999.2500  -999.2500  -999.2500  -999.2500     1.6808     2.5416   280.4069   284.7083   276.4275   313.8086   420.7616   654.3391   623.7341  -999.2500
  2301.700  -999.2500  -999.2500  -999.2500  -999.2500  -999.2500  -999.2500  -999.2500  -999.2500  -999.2500     1.7476     2.6491   295.7328   291.9907   290.6612   341.8069   430.6057   670.4897   652.6041  -999.2500
  2301.800  -999.2500  -999.2500  -999.2500  -999.2500  -999.2500  -999.2500  -999.2500  -999.2500  -999.2500     1.8767     2.8694   316.5278   308.6757   311.8644   351.5730   454.5210   681.5572   659.1569  -999.2500
  2301.900  -999.2500  -999.2500  -999.2500  -999.2500  -999.2500  -999.2500  -999.2500  -999.2500  -999.2500     2.1691     3.3546   341.3039   337.0687   336.2468   377.7148   469.3734   706.5375   685.2617  -999.2500
  2302.000  -999.2500  -999.2500  -999.2500  -999.2500  -999.2500  -999.2500  -999.2500  -999.2500  -999.2500     2.8263     4.4738   367.7976   391.2899   363.4485   391.6560   485.9883   713.7794   693.7964  -999.2500
  2302.100  -999.2500  -999.2500  -999.2500  -999.2500  -999.2500  -999.2500  -999.2500  -999.2500  -999.2500     4.3515     7.1304   391.2710   421.2154   388.1438   407.9872   498.9016   712.9919   717.2460  -999.2500
  2302.200  -999.2500  -999.2500  -999.2500  -999.2500  -999.2500  -999.2500  -999.2500  -999.2500  -999.2500     8.4368    13.9578   409.4622   430.6506   408.0036   419.1822   525.7474   713.7864   732.5676  -999.2500
  2302.300  -999.2500  -999.2500  -999.2500  -999.2500  -999.2500  -999.2500  -999.2500  -999.2500  -999.2500    20.5568    32.2759   420.6488   424.6219   420.1937   445.6364   547.0314   713.2675   748.6154  -999.2500
  2302.400  -999.2500  -999.2500  -999.2500  -999.2500  -999.2500  -999.2500  -999.2500  -999.2500  -999.2500    49.3840    79.1661   427.0282   424.7448   427.9064   451.6644   555.4498   716.3012   761.3798  -999.2500
