~Version Information
VERS.          2.00                            : CWLS Log ASCII Standard - Version 2.00
WRAP.          NO                              : One line per depth step
#
~Well Information
#MNEM.UNIT     DATA                            : DESCRIPTION      
#----.----     ---------                       : -----------------
STRT .M        1100.000                        : Start
STOP .M        2323.000                        : Stop
STEP .M           0.100                        : Step increment
NULL .         -999.250                        : Null value
COMP .         ESSO AUSTRALIA PTY LTD          : Company
WELL .         BREAM A20A                      : Well
FLD  .         BREAM                           : Field
PROV .         BASS STRAIT                     : Province / County
CTRY .         AUSTRALIA                       : State / Country
LOC  .         S 38 29 58.899 , E 147 46 20.056 : Location
LOC2 .         N 5738458.020 m , E 567338.25 m : Location 2
UWI  .                                         : Unique Well ID
API  .                                         : API number
SRVC .         Precision Energy Services       : Service company
LIC  .                                         : Licence number
DATE .         19-Oct-2005                     : Logging date
#
~Curve Information
#MNEM.UNIT     API CODES                       : CURVE DESCRIPTION
#----.----     ---------                       : -----------------
DEPT .M        00 001 00 00                    : Logged depth
GGCE .GAPI     30 310 00 00                    : Borehole Corrected Gamma
CGXT .DEGC     30 660 01 00                    : MCG External Temperature
CLDC .IN       45 280 01 00                    : Density Caliper
DNND .CPS      42 334 30 00                    : Near Neutron Raw
DNFD .CPS      42 334 31 00                    : Far Neutron Raw
NPRL .V/V      42 890 01 00                    : Limestone Neutron Por.
DEN  .G/C3     42 350 01 00                    : Compensated Density
DCOR .G/C3     42 356 01 00                    : Density Correction
PDPE .B/E      45 358 01 00                    : PE
DSLL .OHMM     11 220 09 00                    : Shallow Laterolog
DDLL .OHMM     11 220 10 00                    : Deep Laterolog
DT35 .US/M     60 520 32 00                    : 3-5' Compensated Sonic
DT45 .US/M     61 520 00 00                    : 4-5' Compensated Sonic
DT46 .US/M     61 520 04 00                    : 4-6' Compensated Sonic
TR21 .US       60 520 30 00                    : 3' Transit Time
TR11 .US       60 520 04 00                    : 4' Transit Time
TR22 .US       60 520 50 00                    : 5' Transit Time
TR12 .US       60 520 60 00                    : 6' Transit Time
GRGC .GAPI     30 310 01 00                    : Gamma Ray
#
~Parameter Information
#MNEM.UNIT     VALUE                           : DESCRIPTION      
#----.----     ---------                       : -----------------
EREF .M                                        : Elevation of depth reference
DREF .         RT @ 32.82 M                    : Depth reference
GL   .M        -59.40                          : Ground elevation
RUN  .         ON                              : Run number
TDD  .M        2326.000                        : TD (driller)
TDL  .M        2323.100                        : TD (logger)
CSGD .M        1123.000                        : Casing bottom (driller)
CSGL .M        1123.000                        : Casing bottom (logger)
BS   .INCHES   8.50                            : Bit size
MUD  .         KCL/GYL/POLY                    : Mud type
MUDD .LB/USG   10.15                           : Mud density
MUDV .CP       78.00                           : Mud viscosity
PH   .         9.00                            : Mud pH
FL   .         2.80                            : Mud fluid loss rate
MUDS .         FLOWLINE                        : Mud sample source
RM   .OHM-M    0.116                           : Mud resistivity
RMT  .DEGC      25.0                           : Mud sample temperature
RMF  .OHM-M    0.107                           : Mud filtrate resistivity
RMFT .DEGC      25.0                           : Mud filtrate sample temperature
RMC  .OHM-M    0.211                           : Mud cake resistivity
RMCT .DEGC      25.0                           : Mud cake sample temperature
TMAX .DEGC     77.90                           : Max recorder temperature
TIMC .DAY/HR                                   : Time circulation ended
TIML .DAY/HR                                   : Time logger at bottom
UNIT .         1                               : Equipment ID
BASE .         SALE                            : Equipment base location
ENG  .         G.McMANUS, B.MOSS               : Recording engineer
WIT  .         TREVOR LOBO                     : Witnessed by
CSGS .MM       273.050                         : Casing size
CSGW .KG/M     85.87                           : Casing weight
#
~Other Information
--------------------------------------------------------------------------------
RIG: NABORS 453

5" SHUTTLE/MEMORY COMPACT OPERATION.
CREW:  G MCMANUS , B MOSS , B GOODWIN, M KOLCZE.


FIELD FINAL LOGS TO BE CORRELATED TO ANADRILL GAMMA LOG.
DENSITY CALIPER CLOSED FROM 2286 TO TD.
TIME ALLOWED TO LEAVE PIPE STATIONARY ELAPSED, SO CALIPER WAS STILL POWERING UP WHEN LOGGING COMMENCED.

MAX. TEMPERATURE:  77.9 DEG C AT 2263.80 m MD
MAX. INCLINATION: 50.12 DEG AT 1123.20 m MD
MAX. DOGLEG SERVERITY: 11.64 DEG/30m AT 1130.05 m MD
DEPLOYMENT ANGLE:6.5 DEG

HVOL: 2062 FT^3
AVOL:  1036 FT^3

--------------------------------------------------------------------------------
~A  DEPT       GGCE       CGXT       CLDC       DNND       DNFD       NPRL        DEN       DCOR       PDPE       DSLL       DDLL       DT35       DT45       DT46       TR21       TR11       TR22       TR12       GRGC
# ...
  1340.500    74.7454    64.6647    10.2563  5515.1450   317.6435     0.3606     2.3298     0.0187     3.9950     1.8653     2.3314   372.0090   371.2923   372.3639   394.0312   508.0590   616.9863   734.3755    69.0634
  1340.600    74.2576    64.6557    10.1592  5550.8384   320.7696     0.3463     2.3301     0.0170     3.8652     1.8878     2.3665   370.9510   368.1754   371.5210   391.8669   505.2613   614.8090   734.5974    68.9790
  1340.700    72.6982    64.6569    10.0909  5693.6113   334.2126     0.3338     2.3321     0.0162     3.7570     1.9094     2.3994   370.1634   367.8203   370.8964   389.8354   505.2613   617.6788   734.5974    67.5580
  1340.800    71.7410    64.6613    10.0397  5681.7612   337.7428     0.3254     2.3344     0.0159     3.6767     1.9271     2.4254   369.7734   367.7590   370.3756   389.8354   503.0838   617.6788   733.7668    66.5860
  1340.900    71.7680    64.6617    10.0461  5647.8398   333.4658     0.3227     2.3357     0.0156     3.6235     1.9401     2.4446   369.8490   370.3132   370.0590   387.0747   502.0827   618.3736   731.8665    66.4585
  1341.000    72.5515    64.6658    10.0366  5666.0498   319.9220     0.3242     2.3359     0.0152     3.5771     1.9465     2.4568   370.1728   369.3526   369.9317   387.5500   502.0827   618.3736   731.8665    67.2656
  1341.100    73.0891    64.6736    10.0089  5675.0640   321.6676     0.3286     2.3337     0.0145     3.5434     1.9446     2.4629   370.7223   367.8680   369.9830   387.5500   502.3326   619.3966   731.7307    67.9388
  1341.200    73.5611    64.6728     9.9684  5699.4351   326.3875     0.3341     2.3293     0.0134     3.5058     1.9371     2.4664   371.4057   368.1918   370.2696   387.8685   502.3326   620.7693   732.1931    68.2093
  1341.300    74.7454    64.6710     9.8916  5722.1992   322.3127     0.3400     2.3235     0.0125     3.4637     1.9267     2.4695   372.2501   369.8318   370.9439   387.8685   500.6917   620.7693   732.1931    69.3602
  1341.400    76.0719    64.6728     9.8164  5772.8677   313.2430     0.3449     2.3195     0.0124     3.4360     1.9147     2.4731   373.1115   371.9460   371.8636   387.2905   501.8960   620.7693   732.8712    70.6745
  1341.500    77.1351    64.6756     9.7527  5739.0566   312.4859     0.3488     2.3174     0.0133     3.4337     1.9016     2.4757   374.0445   373.6046   373.0942   387.9813   501.8960   622.2836   732.8712    72.1220
  1341.600    77.5434    64.6738     9.7221  5673.4233   314.1150     0.3520     2.3165     0.0142     3.4488     1.8887     2.4748   374.9638   376.1808   374.4414   387.9813   501.8960   624.4147   733.4722    72.5089
  1341.700    77.8844    64.6767     9.7049  5656.5239   319.8698     0.3554     2.3144     0.0143     3.4592     1.8766     2.4711   375.8148   376.4653   375.7973   387.9813   503.7559   624.4147   735.5786    73.1347
  1341.800    77.4806    64.6798     9.6890  5703.9556   313.8145     0.3599     2.3099     0.0128     3.4634     1.8653     2.4663   376.6293   376.1422   376.9210   388.3745   504.4760   627.3017   735.5786    73.0593
  1341.900    76.0094    64.6775     9.6843  5823.1494   304.3432     0.3656     2.3027     0.0099     3.4598     1.8546     2.4611   377.4582   376.3518   377.9219   389.6268   504.4760   631.2901   735.5786    72.2828
  1342.000    73.8039    64.6784     9.6925  5796.1514   300.5992     0.3721     2.2939     0.0064     3.4442     1.8449     2.4576   378.3759   377.7349   378.9508   389.6268   505.8083   631.2901   736.7643    70.0282
  1342.100    72.3653    64.6775     9.7147  5758.8687   295.4290     0.3789     2.2856     0.0032     3.4160     1.8368     2.4585   379.3399   379.7068   380.1848   390.6793   507.9813   633.6589   740.2183    68.2959
  1342.200    71.5754    64.6764     9.7320  5710.2676   303.4735     0.3853     2.2789     0.0008     3.3801     1.8299     2.4638   380.3527   381.0515   381.7063   391.8003   507.9813   633.6589   740.2183    67.4449
  1342.300    71.1703    64.6801     9.7402  5650.8667   296.3061     0.3901     2.2748    -0.0006     3.3547     1.8241     2.4723   381.3845   384.2078   383.3167   391.8003   510.0630   636.6531   743.4951    66.8184
  1342.400    71.1947    64.6896     9.7451  5662.0137   277.1362     0.3918     2.2730    -0.0010     3.3586     1.8188     2.4821   382.3905   386.6861   384.6812   393.8686   510.0630   636.6531   747.9198    66.6849
  1342.500    71.5945    64.6953     9.7531  5674.5337   291.8345     0.3901     2.2725    -0.0010     3.3877     1.8131     2.4898   383.4050   387.9770   385.7247   393.8686   513.2058   637.4077   747.9198    66.8206
  1342.600    72.0509    64.6932     9.7739  5674.9780   306.5327     0.3854     2.2725    -0.0004     3.4234     1.8071     2.4962   384.4135   387.4228   386.5403   396.4236   513.2058   638.3416   751.8333    67.3601
  1342.700    72.0740    64.6912     9.8047  5733.6055   310.0956     0.3788     2.2739     0.0013     3.4567     1.7989     2.5070   385.5197   386.9126   387.3535   396.4236   516.4468   638.3416   751.8333    67.5842
  1342.800    72.4288    64.6937     9.8457  5785.5962   308.3511     0.3728     2.2768     0.0044     3.4756     1.7859     2.5166   386.8265   386.6676   388.5159   399.4454   519.7863   636.5992   753.8308    67.3139
  1342.900    74.4377    64.6975     9.8780  5574.6362   304.3387     0.3705     2.2797     0.0080     3.4673     1.7679     2.5106   388.4380   388.7264   390.2201   402.2116   519.7863   636.5992   753.8308    68.0287
  1343.000    78.5619    64.6989     9.9040  5434.8350   290.1180     0.3733     2.2816     0.0110     3.4288     1.7462     2.4872   390.3110   393.0155   392.3818   402.2116   521.8267   634.7984   758.4608    70.6714
  1343.100    83.7569    64.6949     9.9244  5453.6289   277.2107     0.3801     2.2819     0.0127     3.3788     1.7227     2.4531   392.2405   398.1504   394.4456   404.1824   521.8267   634.7984   757.2677    75.1510
  1343.200    89.1099    64.6921     9.9704  5408.5347   275.3974     0.3880     2.2811     0.0129     3.3427     1.6993     2.4087   393.9478   402.8139   395.8069   404.1824   521.9982   626.0034   757.2677    79.9905
  1343.300    93.2464    64.6888    10.0505  5376.3984   271.2327     0.3946     2.2801     0.0117     3.3331     1.6791     2.3636   394.9869   402.9008   396.2613   404.3404   521.9982   626.0034   755.2896    84.6969
  1343.400    95.0771    64.6869    10.1371  5374.4575   268.7867     0.3989     2.2803     0.0101     3.3525     1.6638     2.3338   395.0989   399.4675   395.6718   404.3404   523.2661   616.4400   755.2896    87.6571
  1343.500    93.8988    64.6930    10.1948  5361.6724   278.8000     0.4010     2.2830     0.0089     3.3881     1.6529     2.3226   394.2024   390.4614   394.4288   404.7114   523.2661   607.2017   751.9649    88.3753
  1343.600    90.6751    64.6985    10.2147  5355.0859   269.2871     0.4001     2.2877     0.0084     3.4251     1.6470     2.3278   392.6731   385.1024   392.5834   404.7114   522.5150   600.5778   751.9649    86.1352
  1343.700    87.2261    64.6997    10.2228  5402.3115   262.0610     0.3957     2.2937     0.0085     3.4444     1.6462     2.3440   390.6733   382.6785   390.6337   403.2894   520.8389   600.5778   743.6418    82.6845
  1343.800    84.7126    64.7052    10.2239  5396.0811   290.4936     0.3891     2.2996     0.0085     3.4387     1.6512     2.3591   388.5507   385.3031   388.3835   399.2702   516.1371   594.4579   743.6418    79.6378
  1343.900    83.7956    64.6977    10.2273  5384.8701   302.1070     0.3811     2.3064     0.0085     3.4016     1.6613     2.3650   386.3365   385.9054   386.2240   395.0276   516.1371   594.4579   735.7818    77.6519
  1344.000    83.6780    64.6965    10.2340  5644.5098   298.8148     0.3711     2.3144     0.0086     3.3524     1.6759     2.3623   383.5283   381.8120   383.0481   395.0276   503.6373   590.3217   728.1281    77.2205
  1344.100    83.8973    64.6974    10.2759  5735.7344   297.6581     0.3587     2.3243     0.0085     3.3135     1.7018     2.3585   379.7856   376.3284   379.3029   384.0126   503.6373   585.8672   722.2194    77.1470
