~Version Information
VERS  .          2.0                              :CWLS Log Ascii Standard - Version 2.0
WRAP  .          NO                               :One line per depth step
~Well Information Block
#MNEM.UNIT       Data Type                        Information
#---------       ---------                        -------------------------------
STRT  .M         0.00000                          :START DEPTH
STOP  .M         2946.19700                       :STOP DEPTH
STEP  .M          0.15240                         :INCREMENT
NULL  .          -999.25                          :NULL DATA VALUE
COMP  .          Chevron Australia Pty Ltd        :COMPANY
WELL  .          WST-3A-ST1                       :WELL
FLD   .          Wheatstone                       :FIELD
LOC   .          -                                :LOCATION
PROV  .          Western Australia                :PROVINCE
STAT  .          Western Australia                :STATE
CNTY  .          -                                :COUNTY
CTRY  .          Australia                        :COUNTRY
DATE  .          5-8th Oct 2014                   :DATE
UWI   .          WST-3A-ST1                       :UNIQUE WELL UWI
LIC   .          -                                :LICENSE NUMBER
API   .          -                                :API NUMBER
SRVC  .          Schlumbegre                      :SERVICE COMPANY
~Parameter Information Block
#MNEM.UNIT       Value                            Description
#---------       ---------                        -------------
LONG  .DEG       121.295670                       :Well Surface Location
LATI  .DEG       -19.810825                       :Well Surface Location
XWELL .M         321485.7400000                   :X-coordinate of Well Head
YWELL .M         7808552.550000                   :Y-coordinate of Well Head
PDAT  .          MSL                              :Permanent Datum               
EPD   .m         0.00                             :Elevation of Permanent Datum (PDAT) above Mean Sea Level
LMF   .          DF                               :Logging Measured From (Name of Working Datum)
APD   .m         28.70                            :Elevation of Working Datum (LMF) Above Permanent Datum
EKB   .m         0.00                             :Elevation of Kelly Bushing Above Mean Sea Level
EGL   .m         -230.10                          :Elevation of Ground Level Above Mean Sea Level
EDF   .m         28.70                            :Elevation of Derrick Floor Above Mean Sea Level
~Curve Information Block
#MNEM.UNIT       API Code            Curve    Description
#--------        --------------      -----    -------------------
DEPT  .M                             :0       Index - True Vertical Depth from SRD (MSL)
DTCO  .US/F                          :1       Delta-T Compressional - Raw (used for generation of synthetics only)        
DTCO  .US/F                          :2       Delta-T Compressional - Calibrated (used for depth conversion only)        
DTSM  .US/F                          :3       Delta-T Shear                 
GR    .GAPI                          :4       Gamma Ray                     
NPHI  .V/V                           :5       Thermal Neutron Porosity (original Ratio Method) in Selected Lithology
RHOB  .G/C3                          :6       Bulk Density                  
RT    .OHMM                          :7       True Resistivity              
SVEL  .M/S                           :8       Sonic Velocity - From Calibrated DTCO               
SVEL  .M/S                           :9       Sonic Velocity - From Raw DTCO               
~Ascii Data Section
# ...
   2189.07360      78.39635      84.27095     153.04832      37.27265       0.20151       2.37256       1.37709    3616.90479    3946.13672 
   2189.22600      76.55447      83.08330     146.91873      38.24038       0.19845       2.38693       1.44450    3668.60742    4007.76050 
   2189.37840      76.35549      83.60822     142.59886      38.01698       0.19564       2.39046       1.33360    3645.57446    3980.28760 
   2189.53080      77.18732      84.66474     141.45201      35.57437       0.19509       2.39010       1.20986    3600.08179    3926.12012 
   2189.68320      77.93456      85.18555     142.97615      33.09620       0.19454       2.38980       1.20760    3578.07129    3899.95703 
   2189.83560      78.06641      85.03260     145.49297      30.92579       0.19086       2.38079       1.27056    3584.50757    3907.60449 
   2189.98800      77.45859      84.09174     146.39622      31.05126       0.18887       2.36327       1.30103    3624.61304    3955.31372 
   2190.14040      76.45965      83.05027     144.87744      34.38763       0.19517       2.35008       1.31738    3670.06641    4009.50146 
   2190.29280      76.10666      83.20138     142.83862      35.83904       0.21235       2.33747       1.36952    3663.40063    4001.54736 
   2190.44520      76.81847      84.32373     142.43089      34.22473       0.23761       2.31412       1.40815    3614.64087    3943.44189 
   2190.59760      78.26821      86.01317     144.44310      33.65164       0.25152       2.30655       1.42694    3543.64355    3859.09131 
   2190.75000      80.42865      88.51846     148.65028      34.68401       0.23750       2.34445       1.43424    3443.34937    3740.44556 
   2190.90240      82.86317      90.90117     154.77272      35.17572       0.21190       2.39710       1.40516    3353.09229    3634.18188 
   2191.05480      83.78004      90.74478     160.87498      38.37661       0.19467       2.41734       1.15771    3358.87061    3640.97095 
   2191.20720      81.62178      87.12079     162.70528      42.67969       0.18483       2.41632       0.95724    3498.59082    3805.72119 
   2191.35960      78.30357      84.02647     158.18512      41.31732       0.17570       2.42461       1.21405    3627.42847    3958.66675 
   2191.51200      76.18385      82.62033     150.11050      38.13570       0.16997       2.42668       1.71161    3689.16455    4032.30688 
   2191.66440      74.67955      81.04416     142.74944      36.68700       0.17435       2.40372       1.86634    3760.91260    4118.17822 
   2191.81680      73.70218      80.50522     138.69724      35.34317       0.18765       2.37774       1.93123    3786.08984    4148.38525 
   2191.96920      74.14018      81.65852     137.63074      34.65659       0.20292       2.36288       2.11716    3732.61719    4084.27563 
   2192.12160      75.66371      83.45312     138.47847      35.57111       0.21960       2.34745       2.25313    3652.34961    3988.36572 
   2192.27400      77.63136      85.54748     141.42647      34.64710       0.23683       2.32708       1.99766    3562.93359    3881.98022 
   2192.42640      79.58490      87.39791     146.06944      33.26629       0.24745       2.30396       1.54912    3487.49756    3792.59839 
   2192.57880      81.04399      88.57047     150.82416      34.16724       0.24941       2.28557       1.34404    3441.32739    3738.05981 
   2192.73120      82.16942      89.66138     154.32664      36.82677       0.24619       2.28317       1.26934    3399.45679    3688.70898 
   2192.88360      83.50973      91.18430     156.30312      38.62204       0.24342       2.29223       1.21918    3342.68066    3621.95459 
   2193.03600      84.68939      92.11263     157.72308      37.13881       0.24259       2.29966       1.17510    3308.99243    3582.43530 
   2193.18840      84.72998      91.50323     159.18144      35.93024       0.24355       2.30452       1.11059    3331.02979    3608.27954 
   2193.34080      83.55217      89.90925     159.54326      36.80923       0.24609       2.30862       1.04205    3390.08496    3677.67700 
   2193.49320      82.29597      88.90038     158.01184      38.53714       0.24568       2.30876       0.99253    3428.55713    3722.99683 
   2193.64560      81.89066      88.93698     155.70895      38.13630       0.24247       2.31187       0.99845    3427.14600    3721.33301 
   2193.79800      81.87041      88.87510     153.45972      35.84011       0.23852       2.32104       1.00340    3429.53198    3724.14673 
   2193.95040      81.65093      88.54023     151.22705      35.40174       0.23221       2.32703       1.02573    3442.50293    3739.44678 
   2194.10280      80.94621      87.56471     148.94717      35.94515       0.22487       2.32449       1.09619    3480.85400    3784.74316 
   2194.25520      79.76397      86.23112     147.23051      34.37407       0.22113       2.31201       1.27209    3534.68701    3848.47168 
   2194.40760      79.02232      85.92287     146.95514      32.29263       0.22037       2.29491       1.46667    3547.36743    3863.50806 
   2194.56000      79.25139      86.54535     148.70059      31.70624       0.22527       2.28643       1.45307    3521.85303    3833.26294 
   2194.71240      80.28931      87.88747     152.60783      30.82028       0.23496       2.29485       1.32041    3468.07129    3769.63574 
   2194.86480      82.04279      89.94212     157.18974      31.16968       0.23822       2.32120       1.40380    3388.84619    3676.21924 
   2195.01720      83.68186      91.27692     160.02226      32.43819       0.22824       2.34918       1.21538    3339.28882    3617.97241 
   2195.16960      84.01711      90.88029     159.69879      31.26745       0.21409       2.34690       0.91815    3353.86230    3635.08643 
   2195.32200      82.93865      89.30264     155.61177      31.45172       0.21185       2.32042       0.83116    3413.11328    3704.79370 
   2195.47440      81.04608      87.17948     149.89691      33.86907       0.21772       2.30832       0.92806    3496.23560    3802.93433 
   2195.62680      79.19998      85.53625     146.70763      35.15851       0.22156       2.30901       1.13524    3563.40161    3882.53516 
   2195.77920      78.13743      84.89885     146.19969      35.40816       0.22693       2.30443       1.52498    3590.15479    3914.31641 
   2195.93160      77.94093      85.02517     146.55089      34.81322       0.23405       2.30891       1.46690    3584.82104    3907.97681 
   2196.08400      78.54670      85.98198     148.10582      35.96908       0.24140       2.32591       1.37900    3544.92871    3860.61597 
   2196.23640      79.62176      87.14362     150.33757      37.89626       0.24380       2.33896       1.29373    3497.67432    3804.63672 
   2196.38880      80.14618      87.20148     151.08017      38.61091       0.23921       2.34150       1.24596    3495.35327    3801.89062 
   2196.54120      79.41042      85.88464     149.55424      37.59209       0.23434       2.33178       1.30000    3548.94678    3865.38159 
   2196.69360      78.30859      84.94026     147.16759      35.19368       0.22694       2.32605       1.28511    3588.40405    3912.23560 
   2196.84600      78.60717      86.14890     146.20224      32.86664       0.20876       2.34519       1.19468    3538.06006    3852.47070 
   2196.99840      79.97074      87.62591     147.77480      32.59370       0.18509       2.37515       1.18655    3478.42334    3781.86938 
   2197.15080      79.43092      85.60940     149.59052      34.70175       0.16033       2.38079       1.74636    3560.35693    3878.92114 
   2197.30320      75.51557      80.30376     147.12534      35.63728       0.13771       2.37144       2.09615    3795.58813    4159.79053 
   2197.45560      70.91549      76.22027     140.07942      33.41488       0.12909       2.41134       2.04987    3998.93652    4405.29785 
   2197.60800      69.74267      77.17859     133.34828      31.27264       0.13824       2.49345       2.40811    3949.28198    4345.11475 
