~Version Information
VERS  .          2.0                              :CWLS Log Ascii Standard - Version 2.0
WRAP  .          NO                               :One line per depth step
~Well Information Block
#MNEM.UNIT       Data Type                        Information
#---------       ---------                        -------------------------------
STRT  .M         0.00000                          :START DEPTH
STOP  .M         2946.19700                       :STOP DEPTH
STEP  .M          0.15240                         :INCREMENT
NULL  .          -999.25                          :NULL DATA VALUE
COMP  .          Chevron Australia Pty Ltd        :COMPANY
WELL  .          WST-3A-ST1                       :WELL
FLD   .          Wheatstone                       :FIELD
LOC   .          -                                :LOCATION
PROV  .          Western Australia                :PROVINCE
STAT  .          Western Australia                :STATE
CNTY  .          -                                :COUNTY
CTRY  .          Australia                        :COUNTRY
DATE  .          5-8th Oct 2014                   :DATE
UWI   .          WST-3A-ST1                       :UNIQUE WELL UWI
LIC   .          -                                :LICENSE NUMBER
API   .          -                                :API NUMBER
SRVC  .          Schlumbegre                      :SERVICE COMPANY
~Parameter Information Block
#MNEM.UNIT       Value                            Description
#---------       ---------                        -------------
LONG  .DEG       121.295670                       :Well Surface Location
LATI  .DEG       -19.810825                       :Well Surface Location
XWELL .M         321485.7400000                   :X-coordinate of Well Head
YWELL .M         7808552.550000                   :Y-coordinate of Well Head
PDAT  .          MSL                              :Permanent Datum               
EPD   .m         0.00                             :Elevation of Permanent Datum (PDAT) above Mean Sea Level
LMF   .          DF                               :Logging Measured From (Name of Working Datum)
APD   .m         28.70                            :Elevation of Working Datum (LMF) Above Permanent Datum
EKB   .m         0.00                             :Elevation of Kelly Bushing Above Mean Sea Level
EGL   .m         -230.10                          :Elevation of Ground Level Above Mean Sea Level
EDF   .m         28.70                            :Elevation of Derrick Floor Above Mean Sea Level
~Curve Information Block
#MNEM.UNIT       API Code            Curve    Description
#--------        --------------      -----    -------------------
DEPT  .M                             :0       Index - True Vertical Depth from SRD (MSL)
DTCO  .US/F                          :1       Delta-T Compressional - Raw (used for generation of synthetics only)        
DTCO  .US/F                          :2       Delta-T Compressional - Calibrated (used for depth conversion only)        
DTSM  .US/F                          :3       Delta-T Shear                 
GR    .GAPI                          :4       Gamma Ray                     
NPHI  .V/V                           :5       Thermal Neutron Porosity (original Ratio Method) in Selected Lithology
RHOB  .G/C3                          :6       Bulk Density                  
RT    .OHMM                          :7       True Resistivity              
SVEL  .M/S                           :8       Sonic Velocity - From Calibrated DTCO               
SVEL  .M/S                           :9       Sonic Velocity - From Raw DTCO               
~Ascii Data Section
# ...
   2336.74920     108.94206     125.98833     240.73483      75.92112       0.28875       2.30112       0.77594    2419.27173    2781.33936 
   2336.90160     109.78519     126.33079     243.61348      74.75144       0.28847       2.31728       0.82518    2412.71338    2772.67480 
   2337.05400     109.45817     125.51356     243.22621      72.77199       0.30021       2.34031       0.99852    2428.42285    2793.44141 
   2337.20640     108.28331     124.07683     239.97273      70.90752       0.31122       2.35216       1.02980    2456.54248    2830.71460 
   2337.35880     106.89045     122.71609     235.85747      68.58965       0.30202       2.35539       0.88690    2483.78174    2866.94482 
   2337.51120     106.43198     122.91827     232.88435      66.50296       0.29022       2.35201       0.80299    2479.69629    2861.50317 
   2337.66360     107.61836     124.82531     233.57268      64.35773       0.30266       2.34698       0.78360    2441.81250    2811.17334 
   2337.81600     109.65627     126.95904     238.13393      62.87700       0.32836       2.33642       0.79244    2400.77441    2756.91895 
   2337.96840     110.99737     127.71976     242.74866      62.94379       0.33662       2.30364       0.90694    2386.47485    2738.07886 
   2338.12080     110.85298     126.91264     243.63548      63.16763       0.32557       2.26937       0.96683    2401.65186    2758.07617 
   2338.27320     109.80804     125.69357     241.00360      65.08563       0.30776       2.28011       0.92352    2424.94507    2788.84033 
   2338.42560     109.23832     125.59930     238.36763      68.73281       0.29463       2.32381       0.84724    2426.76514    2791.24805 
   2338.57800     109.85362     126.73416     239.16187      71.50280       0.29580       2.34853       0.78330    2405.03418    2762.53784 
   2338.73040     111.10788     128.07585     243.72935      71.97954       0.31880       2.34497       0.71442    2379.83960    2729.34790 
   2338.88280     112.46159     129.43837     249.11967      70.94543       0.35683       2.32945       0.72010    2354.78857    2696.44946 
   2339.03520     113.57912     130.37653     252.16318      71.01903       0.37469       2.31696       0.82820    2337.84424    2674.25439 
   2339.18760     113.68153     129.86697     252.22955      70.46996       0.36433       2.32042       0.92446    2347.01709    2686.26392 
   2339.34000     112.53623     128.25616     250.08258      69.52840       0.33729       2.32092       0.98794    2376.49390    2724.94824 
   2339.49240     111.09274     126.93520     245.95990      69.84361       0.30680       2.30027       0.92011    2401.22534    2757.51343 
   2339.64480     110.40764     126.71568     241.66682      70.82536       0.29024       2.27772       0.79667    2405.38501    2763.00073 
   2339.79720     110.40365     126.86950     240.41782      72.34359       0.29101       2.26980       0.71722    2402.46875    2759.15356 
   2339.94960     110.45931     126.85330     242.50256      75.06558       0.31366       2.27052       0.70142    2402.77539    2759.55811 
   2340.10200     110.52515     126.97921     245.00824      77.75086       0.33120       2.26682       0.72657    2400.39307    2756.41602 
   2340.25440     110.34457     126.57421     245.13049      78.32820       0.33059       2.26358       0.77293    2408.07349    2766.54834 
   2340.40680     109.50271     125.41246     242.11014      74.58762       0.33819       2.27869       0.85782    2430.38062    2796.03198 
   2340.55920     108.37125     124.30319     237.69237      70.31854       0.34439       2.30415       1.06236    2452.06909    2824.77588 
   2340.71160     107.36906     123.37940     233.41312      69.76244       0.33474       2.31492       0.97368    2470.42847    2849.16895 
   2340.86400     106.80691     123.08205     230.11208      72.39976       0.31909       2.30707       0.78601    2476.39697    2857.11035 
   2341.01640     107.46987     124.44817     230.14931      76.03605       0.30502       2.29916       0.70193    2449.21240    2820.98560 
   2341.16880     109.53146     127.01900     235.02733      75.46552       0.30437       2.29491       0.69447    2399.64087    2755.42456 
   2341.32120     111.82408     129.10791     242.35689      71.53133       0.33978       2.28139       0.80049    2360.81592    2704.35547 
   2341.47360     112.97304     129.56860     248.18430      69.29214       0.39165       2.26525       0.97063    2352.42163    2693.34619 
   2341.62600     112.58595     128.56076     250.13501      68.88888       0.38709       2.26513       1.06819    2370.86353    2717.54810 
   2341.77840     111.13329     126.78239     248.01631      69.01313       0.34182       2.28593       1.01511    2404.11914    2761.33081 
   2341.93080     109.62002     125.46324     243.02861      68.92397       0.31273       2.31271       0.84930    2429.39673    2794.73022 
   2342.08320     109.19941     125.70056     237.66418      69.12568       0.29170       2.31789       0.76364    2424.81030    2788.66187 
   2342.23560     110.20937     127.27627     235.49680      70.56397       0.26803       2.29864       0.74033    2394.79053    2749.03076 
   2342.38800     112.00819     129.23843     238.70982      72.34500       0.26823       2.28017       0.72858    2358.43164    2701.22729 
   2342.54040     113.26698     129.98221     245.90063      70.89107       0.29748       2.27635       0.80975    2344.93628    2683.53857 
   2342.69280     112.85843     128.72992     251.69955      67.91674       0.32329       2.28344       0.88133    2367.74780    2713.45581 
   2342.84520     111.26235     126.88211     252.22188      66.85761       0.32706       2.28693       0.87275    2402.22974    2758.83862 
   2342.99760     110.22388     126.43626     248.97343      67.52985       0.31335       2.27991       0.82280    2410.70093    2770.01709 
   2343.15000     110.62547     127.45835     245.56186      68.30320       0.29081       2.27192       0.77807    2391.36938    2744.52368 
   2343.30240     111.72150     128.60852     244.41943      68.92258       0.27576       2.26286       0.75362    2369.98291    2716.39136 
   2343.45480     112.85210     129.72478     246.13899      68.99217       0.28495       2.24870       0.75596    2349.58960    2689.63477 
   2343.60720     113.92440     130.76489     249.77179      69.71809       0.30532       2.23975       0.77794    2330.90088    2665.17310 
   2343.75960     114.60683     131.18542     253.61893      70.93968       0.31796       2.24282       0.81686    2323.42871    2655.40894 
   2343.91200     114.59276     130.85313     256.13696      67.72056       0.33222       2.25029       0.80840    2329.32886    2663.11816 
   2344.06440     114.04852     130.15369     256.89267      62.13193       0.34716       2.25636       0.80094    2341.84692    2679.49292 
   2344.21680     113.55782     129.81586     256.49347      59.05746       0.34301       2.26653       0.80938    2347.94116    2687.47485 
   2344.36920     113.59175     130.12198     255.58311      59.64779       0.31452       2.28146       0.82494    2342.41748    2680.23999 
   2344.52160     113.88190     130.40045     254.27910      63.12905       0.29403       2.29343       0.89125    2337.41528    2673.69336 
   2344.67400     113.79831     130.05176     252.19539      67.05768       0.29920       2.30249       1.00829    2343.68213    2681.89648 
   2344.82640     113.16174     129.20441     249.17972      67.74744       0.29762       2.30833       1.04041    2359.05273    2702.04224 
   2344.97880     112.14926     128.07101     245.89139      66.57719       0.28144       2.30324       0.96317    2379.92969    2729.46655 
   2345.13120     111.16370     127.19370     242.94861      66.78283       0.27721       2.28824       0.89052    2396.34521    2751.07983 
   2345.28360     110.78329     127.17711     241.15294      69.44116       0.29833       2.27199       0.84747    2396.65771    2751.49170 
