~Version Information
VERS  .          2.0                              :CWLS Log Ascii Standard - Version 2.0
WRAP  .          NO                               :One line per depth step
~Well Information Block
#MNEM.UNIT       Data Type                        Information
#---------       ---------                        -------------------------------
STRT  .M         0.00000                          :START DEPTH
STOP  .M         2946.19700                       :STOP DEPTH
STEP  .M          0.15240                         :INCREMENT
NULL  .          -999.25                          :NULL DATA VALUE
COMP  .          Chevron Australia Pty Ltd        :COMPANY
WELL  .          WST-3A-ST1                       :WELL
FLD   .          Wheatstone                       :FIELD
LOC   .          -                                :LOCATION
PROV  .          Western Australia                :PROVINCE
STAT  .          Western Australia                :STATE
CNTY  .          -                                :COUNTY
CTRY  .          Australia                        :COUNTRY
DATE  .          5-8th Oct 2014                   :DATE
UWI   .          WST-3A-ST1                       :UNIQUE WELL UWI
LIC   .          -                                :LICENSE NUMBER
API   .          -                                :API NUMBER
SRVC  .          Schlumbegre                      :SERVICE COMPANY
~Parameter Information Block
#MNEM.UNIT       Value                            Description
#---------       ---------                        -------------
LONG  .DEG       121.295670                       :Well Surface Location
LATI  .DEG       -19.810825                       :Well Surface Location
XWELL .M         321485.7400000                   :X-coordinate of Well Head
YWELL .M         7808552.550000                   :Y-coordinate of Well Head
PDAT  .          MSL                              :Permanent Datum               
EPD   .m         0.00                             :Elevation of Permanent Datum (PDAT) above Mean Sea Level
LMF   .          DF                               :Logging Measured From (Name of Working Datum)
APD   .m         28.70                            :Elevation of Working Datum (LMF) Above Permanent Datum
EKB   .m         0.00                             :Elevation of Kelly Bushing Above Mean Sea Level
EGL   .m         -230.10                          :Elevation of Ground Level Above Mean Sea Level
EDF   .m         28.70                            :Elevation of Derrick Floor Above Mean Sea Level
~Curve Information Block
#MNEM.UNIT       API Code            Curve    Description
#--------        --------------      -----    -------------------
DEPT  .M                             :0       Index - True Vertical Depth from SRD (MSL)
DTCO  .US/F                          :1       Delta-T Compressional - Raw (used for generation of synthetics only)        
DTCO  .US/F                          :2       Delta-T Compressional - Calibrated (used for depth conversion only)        
DTSM  .US/F                          :3       Delta-T Shear                 
GR    .GAPI                          :4       Gamma Ray                     
NPHI  .V/V                           :5       Thermal Neutron Porosity (original Ratio Method) in Selected Lithology
RHOB  .G/C3                          :6       Bulk Density                  
RT    .OHMM                          :7       True Resistivity              
SVEL  .M/S                           :8       Sonic Velocity - From Calibrated DTCO               
SVEL  .M/S                           :9       Sonic Velocity - From Raw DTCO               
~Ascii Data Section
# ...
   2484.42480     112.15455     122.61591     262.80884      73.74885       0.30373       2.28208       0.84495    2485.81128    2711.17358 
   2484.57720     112.84367     123.34353     263.56857      74.25491       0.32575       2.26680       0.84655    2471.14722    2693.73975 
   2484.72960     113.46703     123.89053     265.15561      72.74174       0.34465       2.25426       0.84342    2460.23633    2680.78003 
   2484.88200     113.86584     124.18082     267.28235      71.92365       0.34277       2.25554       0.82899    2454.48511    2673.95288 
   2485.03440     114.16077     124.47916     269.27084      72.77610       0.34277       2.27351       0.81544    2448.60278    2666.97290 
   2485.18680     114.35667     124.60006     270.67087      73.28462       0.34313       2.29215       0.81055    2446.22681    2664.15430 
   2485.33920     114.43055     124.63950     271.43518      74.35340       0.33613       2.29793       0.82015    2445.45288    2663.23633 
   2485.49160     114.54657     124.81159     271.83725      74.39269       0.33744       2.29166       0.84699    2442.08081    2659.23779 
   2485.64400     114.48127     124.57246     271.67676      72.91505       0.32292       2.28201       0.87113    2446.76880    2664.79736 
   2485.79640     114.00540     123.92324     270.50009      70.24332       0.29491       2.27771       0.87087    2459.58691    2680.00903 
   2485.94880     113.41844     123.38187     268.77451      68.49490       0.28607       2.28596       0.85375    2470.37915    2692.82715 
   2486.10120     112.98504     123.02753     266.86011      68.80785       0.29398       2.30651       0.85784    2477.49438    2701.28345 
   2486.25360     112.59413     122.60985     264.87317      70.08152       0.29992       2.32174       0.90034    2485.93408    2711.31982 
   2486.40600     112.18237     122.20242     263.41852      71.63169       0.29115       2.31736       0.92362    2494.22241    2721.18237 
   2486.55840     111.69126     121.65003     262.57056      73.38054       0.28554       2.30641       0.91207    2505.54810    2734.66821 
   2486.71080     111.06306     120.96632     261.64838      74.28197       0.29764       2.30805       0.90631    2519.70947    2751.54688 
   2486.86320     110.55231     120.58222     260.19315      74.10645       0.30102       2.30975       0.92482    2527.73584    2761.12109 
   2487.01560     110.31229     120.44772     258.44901      73.19501       0.29462       2.29454       0.92231    2530.55859    2764.48950 
   2487.16800     110.12049     120.21395     257.02051      69.97762       0.29815       2.28315       0.91435    2535.47949    2770.36328 
   2487.32040     109.84606     119.90974     256.33408      66.59353       0.30123       2.29532       0.93154    2541.91187    2778.04443 
   2487.47280     109.62729     119.75352     256.17978      66.37836       0.29385       2.31798       0.95341    2545.22803    2782.00537 
   2487.62520     109.50916     119.66330     255.64508      67.91357       0.28374       2.32928       0.98382    2547.14697    2784.29834 
   2487.77760     109.32332     119.40743     254.05588      69.03524       0.28194       2.32582       0.99895    2552.60498    2790.82153 
   2487.93000     109.00121     119.03683     251.45630      70.54816       0.28989       2.32658       1.00581    2560.55176    2800.32373 
   2488.08240     108.66833     118.73155     248.47049      72.19563       0.29922       2.33411       0.99421    2567.13574    2808.20020 
   2488.23480     108.66749     118.95364     246.44707      72.92135       0.30281       2.32703       0.94291    2562.34253    2802.46582 
   2488.38720     109.25826     119.81438     246.64572      73.12018       0.29932       2.30965       0.87594    2543.93530    2780.46118 
   2488.53960     110.20837     120.82996     248.87134      73.19364       0.29796       2.29976       0.82069    2522.55347    2754.93848 
   2488.69200     111.19234     121.79078     252.79135      73.40392       0.30183       2.29667       0.79130    2502.65234    2731.21924 
   2488.84440     112.18876     122.81325     258.57440      72.25619       0.30360       2.29752       0.77982    2481.81689    2706.42310 
   2488.99680     113.07127     123.59328     265.19971      71.54069       0.29715       2.30153       0.80028    2466.15356    2687.80713 
   2489.14920     113.48547     123.73959     269.60474      71.95018       0.29064       2.31129       0.83035    2463.23755    2684.34351 
   2489.30160     113.26541     123.25127     268.96735      71.78010       0.29095       2.33726       0.86524    2472.99683    2695.93774 
   2489.45400     112.63556     122.51778     264.50153      71.66717       0.29364       2.36417       0.96747    2487.80225    2713.54248 
   2489.60640     112.03019     122.00622     259.54184      70.22246       0.29614       2.35596       1.05820    2498.23340    2725.95703 
   2489.75880     111.53725     121.52691     255.66620      67.79353       0.29183       2.32088       1.00338    2508.08643    2737.69238 
   2489.91120     110.80950     120.61725     253.00270      67.92850       0.28311       2.29356       0.89704    2527.00195    2760.24536 
   2490.06360     109.89797     119.70435     252.20103      70.85668       0.28168       2.28515       0.85571    2546.27368    2783.25513 
   2490.21600     109.52711     119.73039     253.73013      74.36090       0.29234       2.29932       0.84903    2545.71973    2782.59302 
   2490.36840     110.12273     120.74308     256.47269      78.41734       0.30415       2.33071       0.83883    2524.36816    2757.10352 
   2490.52080     111.25102     121.95604     259.91565      80.84296       0.30302       2.35171       0.83375    2499.26123    2727.18115 
   2490.67320     112.03192     122.42056     263.49472      81.41411       0.28971       2.34456       0.83630    2489.77783    2715.89282 
   2490.82560     112.06946     122.14543     265.28445      80.02458       0.28056       2.32683       0.84436    2495.38599    2722.56738 
   2490.97800     111.67638     121.66598     265.31400      75.17756       0.28396       2.32059       0.84915    2505.21973    2734.27710 
   2491.13040     111.46524     121.65132     265.81317      70.66550       0.29935       2.32411       0.84286    2505.52148    2734.63672 
   2491.28280     111.88039     122.38119     267.46323      69.62538       0.31866       2.32639       0.84303    2490.57886    2716.84619 
   2491.43520     112.67744     123.22744     268.94507      71.04607       0.32323       2.32964       0.86201    2473.47510    2696.50610 
   2491.58760     113.08841     123.31968     269.31534      72.62695       0.31042       2.34480       0.90087    2471.62500    2694.30737 
   2491.74000     112.52544     122.27694     268.59192      74.23341       0.29756       2.36244       0.93021    2492.70215    2719.37280 
   2491.89240     111.09192     120.55725     267.20468      73.73956       0.29242       2.35826       0.93619    2528.25952    2761.74585 
   2492.04480     109.75052     119.49286     266.08548      70.16517       0.28274       2.33434       0.92416    2550.78003    2788.64014 
   2492.19720     109.30174     119.49487     266.17545      65.94730       0.27082       2.31072       0.90518    2550.73730    2788.58911 
   2492.34960     109.70503     120.19200     267.38583      63.95224       0.27711       2.29418       0.88105    2535.94263    2770.91602 
   2492.50200     110.67027     121.35355     269.46323      67.34419       0.30209       2.28378       0.84977    2511.66968    2741.96216 
   2492.65440     111.80444     122.46767     272.34805      72.77874       0.31899       2.28210       0.84037    2488.82007    2714.75317 
   2492.80680     112.75304     123.29506     274.89801      75.65881       0.31649       2.28761       0.85660    2472.11841    2694.89404 
   2492.95920     113.35937     123.73952     275.63788      76.45550       0.30764       2.29510       0.88718    2463.23877    2684.34497 
