~Version Information
VERS  .          2.0                              :CWLS Log Ascii Standard - Version 2.0
WRAP  .          NO                               :One line per depth step
~Well Information Block
#MNEM.UNIT       Data Type                        Information
#---------       ---------                        -------------------------------
STRT  .M         0.00000                          :START DEPTH
STOP  .M         2946.19700                       :STOP DEPTH
STEP  .M          0.15240                         :INCREMENT
NULL  .          -999.25                          :NULL DATA VALUE
COMP  .          Chevron Australia Pty Ltd        :COMPANY
WELL  .          WST-3A-ST1                       :WELL
FLD   .          Wheatstone                       :FIELD
LOC   .          -                                :LOCATION
PROV  .          Western Australia                :PROVINCE
STAT  .          Western Australia                :STATE
CNTY  .          -                                :COUNTY
CTRY  .          Australia                        :COUNTRY
DATE  .          5-8th Oct 2014                   :DATE
UWI   .          WST-3A-ST1                       :UNIQUE WELL UWI
LIC   .          -                                :LICENSE NUMBER
API   .          -                                :API NUMBER
SRVC  .          Schlumbegre                      :SERVICE COMPANY
~Parameter Information Block
#MNEM.UNIT       Value                            Description
#---------       ---------                        -------------
LONG  .DEG       121.295670                       :Well Surface Location
LATI  .DEG       -19.810825                       :Well Surface Location
XWELL .M         321485.7400000                   :X-coordinate of Well Head
YWELL .M         7808552.550000                   :Y-coordinate of Well Head
PDAT  .          MSL                              :Permanent Datum               
EPD   .m         0.00                             :Elevation of Permanent Datum (PDAT) above Mean Sea Level
LMF   .          DF                               :Logging Measured From (Name of Working Datum)
APD   .m         28.70                            :Elevation of Working Datum (LMF) Above Permanent Datum
EKB   .m         0.00                             :Elevation of Kelly Bushing Above Mean Sea Level
EGL   .m         -230.10                          :Elevation of Ground Level Above Mean Sea Level
EDF   .m         28.70                            :Elevation of Derrick Floor Above Mean Sea Level
~Curve Information Block
#MNEM.UNIT       API Code            Curve    Description
#--------        --------------      -----    -------------------
DEPT  .M                             :0       Index - True Vertical Depth from SRD (MSL)
DTCO  .US/F                          :1       Delta-T Compressional - Raw (used for generation of synthetics only)        
DTCO  .US/F                          :2       Delta-T Compressional - Calibrated (used for depth conversion only)        
DTSM  .US/F                          :3       Delta-T Shear                 
GR    .GAPI                          :4       Gamma Ray                     
NPHI  .V/V                           :5       Thermal Neutron Porosity (original Ratio Method) in Selected Lithology
RHOB  .G/C3                          :6       Bulk Density                  
RT    .OHMM                          :7       True Resistivity              
SVEL  .M/S                           :8       Sonic Velocity - From Calibrated DTCO               
SVEL  .M/S                           :9       Sonic Velocity - From Raw DTCO               
~Ascii Data Section
# ...
   1589.68440     103.17458     109.58525    -999.25000      58.96467    -999.25000       2.45000       0.46695    2781.39624    2950.29395 
   1589.83680     103.56856     110.03007    -999.25000      66.39254    -999.25000       2.45000       0.48322    2770.15186    2937.64575 
   1589.98920     104.13534     110.68613    -999.25000      72.71894    -999.25000       2.45000       0.48716    2753.73267    2919.18750 
   1590.14160     105.25018     112.13682    -999.25000      75.79471    -999.25000       2.45000       0.49185    2718.10815    2879.18457 
   1590.29400     107.07487     114.23529    -999.25000      78.74514    -999.25000       2.45000       0.50531    2668.17725    2823.22119 
   1590.44640     108.91405     115.88465    -999.25000      82.49138    -999.25000       2.45000       0.49959    2630.20166    2780.73926 
   1590.59880     110.00542     116.56756    -999.25000      84.56520    -999.25000       2.45000       0.48897    2614.79248    2763.52197 
   1590.75120     109.69098     115.52303    -999.25000      84.23907    -999.25000       2.45000       0.47530    2638.43481    2789.94360 
   1590.90360     108.09553     113.52428    -999.25000      82.20152    -999.25000       2.45000       0.44967    2684.88794    2841.93774 
   1591.05600     106.23476     111.76453    -999.25000      78.54508    -999.25000       2.45000       0.42788    2727.16235    2889.34570 
   1591.20840     104.68255     110.36424    -999.25000      73.73643    -999.25000       2.45000       0.41127    2761.76392    2928.21484 
   1591.36080     103.52644     109.38686    -999.25000      65.85828    -999.25000       2.45000       0.39275    2786.44043    2955.97046 
   1591.51320     102.92301     109.05720    -999.25000      57.22138    -999.25000       2.45000       0.38467    2794.86353    2965.45117 
   1591.66560     102.77077     109.03483    -999.25000      53.87196    -999.25000       2.45000       0.38507    2795.43726    2966.09668 
   1591.81800     102.84448     109.17888    -999.25000      55.04668    -999.25000       2.45000       0.38866    2791.74854    2961.94458 
   1591.97040     102.90957     109.18616    -999.25000      58.46429    -999.25000       2.45000       0.41121    2791.56250    2961.73535 
   1592.12280     102.52197     108.50951    -999.25000      60.55397    -999.25000       2.45000       0.43659    2808.97046    2981.33740 
   1592.27520     101.79108     107.73891    -999.25000      59.53296    -999.25000       2.45000       0.46017    2829.06152    3003.97998 
   1592.42760     101.53841     107.86539    -999.25000      58.20834    -999.25000       2.45000       0.48038    2825.74414    3000.23975 
   1592.58000     102.18134     108.88637    -999.25000      60.16246    -999.25000       2.45000       0.49876    2799.24829    2970.38818 
   1592.73240     103.64853     110.68019    -999.25000      62.56942    -999.25000       2.45000       0.51428    2753.88013    2919.35352 
   1592.88480     105.85439     113.18769    -999.25000      68.21706    -999.25000       2.45000       0.53698    2692.87231    2850.88477 
   1593.03720     108.09469     115.23238    -999.25000      74.77278    -999.25000       2.45000       0.55397    2645.08984    2797.38599 
   1593.18960     109.41140     116.01618    -999.25000      79.58919    -999.25000       2.45000       0.55974    2627.21973    2777.40625 
   1593.34200     109.34126     115.32092    -999.25000      82.14407    -999.25000       2.45000       0.55955    2643.05933    2795.11475 
   1593.49440     108.37263     114.15218    -999.25000      79.64241    -999.25000       2.45000       0.55388    2670.11963    2825.39624 
   1593.64680     107.65203     113.75964    -999.25000      76.71361    -999.25000       2.45000       0.53285    2679.33350    2835.71484 
   1593.79920     107.37076     113.55982    -999.25000      75.77290    -999.25000       2.45000       0.51087    2684.04785    2840.99609 
   1593.95160     106.82916     112.76804    -999.25000      74.41186    -999.25000       2.45000       0.49509    2702.89355    2862.11914 
   1594.10400     105.96332     111.84797    -999.25000      70.08254    -999.25000       2.45000       0.47490    2725.12769    2887.06201 
   1594.25640     105.32079     111.40860    -999.25000      64.73543    -999.25000       2.45000       0.46007    2735.87500    2899.12720 
   1594.40880     104.90955     111.01797    -999.25000      59.97701    -999.25000       2.45000       0.44797    2745.50146    2909.93896 
   1594.56120     104.40611     110.43194    -999.25000      56.37858    -999.25000       2.45000       0.43603    2760.07104    2926.31152 
   1594.71360     103.99760     110.15340    -999.25000      54.12724    -999.25000       2.45000       0.42774    2767.05029    2934.15820 
   1594.86600     104.12555     110.57890    -999.25000      53.42316    -999.25000       2.45000       0.43510    2756.40308    2922.18872 
   1595.01840     104.66089     111.19464    -999.25000      54.36849    -999.25000       2.45000       0.44569    2741.13940    2905.03931 
   1595.17080     105.13129     111.55865    -999.25000      58.83693    -999.25000       2.45000       0.45870    2732.19507    2894.99536 
   1595.32320     105.44604     111.83734    -999.25000      66.97900    -999.25000       2.45000       0.47112    2725.38672    2887.35254 
   1595.47560     105.83790     112.31204    -999.25000      72.16459    -999.25000       2.45000       0.48704    2713.86743    2874.42676 
   1595.62800     106.45255     113.02914    -999.25000      74.58453    -999.25000       2.45000       0.52077    2696.64990    2855.11914 
   1595.78040     107.50741     114.33125    -999.25000      75.49389    -999.25000       2.45000       0.53963    2665.93774    2820.71411 
   1595.93280     109.31261     116.50475    -999.25000      77.30914    -999.25000       2.45000       0.54338    2616.20264    2765.09644 
   1596.08520     111.35724     118.45503    -999.25000      82.77032    -999.25000       2.45000       0.55125    2573.12842    2717.02490 
   1596.23760     112.54762     119.08913    -999.25000      87.93040    -999.25000       2.45000       0.55673    2559.42725    2701.75342 
   1596.39000     112.33479     118.25631    -999.25000      89.90866    -999.25000       2.45000       0.55489    2577.45215    2721.84668 
   1596.54240     110.74190     116.10703    -999.25000      86.63881    -999.25000       2.45000       0.54709    2625.16406    2775.10913 
   1596.69480     108.26247     113.38593    -999.25000      80.59741    -999.25000       2.45000       0.53558    2688.16431    2845.60840 
   1596.84720     105.99440     111.44949    -999.25000      74.35270    -999.25000       2.45000       0.52286    2734.87134    2898.00024 
   1596.99960     104.88254     110.94125    -999.25000      69.67412    -999.25000       2.45000       0.50554    2747.40015    2912.07227 
   1597.15200     104.71523     111.02352    -999.25000      64.04749    -999.25000       2.45000       0.49379    2745.36426    2909.78516 
   1597.30440     104.70277     110.94171    -999.25000      57.83903    -999.25000       2.45000       0.48335    2747.38867    2912.05908 
   1597.45680     104.69260     110.98397    -999.25000      54.65869    -999.25000       2.45000       0.47403    2746.34277    2910.88403 
   1597.60920     104.91756     111.34267    -999.25000      57.05390    -999.25000       2.45000       0.47617    2737.49487    2900.94653 
   1597.76160     105.21841     111.60119    -999.25000      63.67093    -999.25000       2.45000       0.48581    2731.15381    2893.82617 
   1597.91400     105.68291     112.21646    -999.25000      72.69083    -999.25000       2.45000       0.50450    2716.17896    2877.02026 
   1598.06640     106.56387     113.29193    -999.25000      79.00723    -999.25000       2.45000       0.51929    2690.39453    2848.10767 
   1598.21880     107.36785     113.89716    -999.25000      81.14317    -999.25000       2.45000       0.53274    2676.09814    2832.09106 
