~Version Information
VERS  .          2.0                              :CWLS Log Ascii Standard - Version 2.0
WRAP  .          NO                               :One line per depth step
~Well Information Block
#MNEM.UNIT       Data Type                        Information
#---------       ---------                        -------------------------------
STRT  .M         0.00000                          :START DEPTH
STOP  .M         2946.19700                       :STOP DEPTH
STEP  .M          0.15240                         :INCREMENT
NULL  .          -999.25                          :NULL DATA VALUE
COMP  .          Chevron Australia Pty Ltd        :COMPANY
WELL  .          WST-3A-ST1                       :WELL
FLD   .          Wheatstone                       :FIELD
LOC   .          -                                :LOCATION
PROV  .          Western Australia                :PROVINCE
STAT  .          Western Australia                :STATE
CNTY  .          -                                :COUNTY
CTRY  .          Australia                        :COUNTRY
DATE  .          5-8th Oct 2014                   :DATE
UWI   .          WST-3A-ST1                       :UNIQUE WELL UWI
LIC   .          -                                :LICENSE NUMBER
API   .          -                                :API NUMBER
SRVC  .          Schlumbegre                      :SERVICE COMPANY
~Parameter Information Block
#MNEM.UNIT       Value                            Description
#---------       ---------                        -------------
LONG  .DEG       121.295670                       :Well Surface Location
LATI  .DEG       -19.810825                       :Well Surface Location
XWELL .M         321485.7400000                   :X-coordinate of Well Head
YWELL .M         7808552.550000                   :Y-coordinate of Well Head
PDAT  .          MSL                              :Permanent Datum               
EPD   .m         0.00                             :Elevation of Permanent Datum (PDAT) above Mean Sea Level
LMF   .          DF                               :Logging Measured From (Name of Working Datum)
APD   .m         28.70                            :Elevation of Working Datum (LMF) Above Permanent Datum
EKB   .m         0.00                             :Elevation of Kelly Bushing Above Mean Sea Level
EGL   .m         -230.10                          :Elevation of Ground Level Above Mean Sea Level
EDF   .m         28.70                            :Elevation of Derrick Floor Above Mean Sea Level
~Curve Information Block
#MNEM.UNIT       API Code            Curve    Description
#--------        --------------      -----    -------------------
DEPT  .M                             :0       Index - True Vertical Depth from SRD (MSL)
DTCO  .US/F                          :1       Delta-T Compressional - Raw (used for generation of synthetics only)        
DTCO  .US/F                          :2       Delta-T Compressional - Calibrated (used for depth conversion only)        
DTSM  .US/F                          :3       Delta-T Shear                 
GR    .GAPI                          :4       Gamma Ray                     
NPHI  .V/V                           :5       Thermal Neutron Porosity (original Ratio Method) in Selected Lithology
RHOB  .G/C3                          :6       Bulk Density                  
RT    .OHMM                          :7       True Resistivity              
SVEL  .M/S                           :8       Sonic Velocity - From Calibrated DTCO               
SVEL  .M/S                           :9       Sonic Velocity - From Raw DTCO               
~Ascii Data Section
# ...
   1737.36000     107.69898     114.10899    -999.25000      66.68974    -999.25000       2.45000       0.55907    2671.13037    2826.52808 
   1737.51240     108.06005     114.49796    -999.25000      67.76963    -999.25000       2.45000       0.55044    2662.05615    2816.36938 
   1737.66480     108.32801     114.67734    -999.25000      69.13197    -999.25000       2.45000       0.54132    2657.89233    2811.70874 
   1737.81720     108.50461     114.85190    -999.25000      69.86041    -999.25000       2.45000       0.53663    2653.85254    2807.18872 
   1737.96960     108.71568     115.08971    -999.25000      68.46231    -999.25000       2.45000       0.52944    2648.36890    2801.05371 
   1738.12200     108.76770     115.00571    -999.25000      67.52787    -999.25000       2.45000       0.52133    2650.30298    2803.21729 
   1738.27440     108.39348     114.41903    -999.25000      71.28269    -999.25000       2.45000       0.52290    2663.89258    2818.42480 
   1738.42680     107.32745     113.00208    -999.25000      77.23853    -999.25000       2.45000       0.52607    2697.29541    2855.84253 
   1738.57920     105.48570     110.84936    -999.25000      80.40421    -999.25000       2.45000       0.51606    2749.67749    2914.63086 
   1738.73160     103.59238     109.14593    -999.25000      77.57195    -999.25000       2.45000       0.46940    2792.59155    2962.89355 
   1738.88400     102.52994     108.55273    -999.25000      68.50057    -999.25000       2.45000       0.42120    2807.85181    2980.07764 
   1739.03640     102.38832     108.74171    -999.25000      59.49971    -999.25000       2.45000       0.40229    2802.97241    2974.58154 
   1739.18880     102.76387     109.25384    -999.25000      53.97417    -999.25000       2.45000       0.40565    2789.83325    2959.78857 
   1739.34120     103.24344     109.70957    -999.25000      51.34552    -999.25000       2.45000       0.43006    2778.24414    2946.74805 
   1739.49360     103.85657     110.43793    -999.25000      52.10540    -999.25000       2.45000       0.46308    2759.92139    2926.14331 
   1739.64600     104.81745     111.56904    -999.25000      54.58738    -999.25000       2.45000       0.50319    2731.94092    2894.70996 
   1739.79840     105.27486     111.53323    -999.25000      55.40997    -999.25000       2.45000       0.53010    2732.81787    2895.69458 
   1739.95080     104.53793     110.28305    -999.25000      56.69278    -999.25000       2.45000       0.54326    2763.79712    2930.50049 
   1740.10320     103.98299     110.23707    -999.25000      60.04703    -999.25000       2.45000       0.54538    2764.94995    2931.79688 
   1740.25560     104.77756     111.64697    -999.25000      63.31698    -999.25000       2.45000       0.53630    2730.03369    2892.56885 
   1740.40800     106.06306     112.84142    -999.25000      64.38367    -999.25000       2.45000       0.52083    2701.13574    2860.14819 
   1740.56040     106.48662     112.70062    -999.25000      60.50640    -999.25000       2.45000       0.51001    2704.51025    2863.93213 
   1740.71280     105.87276     111.74045    -999.25000      54.76826    -999.25000       2.45000       0.50194    2727.74976    2890.00537 
   1740.86520     104.96268     110.86705    -999.25000      49.34229    -999.25000       2.45000       0.48909    2749.23877    2914.13794 
   1741.01760     104.36352     110.46864    -999.25000      46.63598    -999.25000       2.45000       0.47448    2759.15405    2925.28076 
   1741.17000     104.03535     110.19190    -999.25000      48.92865    -999.25000       2.45000       0.44583    2766.08350    2933.07080 
   1741.32240     103.72433     109.85577    -999.25000      53.05527    -999.25000       2.45000       0.42876    2774.54712    2942.58887 
   1741.47480     103.41496     109.56600    -999.25000      55.58128    -999.25000       2.45000       0.42570    2781.88501    2950.84375 
   1741.62720     103.02295     109.09914    -999.25000      58.13329    -999.25000       2.45000       0.42359    2793.78931    2964.24170 
   1741.77960     102.70947     108.89794    -999.25000      60.35256    -999.25000       2.45000       0.41344    2798.95093    2970.05298 
   1741.93200     103.06413     109.65954    -999.25000      59.73446    -999.25000       2.45000       0.40495    2779.51196    2948.17407 
   1742.08440     103.89697     110.54453    -999.25000      57.01930    -999.25000       2.45000       0.40507    2757.26001    2923.15186 
   1742.23680     104.24792     110.50454    -999.25000      57.67780    -999.25000       2.45000       0.40745    2758.25781    2924.27319 
   1742.38920     104.15966     110.38093    -999.25000      60.80103    -999.25000       2.45000       0.41381    2761.34668    2927.74536 
   1742.54160     104.48524     111.03535    -999.25000      63.84378    -999.25000       2.45000       0.42770    2745.07178    2909.45630 
   1742.69400     105.32615     112.01278    -999.25000      63.60165    -999.25000       2.45000       0.44573    2721.11816    2882.56201 
   1742.84640     106.01643     112.49285    -999.25000      61.14611    -999.25000       2.45000       0.45879    2709.50562    2869.53394 
   1742.99880     106.13541     112.34749    -999.25000      59.82512    -999.25000       2.45000       0.46941    2713.01099    2873.46631 
   1743.15120     105.95753     112.14581    -999.25000      57.80901    -999.25000       2.45000       0.48043    2717.89038    2878.94019 
   1743.30360     105.63752     111.73916    -999.25000      53.03538    -999.25000       2.45000       0.49198    2727.78149    2890.04077 
   1743.45600     105.08673     111.08285    -999.25000      48.19719    -999.25000       2.45000       0.49891    2743.89795    2908.13794 
   1743.60840     104.50183     110.55023    -999.25000      46.46935    -999.25000       2.45000       0.49782    2757.11792    2922.99170 
   1743.76080     104.12071     110.28002    -999.25000      47.57547    -999.25000       2.45000       0.50530    2763.87305    2930.58594 
   1743.91320     103.96383     110.20610    -999.25000      50.37587    -999.25000       2.45000       0.52504    2765.72729    2932.67017 
   1744.06560     103.86172     110.08334    -999.25000      53.02755    -999.25000       2.45000       0.55041    2768.81128    2936.13818 
   1744.21800     103.59068     109.70377    -999.25000      53.18189    -999.25000       2.45000       0.56325    2778.39136    2946.91357 
   1744.37040     103.08141     109.09956    -999.25000      51.14946    -999.25000       2.45000       0.56621    2793.77856    2964.22974 
   1744.52280     102.58588     108.68357    -999.25000      52.25673    -999.25000       2.45000       0.57091    2804.47168    2976.27026 
   1744.67520     102.58492     108.98645    -999.25000      55.64953    -999.25000       2.45000       0.56907    2796.67773    2967.49390 
   1744.82760     103.33018     110.05555    -999.25000      59.17896    -999.25000       2.45000       0.56688    2769.51050    2936.92456 
   1744.98000     104.64034     111.54218    -999.25000      61.48278    -999.25000       2.45000       0.56308    2732.59839    2895.44849 
   1745.13240     106.19770     113.15133    -999.25000      61.14476    -999.25000       2.45000       0.55807    2693.73755    2851.85474 
   1745.28480     107.57690     114.36218    -999.25000      60.16805    -999.25000       2.45000       0.54153    2665.21680    2819.90698 
   1745.43720     108.30240     114.73238    -999.25000      59.29087    -999.25000       2.45000       0.53134    2656.61719    2810.28223 
   1745.58960     108.38004     114.59585    -999.25000      58.19591    -999.25000       2.45000       0.52828    2659.78223    2813.82397 
   1745.74200     108.13531     114.27192    -999.25000      57.00797    -999.25000       2.45000       0.52624    2667.32202    2822.26367 
   1745.89440     107.56256     113.51701    -999.25000      58.65691    -999.25000       2.45000       0.52562    2685.06030    2842.13062 
