~Version Information
VERS  .          2.0                              :CWLS Log Ascii Standard - Version 2.0
WRAP  .          NO                               :One line per depth step
~Well Information Block
#MNEM.UNIT       Data Type                        Information
#---------       ---------                        -------------------------------
STRT  .M         0.00000                          :START DEPTH
STOP  .M         2946.19700                       :STOP DEPTH
STEP  .M          0.15240                         :INCREMENT
NULL  .          -999.25                          :NULL DATA VALUE
COMP  .          Chevron Australia Pty Ltd        :COMPANY
WELL  .          WST-3A-ST1                       :WELL
FLD   .          Wheatstone                       :FIELD
LOC   .          -                                :LOCATION
PROV  .          Western Australia                :PROVINCE
STAT  .          Western Australia                :STATE
CNTY  .          -                                :COUNTY
CTRY  .          Australia                        :COUNTRY
DATE  .          5-8th Oct 2014                   :DATE
UWI   .          WST-3A-ST1                       :UNIQUE WELL UWI
LIC   .          -                                :LICENSE NUMBER
API   .          -                                :API NUMBER
SRVC  .          Schlumbegre                      :SERVICE COMPANY
~Parameter Information Block
#MNEM.UNIT       Value                            Description
#---------       ---------                        -------------
LONG  .DEG       121.295670                       :Well Surface Location
LATI  .DEG       -19.810825                       :Well Surface Location
XWELL .M         321485.7400000                   :X-coordinate of Well Head
YWELL .M         7808552.550000                   :Y-coordinate of Well Head
PDAT  .          MSL                              :Permanent Datum               
EPD   .m         0.00                             :Elevation of Permanent Datum (PDAT) above Mean Sea Level
LMF   .          DF                               :Logging Measured From (Name of Working Datum)
APD   .m         28.70                            :Elevation of Working Datum (LMF) Above Permanent Datum
EKB   .m         0.00                             :Elevation of Kelly Bushing Above Mean Sea Level
EGL   .m         -230.10                          :Elevation of Ground Level Above Mean Sea Level
EDF   .m         28.70                            :Elevation of Derrick Floor Above Mean Sea Level
~Curve Information Block
#MNEM.UNIT       API Code            Curve    Description
#--------        --------------      -----    -------------------
DEPT  .M                             :0       Index - True Vertical Depth from SRD (MSL)
DTCO  .US/F                          :1       Delta-T Compressional - Raw (used for generation of synthetics only)        
DTCO  .US/F                          :2       Delta-T Compressional - Calibrated (used for depth conversion only)        
DTSM  .US/F                          :3       Delta-T Shear                 
GR    .GAPI                          :4       Gamma Ray                     
NPHI  .V/V                           :5       Thermal Neutron Porosity (original Ratio Method) in Selected Lithology
RHOB  .G/C3                          :6       Bulk Density                  
RT    .OHMM                          :7       True Resistivity              
SVEL  .M/S                           :8       Sonic Velocity - From Calibrated DTCO               
SVEL  .M/S                           :9       Sonic Velocity - From Raw DTCO               
~Ascii Data Section
# ...
    998.98200     128.76736     130.92296    -999.25000      58.49231    -999.25000       2.45000       0.40859    2328.08667    2366.24951 
    999.13440     128.83128     130.95734    -999.25000      58.55517    -999.25000       2.45000       0.40919    2327.47559    2365.61816 
    999.28680     128.82082     130.91405    -999.25000      58.92290    -999.25000       2.45000       0.40972    2328.24512    2366.41333 
    999.43920     128.77005     130.85782    -999.25000      60.69766    -999.25000       2.45000       0.41350    2329.24561    2367.44678 
    999.59160     128.69942     130.77663    -999.25000      62.14089    -999.25000       2.45000       0.41820    2330.69165    2368.94067 
    999.74400     128.50294     130.49579    -999.25000      62.26499    -999.25000       2.45000       0.42085    2335.70752    2374.12280 
    999.89640     128.11458     130.02873    -999.25000      61.03654    -999.25000       2.45000       0.42453    2344.09741    2382.79126 
   1000.04880     127.72501     129.69588    -999.25000      58.44456    -999.25000       2.45000       0.42289    2350.11328    2389.00757 
   1000.20120     127.59087     129.70715    -999.25000      55.57891    -999.25000       2.45000       0.42214    2349.90894    2388.79639 
   1000.35360     127.65819     129.81549    -999.25000      53.98424    -999.25000       2.45000       0.42249    2347.94775    2386.77002 
   1000.50600     127.61095     129.65440    -999.25000      54.10328    -999.25000       2.45000       0.42433    2350.86499    2389.78442 
   1000.65840     127.32792     129.28210    -999.25000      55.87484    -999.25000       2.45000       0.42399    2357.63477    2396.78076 
   1000.81080     126.95638     128.91113    -999.25000      57.59120    -999.25000       2.45000       0.42287    2364.41943    2403.79297 
   1000.96320     126.64217     128.63846    -999.25000      57.11765    -999.25000       2.45000       0.42235    2369.43140    2408.97314 
   1001.11560     126.52942     128.64276    -999.25000      54.25515    -999.25000       2.45000       0.42215    2369.35205    2408.89136 
   1001.26800     126.88414     129.25395    -999.25000      49.99037    -999.25000       2.45000       0.42191    2358.14844    2397.31128 
   1001.42040     127.77998     130.35812    -999.25000      47.16047    -999.25000       2.45000       0.42108    2338.17432    2376.67139 
   1001.57280     128.70416     131.15057    -999.25000      46.98622    -999.25000       2.45000       0.42437    2324.04639    2362.07568 
   1001.72520     129.19781     131.42555    -999.25000      48.63203    -999.25000       2.45000       0.43121    2319.18384    2357.05298 
   1001.87760     129.37001     131.52251    -999.25000      51.38072    -999.25000       2.45000       0.43606    2317.47412    2355.28687 
   1002.03000     129.38623     131.47964    -999.25000      54.58195    -999.25000       2.45000       0.43871    2318.22974    2356.06738 
   1002.18240     129.24213     131.26143    -999.25000      56.19393    -999.25000       2.45000       0.44068    2322.08350    2360.04834 
   1002.33480     128.96780     130.94604    -999.25000      55.32994    -999.25000       2.45000       0.44412    2327.67627    2365.82568 
   1002.48720     128.63142     130.59431    -999.25000      54.41213    -999.25000       2.45000       0.44872    2333.94531    2372.30225 
   1002.63960     128.20958     130.12114    -999.25000      54.81435    -999.25000       2.45000       0.46098    2342.43262    2381.07104 
   1002.79200     127.73927     129.65292    -999.25000      56.08194    -999.25000       2.45000       0.46836    2350.89185    2389.81226 
   1002.94440     127.46024     129.51236    -999.25000      58.13759    -999.25000       2.45000       0.46423    2353.44336    2392.44897 
   1003.09680     127.54121     129.75548    -999.25000      60.69863    -999.25000       2.45000       0.45138    2349.03369    2387.89209 
   1003.24920     127.74892     129.93726    -999.25000      63.69483    -999.25000       2.45000       0.45052    2345.74756    2384.49634 
   1003.40160     127.53291     129.43010    -999.25000      67.05808    -999.25000       2.45000       0.47551    2354.93921    2393.99463 
   1003.55400     126.63638     128.24861    -999.25000      69.82352    -999.25000       2.45000       0.49814    2376.63403    2416.41846 
   1003.70640     125.56889     127.26456    -999.25000      71.21800    -999.25000       2.45000       0.50143    2395.01099    2435.41846 
   1003.85880     124.98328     126.97057    -999.25000      71.09482    -999.25000       2.45000       0.48583    2400.55640    2441.15283 
   1004.01120     124.88032     127.00742    -999.25000      70.75576    -999.25000       2.45000       0.48225    2399.85986    2440.43237 
   1004.16360     124.74191     126.74074    -999.25000      70.82645    -999.25000       2.45000       0.49377    2404.90942    2445.65454 
   1004.31600     123.80457     125.31254    -999.25000      68.71142    -999.25000       2.45000       0.50866    2432.31836    2474.00562 
   1004.46840     121.67118     122.66303    -999.25000      64.05354    -999.25000       2.45000       0.51037    2484.85620    2528.37988 
   1004.62080     119.22388     120.36374    -999.25000      60.17943    -999.25000       2.45000       0.50353    2532.32422    2577.54150 
   1004.77320     118.19764     120.26923    -999.25000      58.65088    -999.25000       2.45000       0.50018    2534.31396    2579.60327 
   1004.92560     119.45145     122.50986    -999.25000      58.16581    -999.25000       2.45000       0.49574    2487.96289    2531.59644 
   1005.07800     121.86440     125.04892    -999.25000      57.58597    -999.25000       2.45000       0.49889    2437.44604    2479.31079 
   1005.23040     123.66250     126.30473    -999.25000      58.14680    -999.25000       2.45000       0.50301    2413.21143    2454.24072 
   1005.38280     124.24478     126.39407    -999.25000      58.51223    -999.25000       2.45000       0.50805    2411.50562    2452.47656 
   1005.53520     123.80634     125.56934    -999.25000      56.27171    -999.25000       2.45000       0.51690    2427.34399    2468.85938 
   1005.68760     122.57881     124.04700    -999.25000      54.11227    -999.25000       2.45000       0.51836    2457.13330    2499.68286 
   1005.84000     121.38787     123.09861    -999.25000      55.02873    -999.25000       2.45000       0.51308    2476.06372    2519.27710 
   1005.99240     121.39796     123.81020    -999.25000      57.83043    -999.25000       2.45000       0.51187    2461.83276    2504.54663 
   1006.14480     122.48552     125.17294    -999.25000      60.40793    -999.25000       2.45000       0.52152    2435.03101    2476.81226 
   1006.29720     123.25964     125.51626    -999.25000      61.36906    -999.25000       2.45000       0.52984    2428.37061    2469.92139 
   1006.44960     122.89675     124.63649    -999.25000      60.08716    -999.25000       2.45000       0.53752    2445.51172    2487.65625 
   1006.60200     121.69889     123.20582    -999.25000      57.87780    -999.25000       2.45000       0.54492    2473.90918    2517.04663 
   1006.75440     120.56088     122.28201    -999.25000      56.10656    -999.25000       2.45000       0.55026    2492.59863    2536.39648 
   1006.90680     120.16571     122.27374    -999.25000      54.81702    -999.25000       2.45000       0.54626    2492.76733    2536.57129 
   1007.05920     120.53818     122.92487    -999.25000      54.07862    -999.25000       2.45000       0.52861    2479.56348    2522.90015 
   1007.21160     121.32648     123.81356    -999.25000      54.55480    -999.25000       2.45000       0.51043    2461.76587    2504.47729 
   1007.36400     122.14372     124.57851    -999.25000      55.44635    -999.25000       2.45000       0.49872    2446.64990    2488.83398 
   1007.51640     122.62505     124.85227    -999.25000      55.35302    -999.25000       2.45000       0.49341    2441.28516    2483.28296 
