~Version Information
VERS  .          2.0                              :CWLS Log Ascii Standard - Version 2.0
WRAP  .          NO                               :One line per depth step
~Well Information Block
#MNEM.UNIT       Data Type                        Information
#---------       ---------                        -------------------------------
STRT  .M         0.00000                          :START DEPTH
STOP  .M         2946.19700                       :STOP DEPTH
STEP  .M          0.15240                         :INCREMENT
NULL  .          -999.25                          :NULL DATA VALUE
COMP  .          Chevron Australia Pty Ltd        :COMPANY
WELL  .          WST-3A-ST1                       :WELL
FLD   .          Wheatstone                       :FIELD
LOC   .          -                                :LOCATION
PROV  .          Western Australia                :PROVINCE
STAT  .          Western Australia                :STATE
CNTY  .          -                                :COUNTY
CTRY  .          Australia                        :COUNTRY
DATE  .          5-8th Oct 2014                   :DATE
UWI   .          WST-3A-ST1                       :UNIQUE WELL UWI
LIC   .          -                                :LICENSE NUMBER
API   .          -                                :API NUMBER
SRVC  .          Schlumbegre                      :SERVICE COMPANY
~Parameter Information Block
#MNEM.UNIT       Value                            Description
#---------       ---------                        -------------
LONG  .DEG       121.295670                       :Well Surface Location
LATI  .DEG       -19.810825                       :Well Surface Location
XWELL .M         321485.7400000                   :X-coordinate of Well Head
YWELL .M         7808552.550000                   :Y-coordinate of Well Head
PDAT  .          MSL                              :Permanent Datum               
EPD   .m         0.00                             :Elevation of Permanent Datum (PDAT) above Mean Sea Level
LMF   .          DF                               :Logging Measured From (Name of Working Datum)
APD   .m         28.70                            :Elevation of Working Datum (LMF) Above Permanent Datum
EKB   .m         0.00                             :Elevation of Kelly Bushing Above Mean Sea Level
EGL   .m         -230.10                          :Elevation of Ground Level Above Mean Sea Level
EDF   .m         28.70                            :Elevation of Derrick Floor Above Mean Sea Level
~Curve Information Block
#MNEM.UNIT       API Code            Curve    Description
#--------        --------------      -----    -------------------
DEPT  .M                             :0       Index - True Vertical Depth from SRD (MSL)
DTCO  .US/F                          :1       Delta-T Compressional - Raw (used for generation of synthetics only)        
DTCO  .US/F                          :2       Delta-T Compressional - Calibrated (used for depth conversion only)        
DTSM  .US/F                          :3       Delta-T Shear                 
GR    .GAPI                          :4       Gamma Ray                     
NPHI  .V/V                           :5       Thermal Neutron Porosity (original Ratio Method) in Selected Lithology
RHOB  .G/C3                          :6       Bulk Density                  
RT    .OHMM                          :7       True Resistivity              
SVEL  .M/S                           :8       Sonic Velocity - From Calibrated DTCO               
SVEL  .M/S                           :9       Sonic Velocity - From Raw DTCO               
~Ascii Data Section
# ...
    703.63080    -999.25000     145.17552    -999.25000    -999.25000    -999.25000    -999.25000    -999.25000    2099.52734    -999.25000 
    703.78320    -999.25000     145.17552    -999.25000    -999.25000    -999.25000    -999.25000    -999.25000    2099.52734    -999.25000 
    703.93560    -999.25000     142.94971    -999.25000    -999.25000    -999.25000    -999.25000    -999.25000    2132.21851    2174.23389 
    704.08800     140.13988     142.86755    -999.25000    -999.25000    -999.25000       2.45000    -999.25000    2133.44458    2175.50854 
    704.24040     140.00844     142.70004    -999.25000    -999.25000    -999.25000       2.45000    -999.25000    2135.94897    2178.11279 
    704.39280     139.75505     142.38380    -999.25000    -999.25000    -999.25000       2.45000    -999.25000    2140.69287    2183.04614 
    704.54520     139.45172     142.08992    -999.25000    -999.25000    -999.25000       2.45000    -999.25000    2145.12061    2187.65088 
    704.69760     139.24693     141.95035    -999.25000    -999.25000    -999.25000       2.45000    -999.25000    2147.22974    2189.84473 
    704.85000     139.17877     141.93443    -999.25000    -999.25000    -999.25000       2.45000    -999.25000    2147.47046    2190.09497 
    705.00240     139.23947     142.05121    -999.25000    -999.25000    -999.25000       2.45000    -999.25000    2145.70508    2188.25903 
    705.15480     139.47089     142.36652    -999.25000    -999.25000    -999.25000       2.45000    -999.25000    2140.95288    2183.31665 
    705.30720     139.84457     142.78293    -999.25000    -999.25000    -999.25000       2.45000    -999.25000    2134.70898    2176.82349 
    705.45960     140.31911     143.30000    -999.25000    -999.25000    -999.25000       2.45000    -999.25000    2127.00610    2168.81445 
    705.61200     141.12773     144.32198    -999.25000    -999.25000    -999.25000       2.45000    -999.25000    2111.94458    2153.15698 
    705.76440     142.35013     145.69106    -999.25000    -999.25000    -999.25000       2.45000    -999.25000    2092.09814    2132.53223 
    705.91680     143.41255     146.52907    -999.25000    -999.25000    -999.25000       2.45000    -999.25000    2080.13330    2120.10181 
    706.06920     143.76004     146.51756    -999.25000    -999.25000    -999.25000       2.45000    -999.25000    2080.29663    2120.27148 
    706.22160     143.36789     145.84685    -999.25000    -999.25000    -999.25000       2.45000    -999.25000    2089.86353    2130.21045 
    706.37400     142.59552     145.00011    -999.25000    -999.25000    -999.25000       2.45000    -999.25000    2102.06738    2142.89160 
    706.52640     141.95412     144.50896    -999.25000    -999.25000    -999.25000       2.45000    -999.25000    2109.21191    2150.31665 
    706.67880     141.67039     144.37704    -999.25000    -999.25000    -999.25000       2.45000    -999.25000    2111.13892    2152.31958 
    706.83120     141.48877     144.15903    -999.25000    -999.25000    -999.25000       2.45000    -999.25000    2114.33179    2155.63843 
    706.98360     140.88530     143.27348    -999.25000    -999.25000    -999.25000       2.45000    -999.25000    2127.39990    2169.22388 
    707.13600     139.91113     142.23445    -999.25000    -999.25000    -999.25000       2.45000    -999.25000    2142.94067    2185.38379 
    707.28840     139.38004     142.07507    -999.25000    -999.25000    -999.25000       2.45000    -999.25000    2145.34473    2187.88403 
    707.44080     139.45395     142.31973    -999.25000    -999.25000    -999.25000       2.45000    -999.25000    2141.65674    2184.04834 
    707.59320     139.60124     142.39575    -999.25000    -999.25000    -999.25000       2.45000    -999.25000    2140.51343    2182.85938 
    707.74560     139.57823     142.30028    -999.25000    -999.25000    -999.25000       2.45000    -999.25000    2141.94946    2184.35303 
    707.89800     139.44868     142.14578    -999.25000    -999.25000    -999.25000       2.45000    -999.25000    2144.27759    2186.77417 
    708.05040     139.37538     142.13191    -999.25000    -999.25000    -999.25000       2.45000    -999.25000    2144.48682    2186.99170 
    708.20280     139.56125     142.46394    -999.25000    -999.25000    -999.25000       2.45000    -999.25000    2139.48877    2181.79395 
    708.35520     140.14439     143.23085    -999.25000    -999.25000    -999.25000       2.45000    -999.25000    2128.03320    2169.88208 
    708.50760     140.89250     143.96523    -999.25000    -999.25000    -999.25000       2.45000    -999.25000    2117.17798    2158.59692 
    708.66000     141.25314     144.05235    -999.25000    -999.25000    -999.25000       2.45000    -999.25000    2115.89746    2157.26587 
    708.81240     141.11354     143.74683    -999.25000    -999.25000    -999.25000       2.45000    -999.25000    2120.39453    2161.94067 
    708.96480     140.83521     143.48839    -999.25000    -999.25000    -999.25000       2.45000    -999.25000    2124.21362    2165.91113 
    709.11720     140.71399     143.46759    -999.25000    -999.25000    -999.25000       2.45000    -999.25000    2124.52173    2166.23120 
    709.26960     140.90897     143.82047    -999.25000    -999.25000    -999.25000       2.45000    -999.25000    2119.30884    2160.81226 
    709.42200     141.19135     144.05125    -999.25000    -999.25000    -999.25000       2.45000    -999.25000    2115.91357    2157.28247 
    709.57440     141.01012     143.56851    -999.25000    -999.25000    -999.25000       2.45000    -999.25000    2123.02808    2164.67847 
    709.72680     140.37817     142.82739    -999.25000    -999.25000    -999.25000       2.45000    -999.25000    2134.04443    2176.13232 
    709.87920     139.86583     142.48247    -999.25000    -999.25000    -999.25000       2.45000    -999.25000    2139.21045    2181.50464 
    710.03160     139.67505     142.40448    -999.25000    -999.25000    -999.25000       2.45000    -999.25000    2140.38208    2182.72290 
    710.18400     139.66585     142.44563    -999.25000    -999.25000    -999.25000       2.45000    -999.25000    2139.76367    2182.07983 
    710.33640     139.78072     142.61444    -999.25000    -999.25000    -999.25000       2.45000    -999.25000    2137.23096    2179.44604 
    710.48880     139.76469     142.46315    -999.25000    -999.25000    -999.25000       2.45000    -999.25000    2139.50049    2181.80640 
    710.64120     139.47404     142.07053    -999.25000    -999.25000    -999.25000       2.45000    -999.25000    2145.41333    2187.95557 
    710.79360     139.28212     142.02547    -999.25000    -999.25000    -999.25000       2.45000    -999.25000    2146.09399    2188.66333 
    710.94600     139.40062     142.26366    -999.25000    -999.25000    -999.25000       2.45000    -999.25000    2142.50073    2184.92627 
    711.09840     139.63307     142.49193    -999.25000    -999.25000    -999.25000       2.45000    -999.25000    2139.06860    2181.35693 
    711.25080     139.87479     142.74348    -999.25000    -999.25000    -999.25000       2.45000    -999.25000    2135.29883    2177.43677 
    711.40320     140.12767     142.99733    -999.25000    -999.25000    -999.25000       2.45000    -999.25000    2131.50830    2173.49536 
    711.55560     140.11230     142.78494    -999.25000    -999.25000    -999.25000       2.45000    -999.25000    2134.67896    2176.79224 
    711.70800     139.68355     142.19786    -999.25000    -999.25000    -999.25000       2.45000    -999.25000    2143.49219    2185.95752 
    711.86040     139.33252     142.01956    -999.25000    -999.25000    -999.25000       2.45000    -999.25000    2146.18335    2188.75610 
    712.01280     139.27168     142.04469    -999.25000    -999.25000    -999.25000       2.45000    -999.25000    2145.80347    2188.36133 
    712.16520     139.17213     141.85390    -999.25000    -999.25000    -999.25000       2.45000    -999.25000    2148.68970    2191.36328 
