~Version Information
VERS  .          2.0                              :CWLS Log Ascii Standard - Version 2.0
WRAP  .          NO                               :One line per depth step
~Well Information Block
#MNEM.UNIT       Data Type                        Information
#---------       ---------                        -------------------------------
STRT  .M         0.00000                          :START DEPTH
STOP  .M         2946.19700                       :STOP DEPTH
STEP  .M          0.15240                         :INCREMENT
NULL  .          -999.25                          :NULL DATA VALUE
COMP  .          Chevron Australia Pty Ltd        :COMPANY
WELL  .          WST-3A-ST1                       :WELL
FLD   .          Wheatstone                       :FIELD
LOC   .          -                                :LOCATION
PROV  .          Western Australia                :PROVINCE
STAT  .          Western Australia                :STATE
CNTY  .          -                                :COUNTY
CTRY  .          Australia                        :COUNTRY
DATE  .          5-8th Oct 2014                   :DATE
UWI   .          WST-3A-ST1                       :UNIQUE WELL UWI
LIC   .          -                                :LICENSE NUMBER
API   .          -                                :API NUMBER
SRVC  .          Schlumbegre                      :SERVICE COMPANY
~Parameter Information Block
#MNEM.UNIT       Value                            Description
#---------       ---------                        -------------
LONG  .DEG       121.295670                       :Well Surface Location
LATI  .DEG       -19.810825                       :Well Surface Location
XWELL .M         321485.7400000                   :X-coordinate of Well Head
YWELL .M         7808552.550000                   :Y-coordinate of Well Head
PDAT  .          MSL                              :Permanent Datum               
EPD   .m         0.00                             :Elevation of Permanent Datum (PDAT) above Mean Sea Level
LMF   .          DF                               :Logging Measured From (Name of Working Datum)
APD   .m         28.70                            :Elevation of Working Datum (LMF) Above Permanent Datum
EKB   .m         0.00                             :Elevation of Kelly Bushing Above Mean Sea Level
EGL   .m         -230.10                          :Elevation of Ground Level Above Mean Sea Level
EDF   .m         28.70                            :Elevation of Derrick Floor Above Mean Sea Level
~Curve Information Block
#MNEM.UNIT       API Code            Curve    Description
#--------        --------------      -----    -------------------
DEPT  .M                             :0       Index - True Vertical Depth from SRD (MSL)
DTCO  .US/F                          :1       Delta-T Compressional - Raw (used for generation of synthetics only)        
DTCO  .US/F                          :2       Delta-T Compressional - Calibrated (used for depth conversion only)        
DTSM  .US/F                          :3       Delta-T Shear                 
GR    .GAPI                          :4       Gamma Ray                     
NPHI  .V/V                           :5       Thermal Neutron Porosity (original Ratio Method) in Selected Lithology
RHOB  .G/C3                          :6       Bulk Density                  
RT    .OHMM                          :7       True Resistivity              
SVEL  .M/S                           :8       Sonic Velocity - From Calibrated DTCO               
SVEL  .M/S                           :9       Sonic Velocity - From Raw DTCO               
~Ascii Data Section
# ...
   1146.65760     128.19704     130.58199    -999.25000      63.76815    -999.25000       2.45000       0.40585    2334.16577    2372.52979 
   1146.81000     128.44467     130.53732    -999.25000      61.86793    -999.25000       2.45000       0.40771    2334.96436    2373.35498 
   1146.96240     127.75731     129.37955    -999.25000      59.90987    -999.25000       2.45000       0.40497    2355.85913    2394.94580 
   1147.11480     126.52666     128.09555    -999.25000      58.74570    -999.25000       2.45000       0.40310    2379.47363    2419.35425 
   1147.26720     125.71577     127.63096    -999.25000      59.70824    -999.25000       2.45000       0.40594    2388.13550    2428.30933 
   1147.41960     125.55880     127.69914    -999.25000      62.54818    -999.25000       2.45000       0.40797    2386.86011    2426.99072 
   1147.57200     125.82365     128.10793    -999.25000      63.54310    -999.25000       2.45000       0.40855    2379.24390    2419.11670 
   1147.72440     126.21187     128.48109    -999.25000      63.23462    -999.25000       2.45000       0.40995    2372.33350    2411.97314 
   1147.87680     126.41142     128.55356    -999.25000      63.72752    -999.25000       2.45000       0.41087    2370.99609    2410.59082 
   1148.02920     126.60120     128.82922    -999.25000      63.87046    -999.25000       2.45000       0.41252    2365.92285    2405.34668 
   1148.18160     126.99107     129.30267    -999.25000      63.44586    -999.25000       2.45000       0.41430    2357.25977    2396.39307 
   1148.33400     127.39515     129.65598    -999.25000      63.07039    -999.25000       2.45000       0.41831    2350.83643    2389.75488 
   1148.48640     127.60706     129.76442    -999.25000      62.00514    -999.25000       2.45000       0.42001    2348.87183    2387.72485 
   1148.63880     127.57034     129.62143    -999.25000      60.04429    -999.25000       2.45000       0.42049    2351.46313    2390.40259 
   1148.79120     127.37861     129.39403    -999.25000      58.87192    -999.25000       2.45000       0.41796    2355.59570    2394.67310 
   1148.94360     127.24312     129.32581    -999.25000      59.54319    -999.25000       2.45000       0.41903    2356.83813    2395.95728 
   1149.09600     127.25577     129.39766    -999.25000      61.05010    -999.25000       2.45000       0.41781    2355.52954    2394.60498 
   1149.24840     127.30138     129.42407    -999.25000      64.29298    -999.25000       2.45000       0.41721    2355.04883    2394.10815 
   1149.40080     127.27492     129.35890    -999.25000      69.98023    -999.25000       2.45000       0.42039    2356.23535    2395.33423 
   1149.55320     127.14001     129.17294    -999.25000      75.46465    -999.25000       2.45000       0.42206    2359.62720    2398.83984 
   1149.70560     126.98611     129.04250    -999.25000      79.19499    -999.25000       2.45000       0.42583    2362.01270    2401.30493 
   1149.85800     127.15548     129.43132    -999.25000      80.35186    -999.25000       2.45000       0.43146    2354.91699    2393.97168 
   1150.01040     127.43109     129.62407    -999.25000      78.04961    -999.25000       2.45000       0.43790    2351.41528    2390.35303 
   1150.16280     126.97954     128.70093    -999.25000      73.02389    -999.25000       2.45000       0.43858    2368.28125    2407.78442 
   1150.31520     126.02383     127.72139    -999.25000      67.36250    -999.25000       2.45000       0.43503    2386.44434    2426.56104 
   1150.46760     125.56940     127.65131    -999.25000      62.96552    -999.25000       2.45000       0.43655    2387.75464    2427.91577 
   1150.62000     125.68751     127.90716    -999.25000      59.68918    -999.25000       2.45000       0.44012    2382.97852    2422.97778 
   1150.77240     125.85575     128.01128    -999.25000      57.97913    -999.25000       2.45000       0.43592    2381.04028    2420.97363 
   1150.92480     126.00954     128.20142    -999.25000      57.27360    -999.25000       2.45000       0.43687    2377.50879    2417.32300 
   1151.07720     126.34380     128.64117    -999.25000      56.21034    -999.25000       2.45000       0.44263    2369.38135    2408.92163 
   1151.22960     126.79663     129.10356    -999.25000      55.88695    -999.25000       2.45000       0.44246    2360.89526    2400.15039 
   1151.38200     127.09496     129.28181    -999.25000      56.94956    -999.25000       2.45000       0.43748    2357.64014    2396.78613 
   1151.53440     127.11541     129.18677    -999.25000      58.04086    -999.25000       2.45000       0.43862    2359.37476    2398.57886 
   1151.68680     126.89626     128.87677    -999.25000      61.06683    -999.25000       2.45000       0.43933    2365.04980    2404.44434 
   1151.83920     126.50864     128.43236    -999.25000      67.42196    -999.25000       2.45000       0.43952    2373.23364    2412.90356 
   1151.99160     126.01524     127.90310    -999.25000      74.05759    -999.25000       2.45000       0.44174    2383.05420    2423.05591 
   1152.14400     125.26934     126.99863    -999.25000      78.74890    -999.25000       2.45000       0.44264    2400.02588    2440.60425 
   1152.29640     124.30200     125.98527    -999.25000      77.76745    -999.25000       2.45000       0.44225    2419.33057    2460.56982 
   1152.44880     123.71648     125.71290    -999.25000      68.93354    -999.25000       2.45000       0.44054    2424.57227    2465.99194 
   1152.60120     123.79089     126.04112    -999.25000      58.40883    -999.25000       2.45000       0.44204    2418.25830    2459.46094 
   1152.75360     124.09907     126.33464    -999.25000      51.35815    -999.25000       2.45000       0.44544    2412.63989    2453.64966 
   1152.90600     124.02088     125.98438    -999.25000      49.58373    -999.25000       2.45000       0.44474    2419.34741    2460.58740 
   1153.05840     123.56741     125.45536    -999.25000      53.03538    -999.25000       2.45000       0.44249    2429.54956    2471.14111 
   1153.21080     123.29259     125.36660    -999.25000      59.02411    -999.25000       2.45000       0.43854    2431.26953    2472.92065 
   1153.36320     123.37508     125.57446    -999.25000      62.92038    -999.25000       2.45000       0.43475    2427.24512    2468.75732 
   1153.51560     123.68655     125.96174    -999.25000      65.18002    -999.25000       2.45000       0.43450    2419.78223    2461.03735 
   1153.66800     124.12740     126.44180    -999.25000      68.94963    -999.25000       2.45000       0.43337    2410.59521    2451.53491 
   1153.82040     124.59416     126.89883    -999.25000      72.25136    -999.25000       2.45000       0.43214    2401.91333    2442.55615 
   1153.97280     124.92382     127.13527    -999.25000      72.11330    -999.25000       2.45000       0.43010    2397.44653    2437.93701 
   1154.12520     125.15630     127.36486    -999.25000      69.79595    -999.25000       2.45000       0.42987    2393.12476    2433.46802 
   1154.27760     125.46582     127.73287    -999.25000      65.72823    -999.25000       2.45000       0.43422    2386.22998    2426.33936 
   1154.43000     125.63302     127.75309    -999.25000      60.60979    -999.25000       2.45000       0.43991    2385.85229    2425.94873 
   1154.58240     125.25470     127.08308    -999.25000      58.56905    -999.25000       2.45000       0.43732    2398.43091    2438.95508 
   1154.73480     124.43871     126.16025    -999.25000      60.32973    -999.25000       2.45000       0.43743    2415.97510    2457.09912 
   1154.88720     123.72730     125.60357    -999.25000      62.66647    -999.25000       2.45000       0.43585    2426.68262    2468.17529 
   1155.03960     123.46595     125.55838    -999.25000      62.94613    -999.25000       2.45000       0.43391    2427.55591    2469.07861 
   1155.19200     123.60194     125.82697    -999.25000      61.15480    -999.25000       2.45000       0.43442    2422.37402    2463.71826 
