~Version Information
VERS  .          2.0                              :CWLS Log Ascii Standard - Version 2.0
WRAP  .          NO                               :One line per depth step
~Well Information Block
#MNEM.UNIT       Data Type                        Information
#---------       ---------                        -------------------------------
STRT  .M         0.00000                          :START DEPTH
STOP  .M         2946.19700                       :STOP DEPTH
STEP  .M          0.15240                         :INCREMENT
NULL  .          -999.25                          :NULL DATA VALUE
COMP  .          Chevron Australia Pty Ltd        :COMPANY
WELL  .          WST-3A-ST1                       :WELL
FLD   .          Wheatstone                       :FIELD
LOC   .          -                                :LOCATION
PROV  .          Western Australia                :PROVINCE
STAT  .          Western Australia                :STATE
CNTY  .          -                                :COUNTY
CTRY  .          Australia                        :COUNTRY
DATE  .          5-8th Oct 2014                   :DATE
UWI   .          WST-3A-ST1                       :UNIQUE WELL UWI
LIC   .          -                                :LICENSE NUMBER
API   .          -                                :API NUMBER
SRVC  .          Schlumbegre                      :SERVICE COMPANY
~Parameter Information Block
#MNEM.UNIT       Value                            Description
#---------       ---------                        -------------
LONG  .DEG       121.295670                       :Well Surface Location
LATI  .DEG       -19.810825                       :Well Surface Location
XWELL .M         321485.7400000                   :X-coordinate of Well Head
YWELL .M         7808552.550000                   :Y-coordinate of Well Head
PDAT  .          MSL                              :Permanent Datum               
EPD   .m         0.00                             :Elevation of Permanent Datum (PDAT) above Mean Sea Level
LMF   .          DF                               :Logging Measured From (Name of Working Datum)
APD   .m         28.70                            :Elevation of Working Datum (LMF) Above Permanent Datum
EKB   .m         0.00                             :Elevation of Kelly Bushing Above Mean Sea Level
EGL   .m         -230.10                          :Elevation of Ground Level Above Mean Sea Level
EDF   .m         28.70                            :Elevation of Derrick Floor Above Mean Sea Level
~Curve Information Block
#MNEM.UNIT       API Code            Curve    Description
#--------        --------------      -----    -------------------
DEPT  .M                             :0       Index - True Vertical Depth from SRD (MSL)
DTCO  .US/F                          :1       Delta-T Compressional - Raw (used for generation of synthetics only)        
DTCO  .US/F                          :2       Delta-T Compressional - Calibrated (used for depth conversion only)        
DTSM  .US/F                          :3       Delta-T Shear                 
GR    .GAPI                          :4       Gamma Ray                     
NPHI  .V/V                           :5       Thermal Neutron Porosity (original Ratio Method) in Selected Lithology
RHOB  .G/C3                          :6       Bulk Density                  
RT    .OHMM                          :7       True Resistivity              
SVEL  .M/S                           :8       Sonic Velocity - From Calibrated DTCO               
SVEL  .M/S                           :9       Sonic Velocity - From Raw DTCO               
~Ascii Data Section
# ...
   2779.77600      87.12968      91.96707     210.15793      61.97893       0.19496       2.54929       1.23514    3314.22974    3492.45923 
   2779.92840      87.41326      92.20876     209.77789      63.97762       0.19256       2.52739       1.22488    3305.54297    3482.81421 
   2780.08080      87.35719      91.93463     209.78012      58.98967       0.19081       2.50094       1.25537    3315.39917    3493.75781 
   2780.23320      86.73087      91.05038     209.12358      54.36204       0.19278       2.48440       1.27792    3347.59717    3529.53223 
   2780.38560      85.79050      90.06893     207.56424      53.27092       0.19464       2.47653       1.29453    3384.07471    3570.10645 
   2780.53800      85.27151      89.88861     205.84505      53.89025       0.19520       2.48164       1.27886    3390.86328    3577.66260 
   2780.69040      85.39614      90.23656     204.76862      55.05287       0.19445       2.49739       1.25342    3377.78857    3563.11060 
   2780.84280      85.49715      90.15672     204.44028      55.39095       0.18952       2.50781       1.26867    3380.77979    3566.43921 
   2780.99520      85.22865      89.75007     203.65164      56.14062       0.18434       2.50555       1.35232    3396.09766    3583.48975 
   2781.14760      84.99193      89.63778     201.43057      56.44143       0.18442       2.49018       1.36590    3400.35205    3588.22705 
   2781.30000      85.01006      89.75142     198.54059      52.45683       0.18673       2.47221       1.32041    3396.04639    3583.43311 
   2781.45240      84.89478      89.46851     196.36295      47.15786       0.18614       2.47658       1.35960    3406.78540    3595.39160 
   2781.60480      84.21125      88.49159     195.40179      45.53153       0.18484       2.49603       1.40215    3444.39502    3637.30664 
   2781.75720      83.46320      87.91115     194.97273      48.96131       0.18575       2.50497       1.41677    3467.13721    3662.67676 
   2781.90960      83.44398      88.30291     194.85483      53.18715       0.18882       2.50655       1.38060    3451.75488    3645.51489 
   2782.06200      84.33398      89.55780     195.68204      54.88316       0.19391       2.49633       1.34543    3403.38867    3591.60864 
   2782.21440      85.37598      90.44389     197.34915      55.18408       0.19680       2.47200       1.32865    3370.04541    3554.49536 
   2782.36680      85.61881      90.21564     199.34142      53.57734       0.19416       2.46011       1.31568    3378.57129    3563.98169 
   2782.51920      85.83208      90.75224     201.38486      51.48679       0.19176       2.46951       1.33147    3358.59497    3541.75952 
   2782.67160      86.69836      91.85997     203.12897      50.80246       0.19532       2.47870       1.34711    3318.09399    3496.75024 
   2782.82400      87.46323      92.37373     204.53320      51.14236       0.20173       2.47104       1.36838    3299.63916    3476.26099 
   2782.97640      88.01841      92.95925     206.17937      51.57468       0.20604       2.45658       1.33388    3278.85596    3453.20093 
   2783.12880      88.67458      93.66717     208.35582      52.54673       0.20259       2.45837       1.31346    3254.07520    3425.72583 
   2783.28120      89.30598      94.24252     210.29762      54.98885       0.19376       2.47214       1.32890    3234.20874    3403.71533 
   2783.43360      89.66685      94.44633     211.64198      58.95385       0.19083       2.47296       1.34755    3227.22974    3395.98657 
   2783.58600      89.89324      94.68926     213.72664      63.89841       0.19892       2.46238       1.32842    3218.94995    3386.81934 
   2783.73840      91.04770      96.51125     218.53874      66.14548       0.21664       2.45396       1.18862    3158.18115    3319.61304 
   2783.89080      93.68137      99.73933     227.03848      66.37872       0.23725       2.44952       1.00471    3055.96582    3206.86768 
   2784.04320      96.72722     102.65173     236.86061      65.47921       0.24925       2.44906       0.90110    2969.26318    3111.52466 
   2784.19560      98.64406     103.83949     243.96390      62.55069       0.25087       2.45049       0.87959    2935.29932    3074.24878 
   2784.34800      99.09678     103.75393     247.13113      60.94915       0.24513       2.45168       0.91565    2937.72021    3076.90430 
   2784.50040      98.62585     103.00079     246.67435      64.62370       0.23500       2.45264       0.93442    2959.20093    3100.47681 
   2784.65280      97.80270     102.12636     243.09404      66.80711       0.22684       2.45782       0.96324    2984.53784    3128.30225 
   2784.80520      97.23251     101.77897     238.56564      63.19236       0.22085       2.47534       1.03989    2994.72485    3139.49585 
   2784.95760      97.14269     101.87778     235.03038      58.99861       0.21388       2.49631       1.11217    2991.82007    3136.30396 
   2785.11000      97.07738     101.69228     232.07898      58.13017       0.20776       2.50373       1.17904    2997.27783    3142.30200 
   2785.26240      96.63581     101.06319     229.03065      57.91985       0.20649       2.49486       1.19614    3015.93506    3162.81445 
   2785.41480      95.96440     100.36079     226.84300      56.47832       0.21042       2.47418       1.19536    3037.04272    3186.03589 
   2785.56720      95.50807     100.08466     225.75296      54.48370       0.21591       2.45467       1.16005    3045.42212    3195.25879 
   2785.71960      95.23994      99.82240     224.42261      52.35761       0.21582       2.45151       1.16714    3053.42310    3204.06763 
   2785.87200      94.31766      98.41676     221.88966      52.43546       0.20552       2.46540       1.29309    3097.03345    3252.12158 
   2786.02440      92.56245      96.40555     218.21458      51.44213       0.19723       2.48009       1.35832    3161.64355    3323.43921 
   2786.17680      91.08727      95.32293     213.63335      50.24986       0.19860       2.47935       1.31971    3197.55176    3363.13940 
   2786.32920      90.55962      95.20168     209.04422      50.26396       0.20254       2.46849       1.31415    3201.62427    3367.64502 
   2786.48160      90.48326      95.15820     205.62408      49.20447       0.20389       2.46774       1.32975    3203.08691    3369.26343 
   2786.63400      90.48449      95.19217     203.61232      48.87985       0.20284       2.48072       1.31785    3201.94385    3367.99854 
   2786.78640      90.82069      95.74970     202.41527      51.43906       0.20857       2.48465       1.27055    3183.29956    3347.37671 
   2786.93880      91.41600      96.37268     201.60306      56.38350       0.21556       2.47444       1.26319    3162.72217    3324.63062 
   2787.09120      91.56456      96.17381     201.43114      58.21718       0.21392       2.47491       1.29630    3169.26196    3331.85791 
   2787.24360      90.99033      95.32469     202.37636      56.74656       0.20765       2.48549       1.32699    3197.49243    3363.07397 
   2787.39600      90.29047      94.73413     204.28885      55.61353       0.19714       2.48402       1.31355    3217.42529    3385.13184 
   2787.54840      90.00961      94.68009     206.93259      55.55130       0.18734       2.47190       1.29453    3219.26196    3387.16431 
   2787.70080      90.03071      94.75620     210.68872      57.28962       0.18845       2.46192       1.23869    3216.67578    3384.30225 
   2787.85320      90.35345      95.25957     215.87350      60.81890       0.20156       2.45492       1.13597    3199.67847    3365.49194 
   2788.00560      91.13913      96.25198     222.14127      64.21095       0.21706       2.44695       1.01788    3166.68823    3329.01343 
   2788.15800      92.14336      97.26487     227.11084      66.75913       0.21883       2.43775       0.98297    3133.71094    3292.58838 
   2788.31040      92.77979      97.62562     227.46858      66.27237       0.21022       2.43119       1.02759    3122.13135    3279.80688 
