~Version Information
VERS  .          2.0                              :CWLS Log Ascii Standard - Version 2.0
WRAP  .          NO                               :One line per depth step
~Well Information Block
#MNEM.UNIT       Data Type                        Information
#---------       ---------                        -------------------------------
STRT  .M         0.00000                          :START DEPTH
STOP  .M         2946.19700                       :STOP DEPTH
STEP  .M          0.15240                         :INCREMENT
NULL  .          -999.25                          :NULL DATA VALUE
COMP  .          Chevron Australia Pty Ltd        :COMPANY
WELL  .          WST-3A-ST1                       :WELL
FLD   .          Wheatstone                       :FIELD
LOC   .          -                                :LOCATION
PROV  .          Western Australia                :PROVINCE
STAT  .          Western Australia                :STATE
CNTY  .          -                                :COUNTY
CTRY  .          Australia                        :COUNTRY
DATE  .          5-8th Oct 2014                   :DATE
UWI   .          WST-3A-ST1                       :UNIQUE WELL UWI
LIC   .          -                                :LICENSE NUMBER
API   .          -                                :API NUMBER
SRVC  .          Schlumbegre                      :SERVICE COMPANY
~Parameter Information Block
#MNEM.UNIT       Value                            Description
#---------       ---------                        -------------
LONG  .DEG       121.295670                       :Well Surface Location
LATI  .DEG       -19.810825                       :Well Surface Location
XWELL .M         321485.7400000                   :X-coordinate of Well Head
YWELL .M         7808552.550000                   :Y-coordinate of Well Head
PDAT  .          MSL                              :Permanent Datum               
EPD   .m         0.00                             :Elevation of Permanent Datum (PDAT) above Mean Sea Level
LMF   .          DF                               :Logging Measured From (Name of Working Datum)
APD   .m         28.70                            :Elevation of Working Datum (LMF) Above Permanent Datum
EKB   .m         0.00                             :Elevation of Kelly Bushing Above Mean Sea Level
EGL   .m         -230.10                          :Elevation of Ground Level Above Mean Sea Level
EDF   .m         28.70                            :Elevation of Derrick Floor Above Mean Sea Level
~Curve Information Block
#MNEM.UNIT       API Code            Curve    Description
#--------        --------------      -----    -------------------
DEPT  .M                             :0       Index - True Vertical Depth from SRD (MSL)
DTCO  .US/F                          :1       Delta-T Compressional - Raw (used for generation of synthetics only)        
DTCO  .US/F                          :2       Delta-T Compressional - Calibrated (used for depth conversion only)        
DTSM  .US/F                          :3       Delta-T Shear                 
GR    .GAPI                          :4       Gamma Ray                     
NPHI  .V/V                           :5       Thermal Neutron Porosity (original Ratio Method) in Selected Lithology
RHOB  .G/C3                          :6       Bulk Density                  
RT    .OHMM                          :7       True Resistivity              
SVEL  .M/S                           :8       Sonic Velocity - From Calibrated DTCO               
SVEL  .M/S                           :9       Sonic Velocity - From Raw DTCO               
~Ascii Data Section
# ...
   1893.72240      86.89796      92.16967    -999.25000      31.04891    -999.25000       2.45000       0.74615    3306.94458    3504.70996 
   1893.87480      87.05135      92.31285    -999.25000      36.29653    -999.25000       2.45000       0.66772    3301.81543    3498.94946 
   1894.02720      87.03860      92.18595    -999.25000      37.36246    -999.25000       2.45000       0.63510    3306.36060    3504.05396 
   1894.17960      87.03659      92.27538    -999.25000      34.16819    -999.25000       2.45000       0.58710    3303.15625    3500.45508 
   1894.33200      87.29919      92.66476    -999.25000      32.33826    -999.25000       2.45000       0.55053    3289.27637    3484.87134 
   1894.48440      87.58216      92.86982    -999.25000      33.77342    -999.25000       2.45000       0.55022    3282.01343    3476.72021 
   1894.63680      87.30125      92.23313    -999.25000      33.29203    -999.25000       2.45000       0.55250    3304.66919    3502.15430 
   1894.78920      86.39640      91.13196    -999.25000      31.89392    -999.25000       2.45000       0.57183    3344.60034    3547.03320 
   1894.94160      85.46932      90.33234    -999.25000      31.09066    -999.25000       2.45000       0.60838    3374.20679    3580.34985 
   1895.09400      84.74286      89.65943    -999.25000      32.78901    -999.25000       2.45000       0.77363    3399.53076    3608.87549 
   1895.24640      84.02839      88.91453    -999.25000      31.63242    -999.25000       2.45000       0.87374    3428.01123    3640.98804 
   1895.39880      83.54814      88.62804    -999.25000      29.03857    -999.25000       2.45000       0.82744    3439.09204    3653.49121 
   1895.55120      83.69563      89.09325    -999.25000      30.02888    -999.25000       2.45000       0.79796    3421.13452    3633.23120 
   1895.70360      84.25124      89.71503    -999.25000      32.97432    -999.25000       2.45000       0.83676    3397.42383    3606.50098 
   1895.85600      84.82671      90.25660    -999.25000      35.36081    -999.25000       2.45000       0.93129    3377.03833    3583.53784 
   1896.00840      85.42522      90.89680    -999.25000      36.02309    -999.25000       2.45000       0.95379    3353.25342    3556.76685 
   1896.16080      85.99692      91.41835    -999.25000      36.33854    -999.25000       2.45000       0.93835    3334.12256    3535.25073 
   1896.31320      86.28450      91.53464    -999.25000      36.89664    -999.25000       2.45000       0.85894    3329.88696    3530.48926 
   1896.46560      86.29778      91.47250    -999.25000      34.99657    -999.25000       2.45000       0.79301    3332.14893    3533.03174 
   1896.61800      86.21251      91.37030    -999.25000      30.06858    -999.25000       2.45000       0.78965    3335.87622    3537.22217 
   1896.77040      85.98449      91.05016    -999.25000      28.13727    -999.25000       2.45000       0.80370    3347.60522    3550.41284 
   1896.92280      85.41541      90.29884    -999.25000      29.17718    -999.25000       2.45000       0.82639    3375.45874    3581.75928 
   1897.07520      84.55152      89.35255    -999.25000      29.56660    -999.25000       2.45000       0.83101    3411.20679    3622.03638 
   1897.22760      83.87137      88.86723    -999.25000      29.80472    -999.25000       2.45000       0.82049    3429.83594    3643.04663 
   1897.38000      84.14188      89.69109    -999.25000      29.52628    -999.25000       2.45000       0.81089    3398.33081    3607.52295 
   1897.53240      85.49868      91.43805    -999.25000      26.91375    -999.25000       2.45000       0.79935    3333.40454    3534.44336 
   1897.68480      87.06007      92.86359    -999.25000      25.56409    -999.25000       2.45000       0.73013    3282.23340    3476.96729 
   1897.83720      87.87827      93.23716    -999.25000      27.39830    -999.25000       2.45000       0.69952    3269.08301    3462.21338 
   1897.98960      87.76028      92.75930    -999.25000      31.73708    -999.25000       2.45000       0.74491    3285.92383    3481.10864 
   1898.14200      86.86352      91.55585    -999.25000      34.97865    -999.25000       2.45000       0.80911    3329.11548    3529.62183 
   1898.29440      85.22682      89.60197    -999.25000      33.90776    -999.25000       2.45000       0.77767    3401.71118    3611.33252 
   1898.44680      83.53535      88.10261    -999.25000      31.98556    -999.25000       2.45000       0.73997    3459.60229    3676.64697 
   1898.59920      82.64439      87.65705    -999.25000      32.02752    -999.25000       2.45000       0.75926    3477.18750    3696.51416 
   1898.75160      82.63296      87.96345    -999.25000      35.46234    -999.25000       2.45000       0.83876    3465.07568    3682.82935 
   1898.90400      83.35643      88.99227    -999.25000      39.89661    -999.25000       2.45000       0.93966    3425.01636    3637.61011 
   1899.05640      84.55882      90.32174    -999.25000      40.16743    -999.25000       2.45000       0.94742    3374.60278    3580.79541 
   1899.20880      85.71763      91.35560    -999.25000      38.46878    -999.25000       2.45000       0.90167    3336.41284    3537.82568 
   1899.36120      86.49490      91.94501    -999.25000      42.39835    -999.25000       2.45000       0.93572    3315.02466    3513.78638 
   1899.51360      87.00054      92.38933    -999.25000      49.85339    -999.25000       2.45000       0.99835    3299.08228    3495.88037 
   1899.66600      87.42359      92.79681    -999.25000      51.42230    -999.25000       2.45000       1.10703    3284.59595    3479.61816 
   1899.81840      87.88691      93.30101    -999.25000      50.17818    -999.25000       2.45000       1.12793    3266.84570    3459.70410 
   1899.97080      88.51961      94.02778    -999.25000      46.82047    -999.25000       2.45000       1.08456    3241.59521    3431.39722 
   1900.12320      89.17398      94.62915    -999.25000      43.86376    -999.25000       2.45000       1.06733    3220.99487    3408.32251 
   1900.27560      89.87041      95.39519    -999.25000      46.37794    -999.25000       2.45000       1.10042    3195.12964    3379.37476 
   1900.42800      90.73244      96.32748    -999.25000      51.44149    -999.25000       2.45000       1.19275    3164.20630    3344.80127 
   1900.58040      91.13350      96.33962    -999.25000      51.80830    -999.25000       2.45000       1.24415    3163.80737    3344.35547 
   1900.73280      90.19677      94.70821    -999.25000      44.83805    -999.25000       2.45000       1.20016    3218.30615    3405.31201 
   1900.88520      88.26760      92.56106    -999.25000      37.27136    -999.25000       2.45000       1.06440    3292.96167    3489.00806 
   1901.03760      86.54288      91.14561    -999.25000      35.76074    -999.25000       2.45000       1.02072    3344.09985    3546.46973 
   1901.19000      85.64523      90.62702    -999.25000      37.20576    -999.25000       2.45000       1.05425    3363.23535    3567.99902 
   1901.34240      85.36697      90.52472    -999.25000      35.44622    -999.25000       2.45000       1.09052    3367.03589    3572.27710 
   1901.49480      85.31401      90.50789    -999.25000      35.54806    -999.25000       2.45000       1.09395    3367.66235    3572.98169 
   1901.64720      85.35660      90.59397    -999.25000      38.32507    -999.25000       2.45000       1.09212    3364.46216    3569.38013 
   1901.79960      85.49789      90.77567    -999.25000      38.32795    -999.25000       2.45000       1.14295    3357.72778    3561.80103 
   1901.95200      85.52580      90.69101    -999.25000      39.98822    -999.25000       2.45000       1.15334    3360.86230    3565.32837 
   1902.10440      85.31235      90.38326    -999.25000      42.06359    -999.25000       2.45000       1.06870    3372.30591    3578.20947 
   1902.25680      85.12127      90.27760    -999.25000      40.35608    -999.25000       2.45000       1.04684    3376.25293    3582.65332 
