~Version Information
VERS  .          2.0                              :CWLS Log Ascii Standard - Version 2.0
WRAP  .          NO                               :One line per depth step
~Well Information Block
#MNEM.UNIT       Data Type                        Information
#---------       ---------                        -------------------------------
STRT  .M         0.00000                          :START DEPTH
STOP  .M         2946.19700                       :STOP DEPTH
STEP  .M          0.15240                         :INCREMENT
NULL  .          -999.25                          :NULL DATA VALUE
COMP  .          Chevron Australia Pty Ltd        :COMPANY
WELL  .          WST-3A-ST1                       :WELL
FLD   .          Wheatstone                       :FIELD
LOC   .          -                                :LOCATION
PROV  .          Western Australia                :PROVINCE
STAT  .          Western Australia                :STATE
CNTY  .          -                                :COUNTY
CTRY  .          Australia                        :COUNTRY
DATE  .          5-8th Oct 2014                   :DATE
UWI   .          WST-3A-ST1                       :UNIQUE WELL UWI
LIC   .          -                                :LICENSE NUMBER
API   .          -                                :API NUMBER
SRVC  .          Schlumbegre                      :SERVICE COMPANY
~Parameter Information Block
#MNEM.UNIT       Value                            Description
#---------       ---------                        -------------
LONG  .DEG       121.295670                       :Well Surface Location
LATI  .DEG       -19.810825                       :Well Surface Location
XWELL .M         321485.7400000                   :X-coordinate of Well Head
YWELL .M         7808552.550000                   :Y-coordinate of Well Head
PDAT  .          MSL                              :Permanent Datum               
EPD   .m         0.00                             :Elevation of Permanent Datum (PDAT) above Mean Sea Level
LMF   .          DF                               :Logging Measured From (Name of Working Datum)
APD   .m         28.70                            :Elevation of Working Datum (LMF) Above Permanent Datum
EKB   .m         0.00                             :Elevation of Kelly Bushing Above Mean Sea Level
EGL   .m         -230.10                          :Elevation of Ground Level Above Mean Sea Level
EDF   .m         28.70                            :Elevation of Derrick Floor Above Mean Sea Level
~Curve Information Block
#MNEM.UNIT       API Code            Curve    Description
#--------        --------------      -----    -------------------
DEPT  .M                             :0       Index - True Vertical Depth from SRD (MSL)
DTCO  .US/F                          :1       Delta-T Compressional - Raw (used for generation of synthetics only)        
DTCO  .US/F                          :2       Delta-T Compressional - Calibrated (used for depth conversion only)        
DTSM  .US/F                          :3       Delta-T Shear                 
GR    .GAPI                          :4       Gamma Ray                     
NPHI  .V/V                           :5       Thermal Neutron Porosity (original Ratio Method) in Selected Lithology
RHOB  .G/C3                          :6       Bulk Density                  
RT    .OHMM                          :7       True Resistivity              
SVEL  .M/S                           :8       Sonic Velocity - From Calibrated DTCO               
SVEL  .M/S                           :9       Sonic Velocity - From Raw DTCO               
~Ascii Data Section
# ...
   2632.10040     103.36063     108.68887     213.94418      88.75244       0.28404       2.37113       1.13425    2804.33496    2930.89453 
   2632.25280     104.38052     109.35576     217.83275      90.85598       0.29885       2.35667       1.11117    2787.23315    2912.21973 
   2632.40520     104.81461     109.61935     220.09555      94.19411       0.31215       2.35445       1.10241    2780.53076    2904.90356 
   2632.55760     105.20454     110.10181     221.72072      97.81960       0.32846       2.36130       1.16111    2768.34692    2891.60791 
   2632.71000     105.76438     110.71832     222.43579     101.68005       0.33951       2.37610       1.20646    2752.93213    2874.79395 
   2632.86240     106.26488     111.13387     222.42686     104.86790       0.32955       2.39361       1.23400    2742.63843    2863.57031 
   2633.01480     106.46944     111.18392     222.26483     105.33591       0.31291       2.40494       1.24921    2741.40356    2862.22437 
   2633.16720     106.07913     110.47115     221.56902     100.94109       0.30599       2.40463       1.25937    2759.09155    2881.51123 
   2633.31960     105.19604     109.46333     219.96141      94.37519       0.30389       2.40225       1.28830    2784.49414    2909.22949 
   2633.47200     104.54873     109.08001     217.79121      90.72386       0.29629       2.40851       1.28679    2794.27930    2919.91260 
   2633.62440     104.40136     109.10543     216.23865      89.58829       0.28594       2.40311       1.14978    2793.62793    2919.20166 
   2633.77680     104.50702     109.26984     216.63399      88.23907       0.28481       2.37150       1.02093    2789.42480    2914.61230 
   2633.92920     104.91726     109.86011     217.78542      86.45972       0.29135       2.33523       1.03865    2774.43750    2898.25342 
   2634.08160     105.45061     110.35178     216.83745      84.20768       0.29784       2.31734       1.08542    2762.07617    2884.76685 
   2634.23400     105.39538     109.89605     214.23822      81.71963       0.31487       2.32286       1.10670    2773.53003    2897.26318 
   2634.38640     104.65016     108.93884     212.81561      80.98340       0.34380       2.33935       1.12745    2797.89990    2923.86670 
   2634.53880     103.89725     108.33554     212.63739      82.05194       0.34213       2.35118       1.13990    2813.48120    2940.88623 
   2634.69120     103.62120     108.29913     212.41270      86.45258       0.30314       2.35219       1.10140    2814.42700    2941.91968 
   2634.84360     103.92013     108.84361     212.54416      93.26072       0.27158       2.34269       1.08721    2800.34790    2926.54028 
   2634.99600     104.80470     109.97723     213.12708     100.40573       0.26630       2.33157       1.10576    2771.48267    2895.02905 
   2635.14840     105.88704     111.02202     213.73325     106.64417       0.28476       2.32790       1.02727    2745.40137    2866.58276 
   2635.30080     106.66014     111.59617     215.58160     110.22651       0.31793       2.32762       0.94202    2731.27637    2851.18701 
   2635.45320     107.43496     112.51794     220.05446     111.93577       0.34602       2.32393       0.90752    2708.90137    2826.81274 
   2635.60560     108.77413     114.16277     225.51500     113.72542       0.35312       2.32157       0.91720    2669.87207    2784.33838 
   2635.75800     110.35223     115.69201     229.12923     115.25099       0.34253       2.32164       0.91960    2634.58130    2745.97827 
   2635.91040     111.48280     116.53064     231.18011     115.50256       0.33945       2.31510       0.90031    2615.62085    2725.38745 
   2636.06280     111.96555     116.75276     233.55145     113.63554       0.35185       2.30205       0.91368    2610.64478    2719.98486 
   2636.21520     111.97603     116.60827     235.83405     108.96794       0.36121       2.29346       0.99788    2613.87964    2723.49658 
   2636.36760     111.68363     116.20756     236.21614     105.61774       0.35198       2.29823       0.98628    2622.89307    2733.28320 
   2636.52000     111.45325     116.10191     235.03545     106.67575       0.33993       2.30478       0.95973    2625.27954    2735.87524 
   2636.67240     111.56399     116.37110     234.18277     109.07954       0.34099       2.30419       0.96340    2619.20679    2729.28076 
   2636.82480     111.84870     116.66719     234.26184     109.37575       0.34422       2.30541       0.94596    2612.55957    2722.06372 
   2636.97720     112.14436     116.96252     234.67049     108.19698       0.34376       2.30623       0.93044    2605.96289    2714.90308 
   2637.12960     112.27332     116.96965     234.76683     105.04182       0.34833       2.30236       0.94167    2605.80420    2714.73071 
   2637.28200     112.06548     116.60440     234.16173      99.61030       0.36081       2.29863       0.96619    2613.96655    2723.59106 
   2637.43440     111.62833     116.11459     232.68140      93.94291       0.36462       2.30391       0.98806    2624.99316    2735.56396 
   2637.58680     111.00378     115.39139     230.42957      91.37634       0.35473       2.32105       1.02522    2641.44507    2753.43555 
   2637.73920     110.09210     114.34168     227.98006      93.48170       0.35215       2.33576       1.05024    2665.69458    2779.79541 
   2637.89160     109.20995     113.58223     226.38741      96.61233       0.35429       2.33376       1.03181    2683.51855    2799.18311 
   2638.04400     108.87585     113.55960     226.69687     100.46484       0.35076       2.32385       0.98910    2684.05298    2799.76514 
   2638.19640     109.10392     113.97126     228.61963     107.02827       0.34825       2.32456       0.97690    2674.35840    2789.21802 
   2638.34880     109.55604     114.45300     230.34424     112.37444       0.35553       2.33161       0.95334    2663.10181    2776.97583 
   2638.50120     110.06424     114.98059     231.33881     111.20171       0.36820       2.32909       0.91424    2650.88232    2763.69165 
   2638.65360     110.59902     115.52063     233.23636     105.35856       0.37291       2.32057       0.95177    2638.48999    2750.22461 
   2638.80600     111.09060     115.97673     236.35855     101.05576       0.36408       2.32007       0.99420    2628.11328    2738.95264 
   2638.95840     111.42056     116.21430     238.13576     100.26127       0.35024       2.32973       0.98418    2622.74097    2733.11816 
   2639.11080     111.34779     115.91428     236.76013     100.37962       0.34274       2.34128       1.00735    2629.52954    2740.49072 
   2639.26320     110.78657     115.16180     233.91489      99.41494       0.34124       2.35109       1.01212    2646.71118    2759.15820 
   2639.41560     110.08826     114.50315     231.68547      98.43867       0.34102       2.35865       0.97971    2661.93530    2775.70801 
   2639.56800     109.78703     114.46365     230.44987      97.12035       0.34905       2.35625       0.97437    2662.85400    2776.70654 
   2639.72040     109.93894     114.75573     229.93254      94.95362       0.35938       2.34343       1.02593    2656.07666    2769.33789 
   2639.87280     110.10782     114.83440     229.96465      96.51577       0.35803       2.33064       1.04471    2654.25708    2767.35986 
   2640.02520     109.99227     114.57662     230.70905     103.47442       0.35263       2.31819       1.02448    2660.22852    2773.85181 
   2640.17760     109.77232     114.38436     232.11554     110.72653       0.34750       2.30767       0.97513    2664.69995    2778.71362 
   2640.33000     109.91041     114.76437     233.21294     114.14474       0.34092       2.30938       0.96752    2655.87646    2769.12061 
   2640.48240     110.48005     115.47289     233.37364     111.65044       0.33434       2.32017       0.99852    2639.58081    2751.40991 
   2640.63480     111.14096     116.09892     233.13748     107.26543       0.33402       2.32758       0.97738    2625.34741    2735.94849 
