~Version Information
VERS  .          2.0                              :CWLS Log Ascii Standard - Version 2.0
WRAP  .          NO                               :One line per depth step
~Well Information Block
#MNEM.UNIT       Data Type                        Information
#---------       ---------                        -------------------------------
STRT  .M         0.00000                          :START DEPTH
STOP  .M         2946.19700                       :STOP DEPTH
STEP  .M          0.15240                         :INCREMENT
NULL  .          -999.25                          :NULL DATA VALUE
COMP  .          Chevron Australia Pty Ltd        :COMPANY
WELL  .          WST-3A-ST1                       :WELL
FLD   .          Wheatstone                       :FIELD
LOC   .          -                                :LOCATION
PROV  .          Western Australia                :PROVINCE
STAT  .          Western Australia                :STATE
CNTY  .          -                                :COUNTY
CTRY  .          Australia                        :COUNTRY
DATE  .          5-8th Oct 2014                   :DATE
UWI   .          WST-3A-ST1                       :UNIQUE WELL UWI
LIC   .          -                                :LICENSE NUMBER
API   .          -                                :API NUMBER
SRVC  .          Schlumbegre                      :SERVICE COMPANY
~Parameter Information Block
#MNEM.UNIT       Value                            Description
#---------       ---------                        -------------
LONG  .DEG       121.295670                       :Well Surface Location
LATI  .DEG       -19.810825                       :Well Surface Location
XWELL .M         321485.7400000                   :X-coordinate of Well Head
YWELL .M         7808552.550000                   :Y-coordinate of Well Head
PDAT  .          MSL                              :Permanent Datum               
EPD   .m         0.00                             :Elevation of Permanent Datum (PDAT) above Mean Sea Level
LMF   .          DF                               :Logging Measured From (Name of Working Datum)
APD   .m         28.70                            :Elevation of Working Datum (LMF) Above Permanent Datum
EKB   .m         0.00                             :Elevation of Kelly Bushing Above Mean Sea Level
EGL   .m         -230.10                          :Elevation of Ground Level Above Mean Sea Level
EDF   .m         28.70                            :Elevation of Derrick Floor Above Mean Sea Level
~Curve Information Block
#MNEM.UNIT       API Code            Curve    Description
#--------        --------------      -----    -------------------
DEPT  .M                             :0       Index - True Vertical Depth from SRD (MSL)
DTCO  .US/F                          :1       Delta-T Compressional - Raw (used for generation of synthetics only)        
DTCO  .US/F                          :2       Delta-T Compressional - Calibrated (used for depth conversion only)        
DTSM  .US/F                          :3       Delta-T Shear                 
GR    .GAPI                          :4       Gamma Ray                     
NPHI  .V/V                           :5       Thermal Neutron Porosity (original Ratio Method) in Selected Lithology
RHOB  .G/C3                          :6       Bulk Density                  
RT    .OHMM                          :7       True Resistivity              
SVEL  .M/S                           :8       Sonic Velocity - From Calibrated DTCO               
SVEL  .M/S                           :9       Sonic Velocity - From Raw DTCO               
~Ascii Data Section
# ...
   1442.00880     108.98716     117.33895    -999.25000      72.38544    -999.25000       2.45000       0.54527    2597.60303    2797.92798 
   1442.16120     108.86903     117.21992    -999.25000      73.60856    -999.25000       2.45000       0.53582    2600.24072    2800.98853 
   1442.31360     108.70928     117.03036    -999.25000      75.69447    -999.25000       2.45000       0.53604    2604.45239    2805.87622 
   1442.46600     108.45534     116.72929    -999.25000      74.02798    -999.25000       2.45000       0.54121    2611.16992    2813.67432 
   1442.61840     108.22719     116.55451    -999.25000      68.95410    -999.25000       2.45000       0.54601    2615.08545    2818.22119 
   1442.77080     108.20415     116.64254    -999.25000      63.95499    -999.25000       2.45000       0.55102    2613.11182    2815.92944 
   1442.92320     108.38029     116.88319    -999.25000      62.15937    -999.25000       2.45000       0.56001    2607.73193    2809.68262 
   1443.07560     108.70670     117.27238    -999.25000      67.42661    -999.25000       2.45000       0.56583    2599.07764    2799.63892 
   1443.22800     109.21976     117.87611    -999.25000      75.71297    -999.25000       2.45000       0.56922    2585.76562    2784.19946 
   1443.38040     109.86449     118.55084    -999.25000      80.05022    -999.25000       2.45000       0.56656    2571.04883    2767.14429 
   1443.53280     110.43703     119.04858    -999.25000      81.00047    -999.25000       2.45000       0.56161    2560.29907    2754.69678 
   1443.68520     110.76668     119.25519    -999.25000      83.63729    -999.25000       2.45000       0.56246    2555.86377    2749.56274 
   1443.83760     110.90702     119.34702    -999.25000      89.01104    -999.25000       2.45000       0.57085    2553.89697    2747.28662 
   1443.99000     111.07529     119.57124    -999.25000      95.12379    -999.25000       2.45000       0.57560    2549.10815    2741.74561 
   1444.14240     111.28291     119.76671    -999.25000      97.11355    -999.25000       2.45000       0.58021    2544.94751    2736.93335 
   1444.29480     111.32986     119.70495    -999.25000      90.63759    -999.25000       2.45000       0.58302    2546.26050    2738.45215 
   1444.44720     111.15313     119.44406    -999.25000      79.61366    -999.25000       2.45000       0.58751    2551.82227    2744.88599 
   1444.59960     110.74431     118.92695    -999.25000      72.96232    -999.25000       2.45000       0.58470    2562.91797    2757.72827 
   1444.75200     110.00925     118.03236    -999.25000      69.71686    -999.25000       2.45000       0.57395    2582.34277    2780.23120 
   1444.90440     109.03100     116.99286    -999.25000      68.06722    -999.25000       2.45000       0.56160    2605.28711    2806.84521 
   1445.05680     108.11311     116.16399    -999.25000      67.64786    -999.25000       2.45000       0.55077    2623.87671    2828.43408 
   1445.20920     107.57375     115.83655    -999.25000      71.16465    -999.25000       2.45000       0.54546    2631.29370    2837.05493 
   1445.36160     107.51724     115.97838    -999.25000      78.14383    -999.25000       2.45000       0.54224    2628.07617    2833.31445 
   1445.51400     107.73341     116.24896    -999.25000      87.87529    -999.25000       2.45000       0.54545    2621.95898    2826.20581 
   1445.66640     107.90315     116.34489    -999.25000      97.56988    -999.25000       2.45000       0.54946    2619.79712    2823.69434 
   1445.81880     107.96146     116.37565    -999.25000      95.00262    -999.25000       2.45000       0.55546    2619.10474    2822.88965 
   1445.97120     108.04395     116.49602    -999.25000      84.76292    -999.25000       2.45000       0.55936    2616.39844    2819.74658 
   1446.12360     108.20573     116.68810    -999.25000      83.74187    -999.25000       2.45000       0.56877    2612.09155    2814.74487 
   1446.27600     108.63058     117.28335    -999.25000      88.98523    -999.25000       2.45000       0.57717    2598.83423    2799.35669 
   1446.42840     109.53287     118.41038    -999.25000      92.04226    -999.25000       2.45000       0.58086    2574.09888    2770.67773 
   1446.58080     110.64395     119.50979    -999.25000      92.78882    -999.25000       2.45000       0.58119    2550.41870    2743.26221 
   1446.73320     111.62766     120.40881    -999.25000      93.45980    -999.25000       2.45000       0.58523    2531.37622    2721.24341 
   1446.88560     112.57812     121.39691    -999.25000      96.32016    -999.25000       2.45000       0.58908    2510.77222    2697.44727 
   1447.03800     113.23091     121.80426    -999.25000      95.79772    -999.25000       2.45000       0.59535    2502.37549    2687.75806 
   1447.19040     112.80665     120.77126    -999.25000      90.02015    -999.25000       2.45000       0.59925    2523.77905    2712.46606 
   1447.34280     111.20876     118.75986    -999.25000      83.24762    -999.25000       2.45000       0.59579    2566.52368    2761.90356 
   1447.49520     109.16255     116.68819    -999.25000      78.52092    -999.25000       2.45000       0.58964    2612.08960    2814.74268 
   1447.64760     107.24337     114.88062    -999.25000      74.40732    -999.25000       2.45000       0.58836    2653.18896    2862.52466 
   1447.80000     105.95457     113.97157    -999.25000      74.44185    -999.25000       2.45000       0.59017    2674.35132    2887.17334 
   1447.95240     105.44239     113.74989    -999.25000      74.95756    -999.25000       2.45000       0.58577    2679.56299    2893.24878 
   1448.10480     105.23217     113.54806    -999.25000      73.70332    -999.25000       2.45000       0.58176    2684.32593    2898.80249 
   1448.25720     104.96312     113.22981    -999.25000      71.21462    -999.25000       2.45000       0.58540    2691.87061    2907.60303 
   1448.40960     104.60344     112.83980    -999.25000      68.85809    -999.25000       2.45000       0.58943    2701.17456    2918.46094 
   1448.56200     104.66313     113.22868    -999.25000      70.88540    -999.25000       2.45000       0.58670    2691.89746    2907.63452 
   1448.71440     105.78606     114.88894    -999.25000      76.88963    -999.25000       2.45000       0.58935    2652.99707    2862.30127 
   1448.86680     107.37933     116.43317    -999.25000      84.72720    -999.25000       2.45000       0.59713    2617.81079    2821.38696 
   1449.01920     108.34090     116.96822    -999.25000      89.78419    -999.25000       2.45000       0.60285    2605.83569    2807.48218 
   1449.17160     108.89516     117.53654    -999.25000      89.68920    -999.25000       2.45000       0.60992    2593.23633    2792.86255 
   1449.32400     109.52885     118.21809    -999.25000      87.69794    -999.25000       2.45000       0.60820    2578.28564    2775.52930 
   1449.47640     109.29808     117.31950    -999.25000      83.46272    -999.25000       2.45000       0.59659    2598.03369    2798.42773 
   1449.62880     107.22158     114.38078    -999.25000      79.38372    -999.25000       2.45000       0.58880    2664.78345    2876.02563 
   1449.78120     104.69545     112.15666    -999.25000      77.01866    -999.25000       2.45000       0.57741    2717.62720    2937.67627 
   1449.93360     103.79382     112.22309    -999.25000      74.33992    -999.25000       2.45000       0.55217    2716.01855    2935.79663 
   1450.08600     104.57919     113.53471    -999.25000      72.79179    -999.25000       2.45000       0.53965    2684.64160    2899.17041 
   1450.23840     106.03243     115.09162    -999.25000      71.38292    -999.25000       2.45000       0.54381    2648.32471    2856.86353 
   1450.39080     107.40575     116.33054    -999.25000      67.88764    -999.25000       2.45000       0.54689    2620.12012    2824.06958 
   1450.54320     108.48659     117.29568    -999.25000      62.73687    -999.25000       2.45000       0.54502    2598.56104    2799.03979 
