~Version Information
VERS  .          2.0                              :CWLS Log Ascii Standard - Version 2.0
WRAP  .          NO                               :One line per depth step
~Well Information Block
#MNEM.UNIT       Data Type                        Information
#---------       ---------                        -------------------------------
STRT  .M         0.00000                          :START DEPTH
STOP  .M         2946.19700                       :STOP DEPTH
STEP  .M          0.15240                         :INCREMENT
NULL  .          -999.25                          :NULL DATA VALUE
COMP  .          Chevron Australia Pty Ltd        :COMPANY
WELL  .          WST-3A-ST1                       :WELL
FLD   .          Wheatstone                       :FIELD
LOC   .          -                                :LOCATION
PROV  .          Western Australia                :PROVINCE
STAT  .          Western Australia                :STATE
CNTY  .          -                                :COUNTY
CTRY  .          Australia                        :COUNTRY
DATE  .          5-8th Oct 2014                   :DATE
UWI   .          WST-3A-ST1                       :UNIQUE WELL UWI
LIC   .          -                                :LICENSE NUMBER
API   .          -                                :API NUMBER
SRVC  .          Schlumbegre                      :SERVICE COMPANY
~Parameter Information Block
#MNEM.UNIT       Value                            Description
#---------       ---------                        -------------
LONG  .DEG       121.295670                       :Well Surface Location
LATI  .DEG       -19.810825                       :Well Surface Location
XWELL .M         321485.7400000                   :X-coordinate of Well Head
YWELL .M         7808552.550000                   :Y-coordinate of Well Head
PDAT  .          MSL                              :Permanent Datum               
EPD   .m         0.00                             :Elevation of Permanent Datum (PDAT) above Mean Sea Level
LMF   .          DF                               :Logging Measured From (Name of Working Datum)
APD   .m         28.70                            :Elevation of Working Datum (LMF) Above Permanent Datum
EKB   .m         0.00                             :Elevation of Kelly Bushing Above Mean Sea Level
EGL   .m         -230.10                          :Elevation of Ground Level Above Mean Sea Level
EDF   .m         28.70                            :Elevation of Derrick Floor Above Mean Sea Level
~Curve Information Block
#MNEM.UNIT       API Code            Curve    Description
#--------        --------------      -----    -------------------
DEPT  .M                             :0       Index - True Vertical Depth from SRD (MSL)
DTCO  .US/F                          :1       Delta-T Compressional - Raw (used for generation of synthetics only)        
DTCO  .US/F                          :2       Delta-T Compressional - Calibrated (used for depth conversion only)        
DTSM  .US/F                          :3       Delta-T Shear                 
GR    .GAPI                          :4       Gamma Ray                     
NPHI  .V/V                           :5       Thermal Neutron Porosity (original Ratio Method) in Selected Lithology
RHOB  .G/C3                          :6       Bulk Density                  
RT    .OHMM                          :7       True Resistivity              
SVEL  .M/S                           :8       Sonic Velocity - From Calibrated DTCO               
SVEL  .M/S                           :9       Sonic Velocity - From Raw DTCO               
~Ascii Data Section
# ...
   2041.39800      94.69916     104.49332     177.91223      50.69915       0.35543       2.22032       0.64737    2916.93262    3127.35718 
   2041.55040      98.94426     107.05998     187.84210      54.18031       0.36757       2.21988       0.63481    2847.00220    3047.11206 
   2041.70280      99.81797     106.69421     196.38086      56.17624       0.37770       2.21669       0.62308    2856.76245    3058.29541 
   2041.85520      98.76243     105.13366     199.56551      57.55023       0.37187       2.24416       0.61299    2899.16650    3106.94458 
   2042.00760      97.08913     103.37782     197.47600      56.92313       0.35438       2.27647       0.63243    2948.40820    3163.56592 
   2042.16000      95.56989     102.03181     192.02585      54.06571       0.34775       2.26172       0.68068    2987.30371    3208.38843 
   2042.31240      94.55445     101.25838     186.07034      52.10497       0.35489       2.21841       0.73094    3010.12109    3234.72314 
   2042.46480      94.17561     101.16843     183.74657      52.54168       0.36105       2.19662       0.70310    3012.79761    3237.81421 
   2042.61720      94.51891     101.82893     186.13211      53.32551       0.35405       2.22268       0.64163    2993.25537    3215.25488 
   2042.76960      94.91046     102.02357     190.00110      52.17640       0.33190       2.27778       0.60289    2987.54492    3208.66650 
   2042.92200      94.38372     100.96869     192.19113      51.91204       0.30549       2.29799       0.63940    3018.75757    3244.69873 
   2043.07440      94.28790     101.57504     193.03464      52.61600       0.30319       2.25926       0.69284    3000.73730    3223.88892 
   2043.22680      96.21651     104.47172     195.03883      55.70053       0.33284       2.20573       0.70251    2917.53613    3128.05078 
   2043.37920      98.58033     106.44543     199.93665      59.61067       0.36678       2.17342       0.66214    2863.43921    3065.94873 
   2043.53160      99.67160     106.89062     205.50272      61.29502       0.37779       2.16469       0.63082    2851.51294    3052.28003 
   2043.68400      99.39307     106.08221     205.59003      57.66037       0.37099       2.17594       0.64347    2873.24341    3077.19116 
   2043.83640      98.14047     104.50441     198.85146      50.37388       0.35423       2.19419       0.68989    2916.62354    3127.00195 
   2043.98880      96.74129     103.23602     191.69081      46.50073       0.33975       2.19950       0.65486    2952.45801    3168.22900 
   2044.14120      95.95824     102.80831     189.81409      46.96764       0.34373       2.20064       0.57942    2964.74072    3182.37695 
   2044.29360      95.68251     102.64383     191.60748      47.18273       0.35578       2.21813       0.56325    2969.49170    3187.85181 
   2044.44600      95.42681     102.32136     190.92523      47.36707       0.35777       2.23677       0.62637    2978.85034    3198.63965 
   2044.59840      95.29351     102.32655     186.99371      48.11959       0.35565       2.23268       0.70963    2978.69897    3198.46558 
   2044.75080      95.44505     102.58524     185.40381      48.34916       0.35760       2.21144       0.71589    2971.18774    3189.80640 
   2044.90320      95.42470     102.36060     187.58627      50.68570       0.37182       2.19802       0.68669    2977.70850    3197.32275 
   2045.05560      94.56676     101.03899     188.11057      52.44901       0.37872       2.20827       0.64802    3016.65698    3242.27222 
   2045.20800      93.08714      99.44366     184.01006      49.66387       0.35063       2.21184       0.67945    3065.05176    3298.24390 
   2045.36040      91.90277      98.56019     178.28944      45.80432       0.31839       2.17618       0.71991    3092.52661    3330.07959 
   2045.51280      91.43004      98.38818     175.98422      43.03632       0.31577       2.14178       0.66472    3097.93311    3336.34937 
   2045.66520      91.51640      98.66370     178.80708      43.85910       0.34045       2.15838       0.62941    3089.28198    3326.31787 
   2045.81760      91.96858      99.24523     183.07175      49.61658       0.35883       2.21056       0.71783    3071.18018    3305.34106 
   2045.97000      92.72541     100.13039     186.20480      54.31396       0.35423       2.24874       0.77538    3044.03076    3273.91479 
   2046.12240      93.63468     101.05733     189.60045      57.84856       0.34781       2.25555       0.73889    3016.10962    3241.63989 
   2046.27480      94.10554     101.19426     191.53052      59.91394       0.34521       2.25000       0.72793    3012.02856    3236.92603 
   2046.42720      93.56248     100.15337     188.70009      59.38906       0.34407       2.22532       0.75970    3043.33252    3273.10742 
   2046.57960      92.15328      98.47450     184.10060      56.19989       0.33998       2.18107       0.77198    3095.21753    3333.19995 
   2046.73200      90.63415      97.07232     182.07649      50.02075       0.33979       2.16111       0.69794    3139.92700    3385.10669 
   2046.88440      89.41342      95.98444     179.83408      45.00127       0.34785       2.19196       0.64286    3175.51440    3426.50562 
   2047.03680      88.71471      95.57066     174.31068      43.95652       0.34295       2.24454       0.69665    3189.26318    3442.51904 
   2047.18920      88.97677      96.32752     169.87199      45.79146       0.32059       2.26519       0.80145    3164.20459    3413.34082 
   2047.34160      90.30598      98.07578     171.48058      48.52972       0.29918       2.25670       0.83256    3107.80127    3347.79761 
   2047.49400      92.10629      99.91419     177.63501      51.27876       0.30422       2.26210       0.81080    3050.61768    3281.53540 
   2047.64640      93.07374     100.24397     182.43886      51.53883       0.33210       2.27122       0.78504    3040.58179    3269.92554 
   2047.79880      91.32990      96.98194     181.80435      48.22787       0.35498       2.25320       0.73262    3142.85327    3388.50806 
   2047.95120      86.01263      90.15996     176.74701      44.16819       0.36107       2.24054       0.66380    3380.65820    3666.58569 
   2048.10360      81.39092      87.14916     168.10988      42.05128       0.33176       2.28095       0.82357    3497.45190    3804.37329 
   2048.25600      83.06035      92.24519     157.69388      41.28460       0.26684       2.33106       1.03628    3304.23706    3576.86255 
   2048.40840      88.09726      97.23882     153.87392      41.02286       0.22081       2.31988       1.14972    3134.55078    3378.85889 
   2048.56080      91.30898      99.14591     161.33907      43.49073       0.23534       2.26046       1.08736    3074.25684    3308.90503 
   2048.71320      93.44415     101.44808     175.05766      48.66183       0.29093       2.20601       0.86979    3004.49243    3228.22412 
   2048.86560      95.64491     103.57458     187.88467      53.84964       0.34153       2.19454       0.73720    2942.80713    3157.11841 
   2049.01800      96.98358     104.33646     196.04900      57.95572       0.37523       2.22027       0.77771    2921.31812    3132.39868 
   2049.17040      97.45789     104.60021     199.92619      60.30174       0.39921       2.23245       0.79631    2913.95190    3123.93115 
   2049.32280      97.64068     104.72373     201.60492      61.07189       0.40006       2.21230       0.73944    2910.51489    3119.98169 
   2049.47520      97.28542     104.01793     201.34319      59.23738       0.39231       2.19910       0.70975    2930.26416    3142.68652 
   2049.62760      96.07648     102.44062     198.30542      58.47257       0.38329       2.22744       0.78480    2975.38232    3194.64136 
   2049.78000      95.11295     101.92648     194.22754      59.74785       0.35415       2.26541       0.84097    2990.39062    3211.94971 
   2049.93240      95.94552     103.74503     193.62164      61.24559       0.32468       2.25207       0.77012    2937.97192    3151.55396 
