~Version Information
VERS  .          2.0                              :CWLS Log Ascii Standard - Version 2.0
WRAP  .          NO                               :One line per depth step
~Well Information Block
#MNEM.UNIT       Data Type                        Information
#---------       ---------                        -------------------------------
STRT  .M         0.00000                          :START DEPTH
STOP  .M         2946.19700                       :STOP DEPTH
STEP  .M          0.15240                         :INCREMENT
NULL  .          -999.25                          :NULL DATA VALUE
COMP  .          Chevron Australia Pty Ltd        :COMPANY
WELL  .          WST-3A-ST1                       :WELL
FLD   .          Wheatstone                       :FIELD
LOC   .          -                                :LOCATION
PROV  .          Western Australia                :PROVINCE
STAT  .          Western Australia                :STATE
CNTY  .          -                                :COUNTY
CTRY  .          Australia                        :COUNTRY
DATE  .          5-8th Oct 2014                   :DATE
UWI   .          WST-3A-ST1                       :UNIQUE WELL UWI
LIC   .          -                                :LICENSE NUMBER
API   .          -                                :API NUMBER
SRVC  .          Schlumbegre                      :SERVICE COMPANY
~Parameter Information Block
#MNEM.UNIT       Value                            Description
#---------       ---------                        -------------
LONG  .DEG       121.295670                       :Well Surface Location
LATI  .DEG       -19.810825                       :Well Surface Location
XWELL .M         321485.7400000                   :X-coordinate of Well Head
YWELL .M         7808552.550000                   :Y-coordinate of Well Head
PDAT  .          MSL                              :Permanent Datum               
EPD   .m         0.00                             :Elevation of Permanent Datum (PDAT) above Mean Sea Level
LMF   .          DF                               :Logging Measured From (Name of Working Datum)
APD   .m         28.70                            :Elevation of Working Datum (LMF) Above Permanent Datum
EKB   .m         0.00                             :Elevation of Kelly Bushing Above Mean Sea Level
EGL   .m         -230.10                          :Elevation of Ground Level Above Mean Sea Level
EDF   .m         28.70                            :Elevation of Derrick Floor Above Mean Sea Level
~Curve Information Block
#MNEM.UNIT       API Code            Curve    Description
#--------        --------------      -----    -------------------
DEPT  .M                             :0       Index - True Vertical Depth from SRD (MSL)
DTCO  .US/F                          :1       Delta-T Compressional - Raw (used for generation of synthetics only)        
DTCO  .US/F                          :2       Delta-T Compressional - Calibrated (used for depth conversion only)        
DTSM  .US/F                          :3       Delta-T Shear                 
GR    .GAPI                          :4       Gamma Ray                     
NPHI  .V/V                           :5       Thermal Neutron Porosity (original Ratio Method) in Selected Lithology
RHOB  .G/C3                          :6       Bulk Density                  
RT    .OHMM                          :7       True Resistivity              
SVEL  .M/S                           :8       Sonic Velocity - From Calibrated DTCO               
SVEL  .M/S                           :9       Sonic Velocity - From Raw DTCO               
~Ascii Data Section
# ...
    851.30640     130.79901     133.54173    -999.25000      60.38691    -999.25000       2.45000       0.45703    2282.43262    2330.64331 
    851.45880     130.79134     133.56252    -999.25000      60.36008    -999.25000       2.45000       0.45567    2282.07739    2330.27295 
    851.61120     130.92511     133.77898    -999.25000      60.32150    -999.25000       2.45000       0.45718    2278.38501    2326.42310 
    851.76360     131.18753     134.07503    -999.25000      60.30576    -999.25000       2.45000       0.46387    2273.35400    2321.17798 
    851.91600     131.31961     134.08710    -999.25000      60.15105    -999.25000       2.45000       0.46732    2273.14941    2320.96460 
    852.06840     131.07443     133.65366    -999.25000      59.50217    -999.25000       2.45000       0.46677    2280.52124    2328.65039 
    852.22080     130.49736     132.97147    -999.25000      58.62581    -999.25000       2.45000       0.46613    2292.22119    2340.85059 
    852.37320     129.88298     132.40672    -999.25000      58.18847    -999.25000       2.45000       0.47098    2301.99805    2351.04761 
    852.52560     129.56900     132.27625    -999.25000      57.66807    -999.25000       2.45000       0.47394    2304.26855    2353.41626 
    852.67800     129.62816     132.47420    -999.25000      56.20199    -999.25000       2.45000       0.47383    2300.82544    2349.82471 
    852.83040     129.78284     132.59720    -999.25000      54.54408    -999.25000       2.45000       0.47323    2298.69116    2347.59839 
    852.98280     129.78453     132.51013    -999.25000      54.12816    -999.25000       2.45000       0.47754    2300.20142    2349.17383 
    853.13520     129.69611     132.42070    -999.25000      55.03211    -999.25000       2.45000       0.48433    2301.75488    2350.79419 
    853.28760     129.65131     132.40857    -999.25000      56.21600    -999.25000       2.45000       0.48604    2301.96582    2351.01416 
    853.44000     129.69298     132.48962    -999.25000      56.96806    -999.25000       2.45000       0.48904    2300.55737    2349.54517 
    853.59240     129.65280     132.36072    -999.25000      57.60675    -999.25000       2.45000       0.49324    2302.79810    2351.88208 
    853.74480     129.25244     131.76169    -999.25000      59.25949    -999.25000       2.45000       0.49311    2313.26733    2362.80347 
    853.89720     128.68999     131.22600    -999.25000      62.00143    -999.25000       2.45000       0.49052    2322.71045    2372.65625 
    854.04960     128.32086     130.97878    -999.25000      63.95404    -999.25000       2.45000       0.49295    2327.09448    2377.23145 
    854.20200     128.07350     130.73132    -999.25000      63.48384    -999.25000       2.45000       0.49695    2331.49951    2381.82812 
    854.35440     127.91217     130.63301    -999.25000      60.97916    -999.25000       2.45000       0.50047    2333.25391    2383.65918 
    854.50680     128.09933     131.02911    -999.25000      58.80053    -999.25000       2.45000       0.50247    2326.20044    2376.29834 
    854.65920     128.61148     131.62617    -999.25000      58.43282    -999.25000       2.45000       0.50376    2315.64868    2365.28833 
    854.81160     128.87592     131.64719    -999.25000      57.60724    -999.25000       2.45000       0.50923    2315.27930    2364.90283 
    854.96400     128.46947     130.92790    -999.25000      54.42511    -999.25000       2.45000       0.50756    2327.99878    2378.17480 
    855.11640     127.73908     130.18939    -999.25000      51.67424    -999.25000       2.45000       0.50407    2341.20459    2391.95776 
    855.26880     127.16082     129.72839    -999.25000      51.71209    -999.25000       2.45000       0.50560    2349.52417    2400.64233 
    855.42120     126.78856     129.42107    -999.25000      54.72503    -999.25000       2.45000       0.50781    2355.10352    2406.46753 
    855.57360     126.68526     129.46710    -999.25000      60.07783    -999.25000       2.45000       0.51175    2354.26587    2405.59302 
    855.72600     126.86333     129.74179    -999.25000      64.31533    -999.25000       2.45000       0.50565    2349.28149    2400.38916 
    855.87840     127.10523     129.95970    -999.25000      65.14664    -999.25000       2.45000       0.50383    2345.34229    2396.27686 
    856.03080     127.32926     130.18820    -999.25000      63.90968    -999.25000       2.45000       0.51159    2341.22583    2391.97998 
    856.18320     127.51276     130.33876    -999.25000      61.73465    -999.25000       2.45000       0.50830    2338.52148    2389.15698 
    856.33560     127.50416     130.21368    -999.25000      58.51092    -999.25000       2.45000       0.50829    2340.76782    2391.50171 
    856.48800     127.21989     129.81291    -999.25000      55.28052    -999.25000       2.45000       0.51388    2347.99438    2399.04541 
    856.64040     126.87437     129.50784    -999.25000      53.00566    -999.25000       2.45000       0.51759    2353.52539    2404.82007 
    856.79280     126.86232     129.71024    -999.25000      51.20986    -999.25000       2.45000       0.51971    2349.85303    2400.98584 
    856.94520     127.23683     130.21072    -999.25000      49.90034    -999.25000       2.45000       0.52040    2340.82104    2391.55737 
    857.09760     127.67024     130.59503    -999.25000      49.41644    -999.25000       2.45000       0.52233    2333.93262    2384.36743 
    857.25000     127.93537     130.77293    -999.25000      49.48713    -999.25000       2.45000       0.52274    2330.75757    2381.05396 
    857.40240     128.06651     130.86987    -999.25000      50.50879    -999.25000       2.45000       0.51681    2329.03101    2379.25220 
    857.55480     128.16974     130.97769    -999.25000      53.42895    -999.25000       2.45000       0.51056    2327.11401    2377.25146 
    857.70720     128.21201     130.97198    -999.25000      57.33497    -999.25000       2.45000       0.50960    2327.21533    2377.35718 
    857.85960     128.04774     130.69168    -999.25000      60.46454    -999.25000       2.45000       0.50745    2332.20679    2382.56616 
    858.01200     127.64687     130.20256    -999.25000      62.13147    -999.25000       2.45000       0.50389    2340.96777    2391.71045 
    858.16440     127.10738     129.62622    -999.25000      62.24550    -999.25000       2.45000       0.50361    2351.37622    2402.57593 
    858.31680     126.45866     128.92453    -999.25000      61.05647    -999.25000       2.45000       0.51511    2364.17383    2415.93872 
    858.46920     125.69715     128.11923    -999.25000      59.27462    -999.25000       2.45000       0.52670    2379.03394    2431.45874 
    858.62160     124.93324     127.38560    -999.25000      57.12864    -999.25000       2.45000       0.52994    2392.73511    2445.77222 
    858.77400     124.28103     126.79298    -999.25000      54.19038    -999.25000       2.45000       0.52398    2403.91846    2457.45801 
    858.92640     123.77614     126.35229    -999.25000      49.99265    -999.25000       2.45000       0.51759    2412.30273    2466.22070 
    859.07880     123.52216     126.23495    -999.25000      44.79629    -999.25000       2.45000       0.51655    2414.54517    2468.56445 
    859.23120     123.68556     126.60383    -999.25000      41.58464    -999.25000       2.45000       0.51592    2407.51001    2461.21167 
    859.38360     124.39252     127.55822    -999.25000      41.95079    -999.25000       2.45000       0.50750    2389.49707    2442.38916 
    859.53600     125.37920     128.56853    -999.25000      44.48064    -999.25000       2.45000       0.50471    2370.72021    2422.77515 
    859.68840     125.79379     128.54713    -999.25000      49.02451    -999.25000       2.45000       0.50403    2371.11475    2423.18726 
    859.84080     125.30694     127.71964    -999.25000      54.03517    -999.25000       2.45000       0.49382    2386.47729    2439.23413 
