~Version Information
VERS  .          2.0                              :CWLS Log Ascii Standard - Version 2.0
WRAP  .          NO                               :One line per depth step
~Well Information Block
#MNEM.UNIT       Data Type                        Information
#---------       ---------                        -------------------------------
STRT  .M         0.00000                          :START DEPTH
STOP  .M         2946.19700                       :STOP DEPTH
STEP  .M          0.15240                         :INCREMENT
NULL  .          -999.25                          :NULL DATA VALUE
COMP  .          Chevron Australia Pty Ltd        :COMPANY
WELL  .          WST-3A-ST1                       :WELL
FLD   .          Wheatstone                       :FIELD
LOC   .          -                                :LOCATION
PROV  .          Western Australia                :PROVINCE
STAT  .          Western Australia                :STATE
CNTY  .          -                                :COUNTY
CTRY  .          Australia                        :COUNTRY
DATE  .          5-8th Oct 2014                   :DATE
UWI   .          WST-3A-ST1                       :UNIQUE WELL UWI
LIC   .          -                                :LICENSE NUMBER
API   .          -                                :API NUMBER
SRVC  .          Schlumbegre                      :SERVICE COMPANY
~Parameter Information Block
#MNEM.UNIT       Value                            Description
#---------       ---------                        -------------
LONG  .DEG       121.295670                       :Well Surface Location
LATI  .DEG       -19.810825                       :Well Surface Location
XWELL .M         321485.7400000                   :X-coordinate of Well Head
YWELL .M         7808552.550000                   :Y-coordinate of Well Head
PDAT  .          MSL                              :Permanent Datum               
EPD   .m         0.00                             :Elevation of Permanent Datum (PDAT) above Mean Sea Level
LMF   .          DF                               :Logging Measured From (Name of Working Datum)
APD   .m         28.70                            :Elevation of Working Datum (LMF) Above Permanent Datum
EKB   .m         0.00                             :Elevation of Kelly Bushing Above Mean Sea Level
EGL   .m         -230.10                          :Elevation of Ground Level Above Mean Sea Level
EDF   .m         28.70                            :Elevation of Derrick Floor Above Mean Sea Level
~Curve Information Block
#MNEM.UNIT       API Code            Curve    Description
#--------        --------------      -----    -------------------
DEPT  .M                             :0       Index - True Vertical Depth from SRD (MSL)
DTCO  .US/F                          :1       Delta-T Compressional - Raw (used for generation of synthetics only)        
DTCO  .US/F                          :2       Delta-T Compressional - Calibrated (used for depth conversion only)        
DTSM  .US/F                          :3       Delta-T Shear                 
GR    .GAPI                          :4       Gamma Ray                     
NPHI  .V/V                           :5       Thermal Neutron Porosity (original Ratio Method) in Selected Lithology
RHOB  .G/C3                          :6       Bulk Density                  
RT    .OHMM                          :7       True Resistivity              
SVEL  .M/S                           :8       Sonic Velocity - From Calibrated DTCO               
SVEL  .M/S                           :9       Sonic Velocity - From Raw DTCO               
~Ascii Data Section
# ...
   1294.33320     120.64618     128.97897    -999.25000      61.29423    -999.25000       2.45000       0.36253    2363.17578    2527.82910 
   1294.48560     120.52615     128.88954    -999.25000      65.54705    -999.25000       2.45000       0.36056    2364.81567    2529.70508 
   1294.63800     120.72339     129.29662    -999.25000      70.46098    -999.25000       2.45000       0.35588    2357.37012    2521.18701 
   1294.79040     121.10149     129.65349    -999.25000      72.53854    -999.25000       2.45000       0.35466    2350.88159    2513.76660 
   1294.94280     121.31920     129.76935    -999.25000      68.53035    -999.25000       2.45000       0.35398    2348.78271    2511.36719 
   1295.09520     121.41871     129.85690    -999.25000      61.20699    -999.25000       2.45000       0.35196    2347.19897    2509.55688 
   1295.24760     121.58947     130.08856    -999.25000      53.31867    -999.25000       2.45000       0.35371    2343.01929    2504.77905 
   1295.40000     121.75599     130.20741    -999.25000      50.80685    -999.25000       2.45000       0.35888    2340.88062    2502.33545 
   1295.55240     121.62356     129.89104    -999.25000      55.06702    -999.25000       2.45000       0.36177    2346.58228    2508.85132 
   1295.70480     121.30730     129.57487    -999.25000      59.08250    -999.25000       2.45000       0.36343    2352.30786    2515.39746 
   1295.85720     121.15307     129.53915    -999.25000      60.33115    -999.25000       2.45000       0.36336    2352.95654    2516.13916 
   1296.00960     121.10490     129.48189    -999.25000      57.36899    -999.25000       2.45000       0.36760    2353.99707    2517.32910 
   1296.16200     120.99200     129.32826    -999.25000      54.51941    -999.25000       2.45000       0.36970    2356.79346    2520.52734 
   1296.31440     120.83600     129.17052    -999.25000      57.69508    -999.25000       2.45000       0.36987    2359.67163    2523.81958 
   1296.46680     120.65549     128.97334    -999.25000      63.07189    -999.25000       2.45000       0.37227    2363.27905    2527.94702 
   1296.61920     120.40455     128.68306    -999.25000      69.07623    -999.25000       2.45000       0.37413    2368.61011    2534.04761 
   1296.77160     120.05614     128.29210    -999.25000      72.02374    -999.25000       2.45000       0.37067    2375.82837    2542.31128 
   1296.92400     119.64020     127.85788    -999.25000      73.84070    -999.25000       2.45000       0.38205    2383.89697    2551.55249 
   1297.07640     119.21894     127.44611    -999.25000      77.08614    -999.25000       2.45000       0.39281    2391.59912    2560.37793 
   1297.22880     118.90570     127.20499    -999.25000      78.56863    -999.25000       2.45000       0.39478    2396.13257    2565.57446 
   1297.38120     118.74392     127.10128    -999.25000      76.92561    -999.25000       2.45000       0.38921    2398.08740    2567.81616 
   1297.53360     118.72498     127.14439    -999.25000      72.35114    -999.25000       2.45000       0.38919    2397.27441    2566.88403 
   1297.68600     118.80259     127.24726    -999.25000      67.34579    -999.25000       2.45000       0.39406    2395.33643    2564.66187 
   1297.83840     118.85867     127.26909    -999.25000      64.06993    -999.25000       2.45000       0.39769    2394.92578    2564.19092 
   1297.99080     118.83637     127.21449    -999.25000      66.74266    -999.25000       2.45000       0.40284    2395.95361    2565.36938 
   1298.14320     118.67766     126.97958    -999.25000      71.41454    -999.25000       2.45000       0.40753    2400.38599    2570.45166 
   1298.29560     118.26412     126.43528    -999.25000      70.49987    -999.25000       2.45000       0.40657    2410.71973    2582.30493 
   1298.44800     117.72476     125.89954    -999.25000      67.38122    -999.25000       2.45000       0.40342    2420.97778    2594.07910 
   1298.60040     117.33540     125.61732    -999.25000      62.84373    -999.25000       2.45000       0.40966    2426.41699    2600.32471 
   1298.75280     117.01298     125.26546    -999.25000      58.68063    -999.25000       2.45000       0.41882    2433.23242    2608.15405 
   1298.90520     116.71761     125.01146    -999.25000      56.36976    -999.25000       2.45000       0.41963    2438.17651    2613.83496 
   1299.05760     116.61932     125.02713    -999.25000      53.35049    -999.25000       2.45000       0.40736    2437.87085    2613.48389 
   1299.21000     116.66399     125.09303    -999.25000      50.73373    -999.25000       2.45000       0.40558    2436.58643    2612.00781 
   1299.36240     116.57346     124.88801    -999.25000      50.06974    -999.25000       2.45000       0.40838    2440.58667    2616.60498 
   1299.51480     116.36696     124.68041    -999.25000      50.00790    -999.25000       2.45000       0.41374    2444.65015    2621.27661 
   1299.66720     116.31657     124.74511    -999.25000      49.40551    -999.25000       2.45000       0.41685    2443.38232    2619.81885 
   1299.81960     116.52883     125.06537    -999.25000      51.22575    -999.25000       2.45000       0.41305    2437.12549    2612.62720 
   1299.97200     116.81312     125.32333    -999.25000      55.44985    -999.25000       2.45000       0.41381    2432.10889    2606.86304 
   1300.12440     116.84635     125.19207    -999.25000      58.72009    -999.25000       2.45000       0.41993    2434.65894    2609.79297 
   1300.27680     116.65276     124.95286    -999.25000      59.95535    -999.25000       2.45000       0.41680    2439.31982    2615.14917 
   1300.42920     116.52373     124.90447    -999.25000      59.82782    -999.25000       2.45000       0.41872    2440.26489    2616.23535 
   1300.58160     116.63432     125.13143    -999.25000      61.71649    -999.25000       2.45000       0.42081    2435.83887    2611.14868 
   1300.73400     116.92307     125.46539    -999.25000      65.98569    -999.25000       2.45000       0.42005    2429.35522    2603.69946 
   1300.88640     117.15611     125.62457    -999.25000      70.39725    -999.25000       2.45000       0.42307    2426.27710    2600.16406 
   1301.03880     117.34495     125.83512    -999.25000      72.08288    -999.25000       2.45000       0.42468    2422.21729    2595.50220 
   1301.19120     117.54663     126.03032    -999.25000      71.16463    -999.25000       2.45000       0.42545    2418.46558    2591.19507 
   1301.34360     117.44534     125.71200    -999.25000      69.40462    -999.25000       2.45000       0.42596    2424.58960    2598.22632 
   1301.49600     116.98913     125.15486    -999.25000      66.99493    -999.25000       2.45000       0.42998    2435.38281    2610.62451 
   1301.64840     116.47060     124.66460    -999.25000      64.62073    -999.25000       2.45000       0.42944    2444.96021    2621.63306 
   1301.80080     116.09475     124.37248    -999.25000      63.72767    -999.25000       2.45000       0.42872    2450.70288    2628.23682 
   1301.95320     116.00056     124.42318    -999.25000      64.10102    -999.25000       2.45000       0.42788    2449.70435    2627.08813 
   1302.10560     116.22624     124.77694    -999.25000      62.69225    -999.25000       2.45000       0.42808    2442.75903    2619.10229 
   1302.25800     116.44248     124.89252    -999.25000      60.17846    -999.25000       2.45000       0.42564    2440.49829    2616.50391 
   1302.41040     116.30685     124.57300    -999.25000      58.09834    -999.25000       2.45000       0.42339    2446.75830    2623.70020 
   1302.56280     115.85746     124.02856    -999.25000      59.62059    -999.25000       2.45000       0.42268    2457.49829    2636.05396 
   1302.71520     115.38434     123.60764    -999.25000      62.49065    -999.25000       2.45000       0.42458    2465.86719    2645.68555 
   1302.86760     115.16608     123.53772    -999.25000      62.65059    -999.25000       2.45000       0.43033    2467.26270    2647.29199 
