~Version Information
VERS  .          2.0                              :CWLS Log Ascii Standard - Version 2.0
WRAP  .          NO                               :One line per depth step
~Well Information Block
#MNEM.UNIT       Data Type                        Information
#---------       ---------                        -------------------------------
STRT  .M         0.00000                          :START DEPTH
STOP  .M         2946.19700                       :STOP DEPTH
STEP  .M          0.15240                         :INCREMENT
NULL  .          -999.25                          :NULL DATA VALUE
COMP  .          Chevron Australia Pty Ltd        :COMPANY
WELL  .          WST-3A-ST1                       :WELL
FLD   .          Wheatstone                       :FIELD
LOC   .          -                                :LOCATION
PROV  .          Western Australia                :PROVINCE
STAT  .          Western Australia                :STATE
CNTY  .          -                                :COUNTY
CTRY  .          Australia                        :COUNTRY
DATE  .          5-8th Oct 2014                   :DATE
UWI   .          WST-3A-ST1                       :UNIQUE WELL UWI
LIC   .          -                                :LICENSE NUMBER
API   .          -                                :API NUMBER
SRVC  .          Schlumbegre                      :SERVICE COMPANY
~Parameter Information Block
#MNEM.UNIT       Value                            Description
#---------       ---------                        -------------
LONG  .DEG       121.295670                       :Well Surface Location
LATI  .DEG       -19.810825                       :Well Surface Location
XWELL .M         321485.7400000                   :X-coordinate of Well Head
YWELL .M         7808552.550000                   :Y-coordinate of Well Head
PDAT  .          MSL                              :Permanent Datum               
EPD   .m         0.00                             :Elevation of Permanent Datum (PDAT) above Mean Sea Level
LMF   .          DF                               :Logging Measured From (Name of Working Datum)
APD   .m         28.70                            :Elevation of Working Datum (LMF) Above Permanent Datum
EKB   .m         0.00                             :Elevation of Kelly Bushing Above Mean Sea Level
EGL   .m         -230.10                          :Elevation of Ground Level Above Mean Sea Level
EDF   .m         28.70                            :Elevation of Derrick Floor Above Mean Sea Level
~Curve Information Block
#MNEM.UNIT       API Code            Curve    Description
#--------        --------------      -----    -------------------
DEPT  .M                             :0       Index - True Vertical Depth from SRD (MSL)
DTCO  .US/F                          :1       Delta-T Compressional - Raw (used for generation of synthetics only)        
DTCO  .US/F                          :2       Delta-T Compressional - Calibrated (used for depth conversion only)        
DTSM  .US/F                          :3       Delta-T Shear                 
GR    .GAPI                          :4       Gamma Ray                     
NPHI  .V/V                           :5       Thermal Neutron Porosity (original Ratio Method) in Selected Lithology
RHOB  .G/C3                          :6       Bulk Density                  
RT    .OHMM                          :7       True Resistivity              
SVEL  .M/S                           :8       Sonic Velocity - From Calibrated DTCO               
SVEL  .M/S                           :9       Sonic Velocity - From Raw DTCO               
~Ascii Data Section
# ...
   2927.45160      96.25520     101.12228    -999.25000     184.09286    -999.25000       2.43190       1.74549    3014.17261    3160.87598 
   2927.60400      96.19483     100.71668    -999.25000     190.28746    -999.25000       2.43202       1.74822    3026.31104    3174.22778 
   2927.75640      95.78087     100.29660    -999.25000     184.35564    -999.25000       2.43215       1.76075    3038.98633    3188.17529 
   2927.90880      95.41162      99.96458    -999.25000     177.24606    -999.25000       2.43227       1.78522    3049.07983    3199.28589 
   2928.06120      94.76961      99.09554    -999.25000     174.58498    -999.25000       2.43239       1.81511    3075.81958    3228.73755 
   2928.21360      93.18819      96.99239    -999.25000     173.43840    -999.25000       2.43251       1.92962    3142.51440    3302.30835 
   2928.36600      90.78110      94.36272    -999.25000     168.32103    -999.25000       2.43263       2.04305    3230.08936    3399.15308 
   2928.51840      88.56228      92.44479    -999.25000     162.83369    -999.25000       2.43276       2.11531    3297.10327    3473.44629 
   2928.67080      87.34979      91.74894    -999.25000     163.20670    -999.25000       2.43288       2.12865    3322.10938    3501.20996 
   2928.82320      87.05803      91.75312    -999.25000     163.47859    -999.25000       2.43300       2.07836    3321.95776    3501.04175 
   2928.97560      87.22327      92.03632    -999.25000     163.00320    -999.25000       2.43312       2.03470    3311.73633    3489.69043 
   2929.12800      87.77066      92.77718    -999.25000     166.47417    -999.25000       2.43324       2.00891    3285.29028    3460.33862 
   2929.28040      88.51886      93.53076    -999.25000     177.87073    -999.25000       2.43337       1.98958    3258.82104    3430.98608 
   2929.43280      88.94930      93.72453    -999.25000     182.48921    -999.25000       2.43349       1.94656    3252.08350    3423.51831 
   2929.58520      88.85809      93.42461    -999.25000     174.42975    -999.25000       2.43361       1.92170    3262.52344    3435.09033 
   2929.73760      88.29352      92.66623    -999.25000     168.63457    -999.25000       2.43373       1.96757    3289.22412    3464.70288 
   2929.89000      87.47439      91.80261    -999.25000     167.51262    -999.25000       2.43385       1.97103    3320.16699    3499.05273 
   2930.04240      86.88354      91.41152    -999.25000     171.28302    -999.25000       2.43398       2.01473    3334.37183    3514.83301 
   2930.19480      86.65491      91.30187    -999.25000     170.62241    -999.25000       2.43410       2.06879    3338.37622    3519.28296 
   2930.34720      86.44839      91.02441    -999.25000     164.61617    -999.25000       2.43422       2.10101    3348.55249    3530.59399 
   2930.49960      86.10631      90.63501    -999.25000     160.82632    -999.25000       2.43434       2.11151    3362.93872    3546.59082 
   2930.65200      85.87212      90.51449    -999.25000     161.83234    -999.25000       2.43446       2.12549    3367.41675    3551.57129 
   2930.80440      85.85590      90.57465    -999.25000     167.81708    -999.25000       2.43459       2.14373    3365.18018    3549.08350 
   2930.95680      85.97165      90.73112    -999.25000     171.71024    -999.25000       2.43471       2.13131    3359.37671    3542.62915 
   2931.10920      86.27493      91.14192    -999.25000     173.46516    -999.25000       2.43483       2.08621    3344.23486    3525.79443 
   2931.26160      86.74529      91.65588    -999.25000     176.71211    -999.25000       2.43495       2.04592    3325.48193    3504.95654 
   2931.41400      87.04671      91.80165    -999.25000     179.02931    -999.25000       2.43507       2.01820    3320.20166    3499.09131 
   2931.56640      87.01114      91.63329    -999.25000     175.16545    -999.25000       2.43520       2.02274    3326.30225    3505.86768 
   2931.71880      86.82858      91.44033    -999.25000     169.13956    -999.25000       2.43532       2.02933    3333.32129    3513.66602 
   2931.87120      86.60452      91.19349    -999.25000     170.08711    -999.25000       2.43544       2.02619    3342.34399    3523.69238 
   2932.02360      86.20962      90.69016    -999.25000     177.62096    -999.25000       2.43556       2.01690    3360.89429    3544.31641 
   2932.17600      85.46218      89.76394    -999.25000     178.99701    -999.25000       2.43568       2.11107    3395.57300    3582.90552 
   2932.32840      84.39589      88.59507    -999.25000     176.77377    -999.25000       2.43581       2.25137    3440.37207    3632.82080 
   2932.48080      83.35023      87.63965    -999.25000     172.31729    -999.25000       2.43593       2.38070    3477.87793    3674.66553 
   2932.63320      82.93656      87.62273    -999.25000     164.65913    -999.25000       2.43605       2.51441    3478.54932    3675.41504 
   2932.78560      83.41087      88.45678    -999.25000     160.84023    -999.25000       2.43617       2.48854    3445.75049    3638.81812 
   2932.93800      84.10523      89.04886    -999.25000     162.20432    -999.25000       2.43629       2.37420    3422.84009    3613.27783 
   2933.09040      84.38625      89.10207    -999.25000     166.46486    -999.25000       2.43642       2.25250    3420.79590    3611.00024 
   2933.24280      84.53957      89.32869    -999.25000     167.76932    -999.25000       2.43654       2.23307    3412.11743    3601.33130 
   2933.39520      84.89491      89.77830    -999.25000     166.39603    -999.25000       2.43666       2.24310    3395.03003    3582.30103 
   2933.54760      85.33662      90.21425    -999.25000     167.84215    -999.25000       2.43678       2.22367    3378.62378    3564.03979 
   2933.70000      85.73504      90.58517    -999.25000     167.10899    -999.25000       2.43690       2.18986    3364.78931    3548.64893 
   2933.85240      85.99828      90.76954    -999.25000     159.91417    -999.25000       2.43703       2.13964    3357.95483    3541.04785 
   2934.00480      86.27218      91.10902    -999.25000     154.38243    -999.25000       2.43715       2.07730    3345.44287    3527.13696 
   2934.15720      86.85793      91.87513    -999.25000     153.07787    -999.25000       2.43727       2.03204    3317.54614    3496.14233 
   2934.30960      87.68279      92.74300    -999.25000     157.98189    -999.25000       2.43739       1.97749    3286.50146    3461.68237 
   2934.46200      88.41798      93.38104    -999.25000     164.91354    -999.25000       2.43751       1.94657    3264.04565    3436.77783 
   2934.61440      88.68702      93.37982    -999.25000     168.85994    -999.25000       2.43764       1.93435    3264.08862    3436.82520 
   2934.76680      88.32487      92.75334    -999.25000     170.60107    -999.25000       2.43776       1.89031    3286.13501    3461.27539 
   2934.91920      87.85537      92.39882    -999.25000     171.22237    -999.25000       2.43788       1.90110    3298.74365    3475.26685 
   2935.07160      87.99197      92.89510    -999.25000     171.17175    -999.25000       2.43800       1.89230    3281.12061    3455.71289 
   2935.22400      88.76875      93.87730    -999.25000     169.43971    -999.25000       2.43812       1.85186    3246.79150    3417.65430 
   2935.37640      89.67210      94.72290    -999.25000     167.25008    -999.25000       2.43825       1.79927    3217.80688    3385.55420 
   2935.52880      90.28906      95.17242    -999.25000     166.31407    -999.25000       2.43837       1.79640    3202.60864    3368.73389 
   2935.68120      90.53858      95.27547    -999.25000     166.80026    -999.25000       2.43849       1.79436    3199.14478    3364.90161 
   2935.83360      90.57859      95.26930    -999.25000     164.98125    -999.25000       2.43861       1.78878    3199.35156    3365.13037 
   2935.98600      90.66846      95.42952    -999.25000     164.48457    -999.25000       2.43873       1.76061    3193.98022    3359.18848 
