~Version Information
VERS  .          2.0                              :CWLS Log Ascii Standard - Version 2.0
WRAP  .          NO                               :One line per depth step
~Well Information Block
#MNEM.UNIT       Data Type                        Information
#---------       ---------                        -------------------------------
STRT  .M         3200.00000                       :START DEPTH
STOP  .M         3526.28800                       :STOP DEPTH
STEP  .M          0.15240                         :INCREMENT
NULL  .          -999.25                          :NULL DATA VALUE
COMP  .          Eni Australia Ltd                :COMPANY
WELL  .          Vesta-2	                    :WELL
FLD   .          Vesta                            :FIELD
LOC   .                                           :LOCATION
PROV  .                                           :PROVINCE
STAT  .                                           :STATE
CNTY  .                                           :COUNTY
CTRY  .                                           :COUNTRY
DATE  .                                           :DATE
UWI   .          Vesta-2                          :UNIQUE WELL UWI
LIC   .                                           :LICENSE NUMBER
API   .                                                                                                                                            :API NUMBER
SRVC  .                                           :SERVICE COMPANY
~Parameter Information Block
#MNEM.UNIT       Value                            Description
#---------       ---------                        -------------
~Curve Information Block
#MNEM.UNIT       API Code            Curve    Description
#--------        --------------      -----    -------------------
DEPT  .M                             :0       Index
BDAV  .OHMM                          :1       Average Deep Button Resistivity
BMAV  .OHMM                          :2       Average Medium Button Resistivity
BS    .IN                            :3       Bit Size                      
BSAV  .OHMM                          :4       Average Shallow Button Resistivity
DRHO  .G/C3                          :5       Bulk Density Correction       
DTCO  .US/F                          :6       Delta-T Compressional         
GR    .GAPI                          :7       Gamma Ray                     
HORD  .IN                            :8       Horizontal Hole Diameter      
PEF   .                              :9       Photoelectric Factor          
RBIT  .OHMM                          :10      Borehole-compensated Resistivity at the Bit
RHOB  .G/C3                          :11      Bulk Density                  
RING  .OHMM                          :12      Borehole-compensated Ring Resistivity
RPM   .RPM                           :13      Rotational Speed              
TNPH  .V/V                           :14      Thermal Neutron Porosity (Ratio Method) in Selected Lithology
VERD  .IN                            :15      Vertical Hole Diameter        
~Ascii Data Section
# ...
   3265.83680       4.83328       5.24056       8.50000       5.81549       0.02818      90.65528     137.72237       8.35113       3.57439       2.54367       2.59075       5.05092      42.00000       0.29097       8.32449 
   3265.98920       4.56540       5.05797       8.50000       5.60002       0.02780      89.73154     142.56567       8.27281       3.59987       2.54115       2.59669       5.00174      42.00000       0.30144       8.34287 
   3266.14160       5.44075       6.04203       8.50000       6.54366       0.02837      89.26724     141.17833       8.30117       3.64796       2.50412       2.60053       5.80283      42.52598       0.30542       8.37617 
   3266.29400       5.10561       5.75532       8.50000       6.37979       0.03385      89.32178     137.89612       8.31948       3.78061       2.51558       2.61129       5.64639      43.00000       0.30508       8.33450 
   3266.44640       5.09418       5.64819       8.50000       6.33498       0.03776      89.35508     135.30742       8.28447       3.84441       2.52622       2.61825       5.67080      42.12336       0.30755       8.33450 
   3266.59880       5.77819       7.09147       8.50000       6.52150       0.04143      89.35547     133.16615       8.29283       3.67914       2.51753       2.61985       6.53539      42.00000       0.30887       8.33450 
   3266.75120       5.41232       6.52894       8.50000       6.53551       0.04513      89.68849     133.65601       8.33450       3.56299       2.50598       2.61391       5.87381      42.00000       0.30997       8.32949 
   3266.90360       5.47744       6.13046       8.50000       6.33724       0.04372      90.09108     136.82166       8.33450       3.65930       2.51603       2.61093       5.73977      43.00000       0.29626       8.30113 
   3267.05600       5.04282       5.64817       8.50000       6.25156       0.04322      89.82357     139.84596       8.33450       3.85896       2.48992       2.61414       5.38263      42.47402       0.28938       8.29283 
   3267.20840       4.93898       5.82350       8.50000       6.18534       0.04144      89.60892     139.14917       8.30947       3.89875       2.44973       2.61160       5.45705      43.00000       0.28203       8.35953 
   3267.36080       5.72179       6.33244       8.50000       6.07998       0.03638      90.09890     135.09047       8.31286       3.76478       2.43048       2.60282       5.86180      39.49344       0.28550       8.40120 
   3267.51320       5.26048       5.34796       8.50000       5.91784       0.03703      90.28180     133.96828       8.39287       3.63109       2.42591       2.60600       5.36830      44.00000       0.29004       8.40120 
   3267.66560       4.85294       5.90578       8.50000       6.45216       0.03641      89.96233     134.48701       8.40120       3.72176       2.41161       2.61285       5.50625      42.04934       0.29518       8.42623 
   3267.81800       4.92315       5.62218       8.50000       5.88090       0.04012      89.75192     139.12462       8.40120       3.92851       2.40511       2.62489       5.49262      42.00000       0.29795       8.46790 
   3267.97040       4.91539       5.49018       8.50000       5.79611       0.03706      89.96665     142.33397       8.37617       3.99562       2.39915       2.62118       5.34366      41.29869       0.29670       8.46790 
   3268.12280       4.55497       5.55187       8.50000       6.45023       0.03120      89.62298     142.19200       8.33450       3.91851       2.38748       2.61118       5.07288      45.00000       0.29956       8.49293 
   3268.27520       4.71186       5.79563       8.50000       6.08679       0.02484      88.94933     139.18628       8.33450       3.78927       2.37790       2.59811       6.02673      42.94803       0.30106       8.50957 
   3268.42760       4.52405       4.91323       8.50000       5.47980       0.02796      89.16914     136.56537       8.35953       3.78093       2.37305       2.58924       4.87659      41.60000       0.30977       8.46790 
   3268.58000       5.19011       6.12004       8.50000       6.07719       0.03507      89.02954     135.81091       8.50134       3.85434       2.37843       2.59395       5.11299      43.00000       0.31429       8.46790 
   3268.73240       4.11415       4.97916       8.50000       5.35152       0.04195      87.90767     136.55965       8.66800       3.99808       2.37412       2.61217       4.63638      42.52598       0.31284       8.46790 
   3268.88480       4.24274       4.73993       8.50000       5.09887       0.03738      88.06533     136.06097       8.69303       4.21816       2.37866       2.62193       4.56840      43.00000       0.31401       8.46790 
   3269.03720       4.55541       5.15143       8.50000       5.19596       0.04385      88.97080     136.49481       8.73470       4.15601       2.38097       2.62646       4.91036      42.00000       0.32003       8.46790 
   3269.18960       5.27348       6.08176       8.50000       5.40767       0.04588      89.81802     137.81439       8.61954       4.01440       2.40786       2.59890       5.09891      43.00000       0.32167       8.46790 
   3269.34200       4.16038       5.23670       8.50000       5.51642       0.05628      91.08292     138.86739       8.44290       3.73869       2.41910       2.58528       4.70764      43.52598       0.31812       8.46790 
   3269.49440       4.30010       5.00698       8.50000       4.98013       0.05794      92.65453     139.32428       8.41783       3.63661       2.43563       2.57095       5.00977      42.12336       0.31626       8.46790 
   3269.64680       4.96888       5.42833       8.50000       5.86060       0.06560      93.94557     138.60863       8.43464       3.64047       2.42703       2.56912       5.46010      42.00000       0.31941       8.46790 
   3269.79920       5.03214       5.67238       8.50000       5.69086       0.06741      94.83459     138.55336       8.75151       3.73602       2.44460       2.57390       5.54343      42.00000       0.32336       8.49293 
   3269.95160       5.17383       5.60456       8.50000       5.56595       0.05872      94.90881     139.79103       9.00150       3.80535       2.44847       2.58246       5.35166      42.40000       0.32776       8.53460 
   3270.10400       5.12309       5.40261       8.50000       4.73389       0.05131      94.07658     140.63733       9.00150       3.72893       2.43605       2.59807       5.21466      43.00000       0.33004       8.53460 
   3270.25640       5.23048       6.08514       8.50000       5.26421       0.04489      92.95004     140.35005       8.75116       3.61779       2.42334       2.60136       5.36742      42.00000       0.32529       8.53460 
   3270.40880       5.12897       5.85389       8.50000       6.39667       0.04372      92.09987     139.52110       8.33450       3.53676       2.42058       2.59773       5.65946      42.42467       0.30962       8.53460 
   3270.56120       5.10809       5.38649       8.50000       5.83206       0.04215      91.58910     140.60242       8.30947       3.54755       2.42775       2.59536       5.23675      42.60000       0.29280       8.53460 
   3270.71360       4.68644       5.30141       8.50000       5.68095       0.04243      91.54309     141.36198       8.39297       3.58856       2.41325       2.60092       5.09712      43.00000       0.28422       8.50957 
   3270.86600       4.64932       5.16675       8.50000       5.63208       0.04783      91.50121     139.46640       8.56124       3.54945       2.40435       2.61114       5.00729      43.00000       0.27911       8.46790 
   3271.01840       4.93373       5.68575       8.50000       5.58461       0.05349      90.79282     135.93788       8.45953       3.45123       2.40793       2.61119       5.83780      43.00000       0.27877       8.46790 
   3271.17080       5.09980       5.13339       8.50000       5.59811       0.04600      89.53384     136.88441       8.37617       3.45854       2.42679       2.59186       5.23754      42.60000       0.27508       8.47291 
