~Version Information
VERS  .          2.0                              :CWLS Log Ascii Standard - Version 2.0
WRAP  .          NO                               :One line per depth step
~Well Information Block
#MNEM.UNIT       Data Type                        Information
#---------       ---------                        -------------------------------
STRT  .M         3200.00000                       :START DEPTH
STOP  .M         3526.28800                       :STOP DEPTH
STEP  .M          0.15240                         :INCREMENT
NULL  .          -999.25                          :NULL DATA VALUE
COMP  .          Eni Australia Ltd                :COMPANY
WELL  .          Vesta-2	                    :WELL
FLD   .          Vesta                            :FIELD
LOC   .                                           :LOCATION
PROV  .                                           :PROVINCE
STAT  .                                           :STATE
CNTY  .                                           :COUNTY
CTRY  .                                           :COUNTRY
DATE  .                                           :DATE
UWI   .          Vesta-2                          :UNIQUE WELL UWI
LIC   .                                           :LICENSE NUMBER
API   .                                                                                                                                            :API NUMBER
SRVC  .                                           :SERVICE COMPANY
~Parameter Information Block
#MNEM.UNIT       Value                            Description
#---------       ---------                        -------------
~Curve Information Block
#MNEM.UNIT       API Code            Curve    Description
#--------        --------------      -----    -------------------
DEPT  .M                             :0       Index
BDAV  .OHMM                          :1       Average Deep Button Resistivity
BMAV  .OHMM                          :2       Average Medium Button Resistivity
BS    .IN                            :3       Bit Size                      
BSAV  .OHMM                          :4       Average Shallow Button Resistivity
DRHO  .G/C3                          :5       Bulk Density Correction       
DTCO  .US/F                          :6       Delta-T Compressional         
GR    .GAPI                          :7       Gamma Ray                     
HORD  .IN                            :8       Horizontal Hole Diameter      
PEF   .                              :9       Photoelectric Factor          
RBIT  .OHMM                          :10      Borehole-compensated Resistivity at the Bit
RHOB  .G/C3                          :11      Bulk Density                  
RING  .OHMM                          :12      Borehole-compensated Ring Resistivity
RPM   .RPM                           :13      Rotational Speed              
TNPH  .V/V                           :14      Thermal Neutron Porosity (Ratio Method) in Selected Lithology
VERD  .IN                            :15      Vertical Hole Diameter        
~Ascii Data Section
# ...
   3326.18720       5.32608       5.81894       8.50000       6.20652       0.01385      87.72115     137.74026       8.33450       3.97087       2.62850       2.64823       5.74766      16.24672       0.28519       8.33450 
   3326.33960       5.14517       5.65010       8.50000       6.06643       0.01626      87.82266     139.10809       8.33450       3.92726       2.62672       2.64618       5.57762      18.00000       0.28881       8.33450 
   3326.49200       4.92941       5.39734       8.50000       6.10793       0.02142      89.76748     137.90042       8.30947       3.78915       2.63349       2.63475       5.37452      18.12336       0.29189       8.33450 
   3326.64440       5.41652       4.97817       8.50000       6.17753       0.02564      91.20361     133.37892       8.26780       3.63008       2.63049       2.62475       5.39770      18.00000       0.29495       8.30947 
   3326.79680       6.55194       6.77687       8.50000       6.97016       0.02272      91.03931     124.16247       8.29283       3.59439       2.63689       2.62211       7.41132      16.37008       0.29284       8.29283 
   3326.94920      10.17818      10.96380       8.50000      17.46942       0.01802      87.02594     117.86440       8.30947       3.68584       2.64872       2.63945      10.23439      18.20000       0.28242       8.30947 
   3327.10160       4.86704       5.90175       8.50000       7.14394       0.00858      81.77880     120.70215       8.26780       3.85941       2.65978       2.65742       5.48806      19.47664       0.27451       8.31787 
   3327.25400       6.84744       7.19150       8.50000       7.88540       0.00033      80.00587     130.89799       8.31787       4.00405       2.64097       2.66576       6.46680      19.00000       0.26733       8.35113 
   3327.40640       5.11346       5.52301       8.50000       5.98877       0.00185      82.87572     140.14333       8.37617       4.14967       2.56179       2.66402       5.29524      19.00000       0.26610       8.29283 
   3327.55880       5.01864       5.83777       8.50000       6.25316       0.00464      86.12997     141.50777       8.33450       4.08162       2.54719       2.64763       5.52031      20.00000       0.27179       8.40960 
   3327.71120       5.67710       5.64928       8.50000       6.24920       0.01301      88.15743     139.47305       8.30947       3.97170       2.53694       2.64286       5.74034      18.52598       0.29016       8.43446 
   3327.86360       5.03007       6.06163       8.50000       6.47761       0.01132      88.82941     138.10513       8.26780       3.82798       2.51944       2.64413       5.42849      20.00000       0.30750       8.26780 
   3328.01600       5.37612       5.82017       8.50000       6.19023       0.00871      88.70099     137.14032       8.29283       3.82697       2.50454       2.64957       5.42452      17.24672       0.31489       8.29283 
   3328.16840       5.78485       6.17079       8.50000       5.76617       0.00536      88.05141     138.50835       8.33450       3.92171       2.50984       2.65566       5.87383      16.00000       0.31786       8.30947 
   3328.32080       5.26205       6.10758       8.50000       5.69107       0.00351      87.65829     142.13002       8.33450       4.04722       2.51032       2.65046       5.40823      18.79738       0.31352       8.26780 
   3328.47320       5.07523       5.27981       8.50000       5.37137       0.01062      87.94709     146.17094       8.33450       3.97033       2.51561       2.64989       5.20725      18.00000       0.31412       8.26780 
   3328.62560       5.96088       6.08458       8.50000       6.92972       0.01421      87.47041     144.98668       8.30947       3.88459       2.50781       2.64505       5.53282      19.40262       0.32101       8.26780 
   3328.77800       5.04320       5.44349       8.50000       6.31778       0.01869      87.30352     142.15741       8.26780       3.73270       2.49753       2.64436       5.41205      18.47402       0.32554       8.26780 
   3328.93040       3.99750       5.34338       8.50000       4.23618       0.01929      88.71032     139.76042       8.29283       3.76508       2.50048       2.64144       4.07924      18.57533       0.31704       8.26780 
   3329.08280       5.43696       5.43341       8.50000       5.51107       0.01537      89.68332     139.75816       8.30947       3.83495       2.48352       2.63345       6.39520      18.80000       0.30518       8.26780 
   3329.23520       5.40240       5.67151       8.50000       6.47338       0.00812      89.24931     139.94582       8.26780       4.15119       2.49563       2.62927       5.61846      18.00000       0.30116       8.26780 
   3329.38760       5.33136       5.35345       8.50000       5.72998       0.00873      88.65510     140.11452       8.29283       4.25945       2.52935       2.64132       5.14983      19.00000       0.30654       8.29283 
   3329.54000       4.61478       5.01185       8.50000       5.70280       0.01484      89.80357     141.32286       8.30947       4.07862       2.51717       2.65197       5.04719      20.00000       0.30430       8.33450 
   3329.69240       4.43737       4.63908       8.50000       5.06990       0.02616      90.47973     140.09399       8.26780       3.57944       2.50113       2.65886       4.89165      18.90131       0.30445       8.30947 
   3329.84480       4.99429       6.29348       8.50000       5.17699       0.01984      89.86341     137.76237       8.26780       3.62229       2.51880       2.66178       5.56326      16.00000       0.30230       8.29283 
   3329.99720       4.44144       5.47020       8.50000       5.03632       0.00143      88.34422     136.44553       8.29283       4.11018       2.53982       2.66093       5.53972      19.00000       0.30100       8.30947 
   3330.14960       4.74810       5.08504       8.50000       5.55016       0.00233      87.56910     137.31470       8.30947       4.28792       2.56267       2.67096       5.13144      18.00000       0.29720       8.29283 
   3330.30200       4.44748       5.04407       8.50000       5.80872       0.01343      87.33061     137.69922       8.26780       4.08952       2.56802       2.66911       4.89727      19.47402       0.29547       8.30947 
   3330.45440       5.59496       6.89711       8.50000       7.70474       0.03461      86.49491     136.36182       8.26780       3.80590       2.57504       2.69623       7.36538      19.75328       0.29489       8.26780 
   3330.60680       5.78750       5.62235       8.50000       6.33759       0.03019      85.53488     134.92801       8.24277       4.02329       2.57990       2.70431       5.52154      17.52598       0.28504       8.26780 
   3330.75920       4.97453       5.54544       8.50000       6.11356       0.02889      85.09415     137.21356       8.27620       4.03709       2.59077       2.71055       5.27222      18.95066       0.27109       8.34290 
   3330.91160       5.20571       5.65585       8.50000       6.10235       0.02239      86.10618     138.63464       8.35113       3.87419       2.57733       2.67493       5.37649      19.00000       0.26909       8.39280 
   3331.06400       4.91607       5.24175       8.50000       5.51591       0.02390      88.05906     138.72119       8.26780       3.51268       2.56609       2.64263       5.19105      18.00000       0.27381       8.26780 
   3331.21640       5.08957       5.67560       8.50000       5.98894       0.01860      88.99475     141.55067       8.26780       3.49766       2.57848       2.61834       5.57947      17.80000       0.28087       8.26780 
   3331.36880       5.66509       6.29299       8.50000       6.69474       0.02166      88.86066     143.86943       8.26780       3.47087       2.58686       2.62776       6.23895      18.57533       0.27911       8.26780 
   3331.52120       5.54941       5.64709       8.50000       5.90501       0.02235      89.00168     143.78737       8.26780       3.52173       2.59589       2.63564       5.55305      19.80262       0.27382       8.26780 
