~Version Information
VERS  .          2.0                              :CWLS Log Ascii Standard - Version 2.0
WRAP  .          NO                               :One line per depth step
~Well Information Block
#MNEM.UNIT       Data Type                        Information
#---------       ---------                        -------------------------------
STRT  .M         3200.00000                       :START DEPTH
STOP  .M         3526.28800                       :STOP DEPTH
STEP  .M          0.15240                         :INCREMENT
NULL  .          -999.25                          :NULL DATA VALUE
COMP  .          Eni Australia Ltd                :COMPANY
WELL  .          Vesta-2	                    :WELL
FLD   .          Vesta                            :FIELD
LOC   .                                           :LOCATION
PROV  .                                           :PROVINCE
STAT  .                                           :STATE
CNTY  .                                           :COUNTY
CTRY  .                                           :COUNTRY
DATE  .                                           :DATE
UWI   .          Vesta-2                          :UNIQUE WELL UWI
LIC   .                                           :LICENSE NUMBER
API   .                                                                                                                                            :API NUMBER
SRVC  .                                           :SERVICE COMPANY
~Parameter Information Block
#MNEM.UNIT       Value                            Description
#---------       ---------                        -------------
~Curve Information Block
#MNEM.UNIT       API Code            Curve    Description
#--------        --------------      -----    -------------------
DEPT  .M                             :0       Index
BDAV  .OHMM                          :1       Average Deep Button Resistivity
BMAV  .OHMM                          :2       Average Medium Button Resistivity
BS    .IN                            :3       Bit Size                      
BSAV  .OHMM                          :4       Average Shallow Button Resistivity
DRHO  .G/C3                          :5       Bulk Density Correction       
DTCO  .US/F                          :6       Delta-T Compressional         
GR    .GAPI                          :7       Gamma Ray                     
HORD  .IN                            :8       Horizontal Hole Diameter      
PEF   .                              :9       Photoelectric Factor          
RBIT  .OHMM                          :10      Borehole-compensated Resistivity at the Bit
RHOB  .G/C3                          :11      Bulk Density                  
RING  .OHMM                          :12      Borehole-compensated Ring Resistivity
RPM   .RPM                           :13      Rotational Speed              
TNPH  .V/V                           :14      Thermal Neutron Porosity (Ratio Method) in Selected Lithology
VERD  .IN                            :15      Vertical Hole Diameter        
~Ascii Data Section
# ...
   3452.37440       5.07372       6.02444       8.50000       6.48686       0.01160      88.44587     135.55620       8.33450       3.70772       6.71950       2.62570       6.33867     106.00000       0.30003       8.31787 
   3452.52680       7.83436       6.70252       8.50000       6.22486       0.00806      88.94034     135.52968       8.30947       3.68484       6.92334       2.62475       6.93051      90.57743       0.29599       8.35113 
   3452.67920       5.94737       6.28222       8.50000       7.24951       0.00868      88.32827     138.04063       8.26279       3.74799       7.36667       2.62743       7.00197      82.00000       0.28986       8.29784 
   3452.83160       6.40539       6.33736       8.50000       7.36109       0.00975      87.26862     139.60103       8.35960       3.82351       7.65014       2.62620       6.27104      89.00000       0.29477       8.36787 
   3452.98400       5.48774       6.05055       8.50000       6.49610       0.01271      87.34468     138.66164       8.75991       3.77971       7.61504       2.62572       6.23300     108.57796       0.30765       8.65154 
   3453.13640       8.89432       9.69229       8.50000       8.42683       0.01954      87.91088     137.97916       9.08483       3.72773       7.56476       2.63135       8.80507      84.26614       0.31527       9.04317 
   3453.28880       8.65790       7.98980       8.50000       7.84684       0.01480      88.30257     138.92520       8.97647       3.69733       7.70159       2.62585       8.03078      68.20000       0.31607       8.92640 
   3453.44120       8.11800       8.94032       8.50000       7.10434       0.00919      88.51814     139.24234       8.95983       3.66848       7.81390       2.61698       8.30678      68.62048       0.31475       8.80140 
   3453.59360       6.52984       7.87917       8.50000       7.23241       0.00391      88.94881     140.09299       8.73614       3.65477       7.55135       2.61049       6.83183      91.79265       0.31405       8.62616 
   3453.74600       6.67308       8.30358       8.50000       7.42539       0.00760      88.78604     140.32178       8.33454       3.64118       7.38279       2.61841       7.27127      87.11024       0.31993       8.33450 
   3453.89840       6.84266       7.36527       8.50000       7.33144       0.01101      88.29291     142.50522       8.35113       3.70121       7.23699       2.62733       7.49002      99.60368       0.32699       8.45967 
   3454.05080       6.58276       7.11996       8.50000       7.03517       0.01588      88.69322     142.62256       8.49311       3.61211       7.14566       2.63287       7.05425      80.60000       0.32737       8.79317 
   3454.20320       7.29124       8.91009       8.50000       7.88329       0.01779      89.23367     143.93523       8.95322       3.61934       7.07258       2.63572       8.77753     100.00000       0.32154       9.07160 
   3454.35560       6.29053       6.63089       8.50000       6.83831       0.01546      89.35412     141.79115       9.10990       3.68233       7.04606       2.63103       6.67582      76.60000       0.30451       9.21830 
   3454.50800       5.83999       6.40485       8.50000       6.57951       0.01573      88.85593     139.52869       9.05980       3.72233       7.04258       2.63273       6.55731     106.00000       0.30119       9.16816 
   3454.66040       6.98143       6.36529       8.50000       7.06740       0.01617      88.70995     137.09930       8.88473       3.68255       7.00823       2.63123       7.05159      90.00000       0.30977       8.97647 
   3454.81280       7.30100       7.49474       8.50000       6.98302       0.01474      88.34312     138.00803       8.85147       3.63589       7.00656       2.62827       6.87906     108.29501       0.32635       8.93480 
   3454.96520       5.90368       8.04613       8.50000       8.46527       0.00817      87.85204     139.34456       8.96985       3.76291       7.00322       2.61763       7.12610     103.80000       0.32576       8.93981 
   3455.11760       6.71737       6.88856       8.50000       6.76091       0.00692      88.48147     140.17993       8.96810       3.85007       7.03257       2.60917       6.93835      87.00000       0.31788       8.91810 
   3455.27000       6.05873       6.41531       8.50000       6.81222       0.01079      89.36513     141.74921       8.96824       3.81586       7.06629       2.60811       6.50025      90.00000       0.30905       8.86810 
   3455.42240       5.98478       6.87882       8.50000       6.84266       0.01428      89.92966     143.92816       8.80945       3.71589       6.91858       2.61058       6.55883      87.98845       0.30892       8.71789 
   3455.57480       6.80191       6.61248       8.50000       6.91554       0.01046      90.12212     143.01859       8.41801       3.60297       6.83718       2.61031       6.73952      79.83727       0.30548       8.53800 
   3455.72720       5.78358       6.14336       8.50000       7.47935       0.00752      89.26183     137.35072       8.65799       3.60417       6.79263       2.61254       6.80266     104.00000       0.30023       8.67969 
   3455.87960       5.76224       6.61077       8.50000       7.23422       0.00675      88.61334     133.10733       8.57623       3.62532       6.73717       2.61428       6.52516      98.00000       0.30303       8.57616 
   3456.03200       6.28709       6.82510       8.50000       7.09880       0.00720      88.93349     132.27901       8.39280       3.65517       6.67558       2.61593       6.67723      76.54279       0.31638       8.30947 
   3456.18440       5.48137       6.29088       8.50000       6.25106       0.00901      89.70164     138.03052       8.29283       3.67622       6.61960       2.61968       6.22799      96.19423       0.32548       8.31787 
   3456.33680       5.91862       6.36621       8.50000       6.73314       0.00758      90.08688     142.99966       8.33450       3.66082       6.76247       2.61783       6.37756     108.00787       0.32529       8.37617 
   3456.48920       5.46837       6.22055       8.50000       6.20714       0.00693      89.42796     144.23395       8.33450       3.67889       6.81919       2.61546       6.02785     117.02625       0.31487       8.33450 
   3456.64160       6.71953       6.07077       8.50000       6.57525       0.00451      88.52325     140.55905       8.28443       3.69041       6.83878       2.60872       6.25141      92.74016       0.31527       8.30947 
   3456.79400       7.42815       6.78739       8.50000       7.71812       0.00486      87.97919     135.58096       8.32627       3.82278       6.92634       2.60792       7.00275      82.71391       0.31750       8.39297 
   3456.94640       5.93151       6.60840       8.50000       6.92111       0.00725      87.59975     133.91412       8.40943       3.93114       6.94563       2.61750       6.74411     104.00000       0.32192       8.47613 
   3457.09880       5.68027       6.55970       8.50000       7.39649       0.01356      87.90456     134.16682       8.27620       3.87891       6.87911       2.62924       6.35272      87.00525       0.32171       8.24277 
   3457.25120       6.30840       6.19980       8.50000       6.60872       0.01417      87.51618     135.70377       8.37617       3.69834       6.75538       2.62601       6.69745      95.00000       0.32065       8.22613 
   3457.40360       6.75706       7.20720       8.50000       6.35694       0.01671      87.15386     137.46367       8.33450       3.59728       6.69870       2.62215       6.23602      81.00000       0.32225       8.26780 
   3457.55600       5.79921       6.08178       8.50000       6.34121       0.01474      87.88480     138.92422       8.43464       3.59178       6.74732       2.61771       6.57553      77.29081       0.32401       8.29283 
   3457.70840       7.46749       5.97807       8.50000       5.96652       0.01254      88.09437     140.81650       8.77654       3.57732       6.71535       2.62319       6.48680      67.00000       0.32159       8.48471 
