~Version Information
VERS  .          2.0                              :CWLS Log Ascii Standard - Version 2.0
WRAP  .          NO                               :One line per depth step
~Well Information Block
#MNEM.UNIT       Data Type                        Information
#---------       ---------                        -------------------------------
STRT  .M         3200.00000                       :START DEPTH
STOP  .M         3526.28800                       :STOP DEPTH
STEP  .M          0.15240                         :INCREMENT
NULL  .          -999.25                          :NULL DATA VALUE
COMP  .          Eni Australia Ltd                :COMPANY
WELL  .          Vesta-2	                    :WELL
FLD   .          Vesta                            :FIELD
LOC   .                                           :LOCATION
PROV  .                                           :PROVINCE
STAT  .                                           :STATE
CNTY  .                                           :COUNTY
CTRY  .                                           :COUNTRY
DATE  .                                           :DATE
UWI   .          Vesta-2                          :UNIQUE WELL UWI
LIC   .                                           :LICENSE NUMBER
API   .                                                                                                                                            :API NUMBER
SRVC  .                                           :SERVICE COMPANY
~Parameter Information Block
#MNEM.UNIT       Value                            Description
#---------       ---------                        -------------
~Curve Information Block
#MNEM.UNIT       API Code            Curve    Description
#--------        --------------      -----    -------------------
DEPT  .M                             :0       Index
BDAV  .OHMM                          :1       Average Deep Button Resistivity
BMAV  .OHMM                          :2       Average Medium Button Resistivity
BS    .IN                            :3       Bit Size                      
BSAV  .OHMM                          :4       Average Shallow Button Resistivity
DRHO  .G/C3                          :5       Bulk Density Correction       
DTCO  .US/F                          :6       Delta-T Compressional         
GR    .GAPI                          :7       Gamma Ray                     
HORD  .IN                            :8       Horizontal Hole Diameter      
PEF   .                              :9       Photoelectric Factor          
RBIT  .OHMM                          :10      Borehole-compensated Resistivity at the Bit
RHOB  .G/C3                          :11      Bulk Density                  
RING  .OHMM                          :12      Borehole-compensated Ring Resistivity
RPM   .RPM                           :13      Rotational Speed              
TNPH  .V/V                           :14      Thermal Neutron Porosity (Ratio Method) in Selected Lithology
VERD  .IN                            :15      Vertical Hole Diameter        
~Ascii Data Section
# ...
   3413.96960       5.75648       6.41348       8.50000       6.93806       0.01152      88.57171     132.17570       8.26780       3.47273       6.36827       2.58237       6.81310      76.00000       0.26731       8.26780 
   3414.12200       5.68546       5.81535       8.50000       6.02114       0.00782      88.63658     133.90053       8.27281       3.59693       6.37740       2.58974       5.70430      75.11024       0.27007       8.26780 
   3414.27440       5.67452       5.98409       8.50000       6.17989       0.00422      89.20037     136.48941       8.25110       3.72647       6.43939       2.59935       5.88534      77.11024       0.27666       8.26780 
   3414.42680       5.61798       6.10222       8.50000       6.06536      -0.00175      89.35373     135.77477       8.17607       3.71849       6.46455       2.60248       5.93937      80.20000       0.27812       8.21773 
   3414.57920       5.85759       5.97729       8.50000       6.37602       0.00048      88.85593     132.70602       8.13440       3.62112       6.48329       2.60402       6.37635      94.20000       0.27296       8.13440 
   3414.73160       6.23825       7.64389       8.50000       6.68145       0.00760      87.96066     130.90225       8.13440       3.65461       6.50781       2.61237       6.58585      87.21417       0.26412       8.13440 
   3414.88400       5.82558       6.66296       8.50000       6.74591       0.01811      87.29158     132.24561       8.13440       3.72866       6.58093       2.63538       6.12785      94.60000       0.25870       8.13440 
   3415.03640       5.87722       6.15277       8.50000       6.56721       0.02222      87.21109     133.78946       8.13440       3.71176       6.59545       2.65039       5.97901      78.28294       0.25354       8.15943 
   3415.18880       5.58884       5.90803       8.50000       6.22621       0.02170      87.50183     133.27467       8.13440       3.66054       6.46178       2.64529       5.96838      85.79212       0.25808       8.20110 
   3415.34120       5.95846       6.31554       8.50000       6.66720       0.01862      87.86208     132.52298       8.13440       3.63532       6.46483       2.63214       6.79597      66.20000       0.27027       8.17607 
   3415.49360       6.07176       6.65382       8.50000       6.85086       0.01099      87.55710     132.86340       8.13440       3.71991       6.46533       2.61504       6.21969     102.03937       0.28039       8.13440 
   3415.64600       5.42228       5.89785       8.50000       6.50071       0.00615      87.44596     132.83696       8.15943       3.71072       6.40180       2.60504       6.25540     107.66929       0.28493       8.15943 
   3415.79840       6.15565       6.29263       8.50000       6.99291       0.00294      87.82879     132.42371       8.20110       3.66928       6.38932       2.59581       6.38350      88.95065       0.28872       8.20110 
   3415.95080       5.48019       5.91286       8.50000       6.14126       0.00342      88.80551     132.09982       8.20110       3.72372       6.37124       2.59858       5.79056      73.00000       0.29817       8.20110 
   3416.10320       6.24935       6.52205       8.50000       6.59615       0.00998      89.55927     132.85052       8.20110       3.72988       6.34311       2.61867       6.40491      83.00000       0.29832       8.20110 
   3416.25560       5.73991       6.02030       8.50000       6.26020       0.01120      89.54826     132.73294       8.17607       3.79089       6.28648       2.62860       6.25722      81.00000       0.29397       8.18107 
   3416.40800       5.74025       5.98980       8.50000       6.51711       0.01002      89.80660     131.52577       8.13440       3.74602       6.28647       2.62472       6.10002      96.00000       0.28587       8.14273 
   3416.56040       5.49206       6.11198       8.50000       6.31037       0.00616      91.25362     132.09679       8.15943       3.69521       6.30252       2.61288       5.93215      86.00000       0.28891       8.15943 
   3416.71280       5.74366       5.53413       8.50000       6.24697       0.00469      91.96097     133.62439       8.20110       3.65698       6.24986       2.60562       5.61957      90.00000       0.29113       8.20110 
   3416.86520       5.55226       6.00579       8.50000       5.97142       0.00468      90.70449     134.40459       8.20110       3.78036       6.13840       2.61192       6.04205      99.84409       0.29056       8.20110 
   3417.01760       7.52035       8.28735       8.50000       6.15826       0.00190      89.16672     133.03014       8.20110       4.05471       6.22126       2.61670       6.56028      94.00000       0.28608       8.20110 
   3417.17000       5.24081       5.69997       8.50000       6.10472       0.00535      88.79230     130.78943       8.22613       4.04180       5.91125       2.62733       5.62608     100.39475       0.28915       8.20110 
   3417.32240       5.61243       6.44347       8.50000       6.34851       0.01253      88.94312     129.58278       8.26780       3.91847       5.79065       2.64015       6.35698      97.60000       0.29809       8.20110 
   3417.47480       6.90125       6.81835       8.50000       6.71440       0.00771      89.74316     129.32544       8.26780       3.89404       5.73390       2.63943       6.77741     103.00000       0.30126       8.22613 
   3417.62720       5.30501       5.51829       8.50000       7.87659       0.00470      89.87946     133.07835       8.26780       3.99329       5.77445       2.63739       4.59038     106.40000       0.29603       8.26780 
   3417.77960       4.08064       4.94374       8.50000       4.99335      -0.00105      89.47572     138.52103       8.26780       3.94916       5.77644       2.62323       4.68763      92.60000       0.28978       8.26780 
   3417.93200       4.47868       5.09755       8.50000       5.19004       0.00475      89.35682     141.99525       8.26780       3.79208       5.73155       2.62455       4.93470     122.00000       0.29147       8.26780 
   3418.08440       5.14290       5.36823       8.50000       5.53325       0.00948      89.35547     140.20451       8.26780       3.77421       5.92343       2.62644       5.10323      94.00000       0.29673       8.26780 
   3418.23680       6.36626       7.02583       8.50000       6.73002       0.01398      89.35547     139.58836       8.24277       3.84223       5.97798       2.62500       6.94378      93.48032       0.29975       8.26279 
   3418.38920       5.05595       6.62518       8.50000       6.28829       0.02037      89.35547     138.41428       8.22613       3.82295       5.94759       2.62265       5.69735      92.00000       0.29746       8.25947 
   3418.54160       4.77259       5.15672       8.50000       5.49252       0.01844      89.77175     137.23970       8.24277       3.82856       5.91342       2.62059       5.45933      85.52599       0.29431       8.24277 
   3418.69400       6.86896       5.24375       8.50000       7.21871       0.01104      89.25511     135.93376       8.20110       3.91388       5.68178       2.62260       6.55331     103.40000       0.29242       8.20110 
   3418.84640       5.05945       5.31848       8.50000       5.55870       0.00797      88.04683     135.22758       8.22613       3.88436       5.58407       2.62693       5.25975      99.33911       0.29164       8.20110 
   3418.99880       5.17790       4.94943       8.50000       5.86655       0.00501      87.87533     136.33232       8.26780       3.94458       5.54741       2.62584       4.93693      94.60000       0.29260       8.22613 
   3419.15120       4.87192       4.58126       8.50000       5.10827       0.00670      88.10295     134.96928       8.26780       4.05567       5.47436       2.63171       5.16789     108.33543       0.29505       8.26780 
   3419.30360       4.96794       5.27351       8.50000       5.45436       0.00610      88.10831     135.67653       8.26780       4.09135       5.48561       2.63108       5.31711      91.60000       0.29464       8.29283 
