~Version Information
VERS  .          2.0                              :CWLS Log Ascii Standard - Version 2.0
WRAP  .          NO                               :One line per depth step
~Well Information Block
#MNEM.UNIT       Data Type                        Information
#---------       ---------                        -------------------------------
STRT  .M         3200.00000                       :START DEPTH
STOP  .M         3526.28800                       :STOP DEPTH
STEP  .M          0.15240                         :INCREMENT
NULL  .          -999.25                          :NULL DATA VALUE
COMP  .          Eni Australia Ltd                :COMPANY
WELL  .          Vesta-2	                    :WELL
FLD   .          Vesta                            :FIELD
LOC   .                                           :LOCATION
PROV  .                                           :PROVINCE
STAT  .                                           :STATE
CNTY  .                                           :COUNTY
CTRY  .                                           :COUNTRY
DATE  .                                           :DATE
UWI   .          Vesta-2                          :UNIQUE WELL UWI
LIC   .                                           :LICENSE NUMBER
API   .                                                                                                                                            :API NUMBER
SRVC  .                                           :SERVICE COMPANY
~Parameter Information Block
#MNEM.UNIT       Value                            Description
#---------       ---------                        -------------
~Curve Information Block
#MNEM.UNIT       API Code            Curve    Description
#--------        --------------      -----    -------------------
DEPT  .M                             :0       Index
BDAV  .OHMM                          :1       Average Deep Button Resistivity
BMAV  .OHMM                          :2       Average Medium Button Resistivity
BS    .IN                            :3       Bit Size                      
BSAV  .OHMM                          :4       Average Shallow Button Resistivity
DRHO  .G/C3                          :5       Bulk Density Correction       
DTCO  .US/F                          :6       Delta-T Compressional         
GR    .GAPI                          :7       Gamma Ray                     
HORD  .IN                            :8       Horizontal Hole Diameter      
PEF   .                              :9       Photoelectric Factor          
RBIT  .OHMM                          :10      Borehole-compensated Resistivity at the Bit
RHOB  .G/C3                          :11      Bulk Density                  
RING  .OHMM                          :12      Borehole-compensated Ring Resistivity
RPM   .RPM                           :13      Rotational Speed              
TNPH  .V/V                           :14      Thermal Neutron Porosity (Ratio Method) in Selected Lithology
VERD  .IN                            :15      Vertical Hole Diameter        
~Ascii Data Section
# ...
   3496.26560       6.78728       6.40264       8.50000       6.75993       0.01923      89.91470     129.91020       8.24277       3.62617       5.67836       2.62419       5.38226      93.00000       0.27398       8.26780 
   3496.41800       4.94561       5.10187       8.50000       5.36631       0.00588      88.89333     126.42244       8.20110       3.66245       5.64613       2.60686       5.27919      63.00000       0.28293       8.26780 
   3496.57040       5.47442       6.81571       8.50000       5.28489      -0.00329      88.63148     126.96690       8.22613       3.66835       5.84763       2.60010       6.03858     109.75328       0.28095       8.26780 
   3496.72280       4.80449       5.98774       8.50000       6.17284      -0.00098      88.57564     129.37538       8.29283       3.51424       5.81372       2.61091       5.40767      86.09081       0.27462       8.29283 
   3496.87520       4.97186       5.50658       8.50000       5.88057       0.00773      88.50762     133.95973       8.25940       3.47307       5.79438       2.62500       5.79108      83.20000       0.27678       8.25940 
   3497.02760       5.36749       5.43527       8.50000       5.55931       0.01304      89.09884     136.72156       8.13440       3.52725       5.71524       2.62320       6.28859      86.60000       0.28132       8.15943 
   3497.18000       6.30755       5.73159       8.50000       5.67957       0.01615      90.02782     137.21371       8.13440       3.69924       5.68922       2.61624       5.66637      71.50656       0.27990       8.20110 
   3497.33240       4.77799       6.23553       8.50000       6.29556       0.00734      90.53079     134.84923       8.15943       3.85251       5.68430       2.59757       5.53300      84.31812       0.26729       8.25117 
   3497.48480       5.01126       6.06360       8.50000       6.75508      -0.00008      90.03534     132.73576       8.20110       3.92551       5.68548       2.58200       5.97281      91.92599       0.26432       8.30947 
   3497.63720       4.55852       5.69794       8.50000       5.63478      -0.00293      89.64397     133.89120       8.22613       3.94727       5.56093       2.57394       5.47788      96.38320       0.27070       8.26780 
   3497.78960       5.38290       5.79749       8.50000       5.53379      -0.00040      89.68300     133.54497       8.26780       3.76420       5.60801       2.57933       6.02215      72.51968       0.28455       8.26780 
   3497.94200       4.60658       5.59129       8.50000       5.28061       0.00528      88.96683     130.73206       8.26780       3.59188       5.61651       2.59118       5.42914      82.00000       0.29532       8.26780 
   3498.09440       5.25794       5.80285       8.50000       5.91413       0.00801      88.08220     128.01451       8.24277       3.48297       5.70704       2.60357       4.85832      76.32861       0.29579       8.24277 
   3498.24680       4.59834       4.74791       8.50000       6.17532       0.00640      88.18369     129.27982       8.20110       3.49384       5.67989       2.60736       5.28660      80.01260       0.28847       8.20110 
   3498.39920       5.40874       5.46647       8.50000       6.90916       0.00611      89.29594     131.66153       8.20110       3.64357       5.79654       2.61122       6.25245      91.78951       0.28715       8.22613 
   3498.55160       5.12387       5.37336       8.50000       5.77207       0.00551      90.43325     131.46188       8.20110       3.75212       5.92697       2.61234       5.72167      91.00000       0.28701       8.24277 
   3498.70400       5.43318       5.90894       8.50000       6.21838       0.00751      90.32589     132.47800       8.20110       3.79268       5.94492       2.61426       5.77518      99.00000       0.28583       8.22613 
   3498.85640       4.98659       5.41862       8.50000       5.62426       0.00828      89.83772     134.48332       8.20110       3.77531       6.05406       2.61384       5.91517      75.20000       0.27894       8.24277 
   3499.00880       6.11935       6.67094       8.50000       6.28493       0.00647      89.55135     136.07077       8.20110       3.76108       6.09177       2.61209       6.22907      81.80000       0.27869       8.20110 
   3499.16120       5.32398       6.17243       8.50000       6.71936       0.00971      89.22382     134.53697       8.22613       3.69388       6.09264       2.62101       6.02651     107.00000       0.28238       8.22613 
   3499.31360       5.62641       6.03251       8.50000       6.30092       0.00761      88.61341     130.46091       8.26780       3.63466       6.15462       2.61913       5.97016      96.17532       0.29145       8.26780 
   3499.46600       5.27560       5.80661       8.50000       5.74375       0.00376      89.09517     126.30659       8.26780       3.66415       6.07539       2.61147       5.73060      84.37637       0.29751       8.26780 
   3499.61840       5.74551       6.11442       8.50000       6.03377      -0.00053      89.97005     125.74934       8.24277       3.70161       6.08549       2.60314       6.05773      83.82729       0.29762       8.24277 
   3499.77080       4.82609       6.78605       8.50000       5.87005       0.00061      90.15524     128.77539       8.22613       3.64176       6.12560       2.60843       6.24317      76.00000       0.29124       8.22613 
   3499.92320       5.24101       6.22714       8.50000       7.08055       0.00040      88.84596     134.23654       8.22274       3.57281       6.10054       2.60871       6.47889     101.80000       0.28684       8.24277 
   3500.07560       4.98441       6.04990       8.50000       6.54709       0.00453      87.79790     135.72893       8.14273       3.51718       6.10232       2.61198       6.17229      99.80000       0.28539       8.20110 
   3500.22800       5.11750       5.40945       8.50000       5.70974       0.00968      88.11514     135.29343       8.13440       3.61161       6.02274       2.61774       6.62824      91.88347       0.28712       8.17607 
   3500.38040       5.31944       6.01542       8.50000       6.46977       0.01202      88.71239     134.70804       8.15943       3.62177       5.99894       2.62455       6.09365      95.20000       0.28458       8.15943 
   3500.53280       5.10159       5.38703       8.50000       6.18802       0.00987      88.79211     136.01277       8.27620       3.64435       5.99242       2.62372       5.44121      95.97691       0.28458       8.25117 
   3500.68520       5.39039       5.79656       8.50000       6.12859       0.00698      89.00090     137.26195       8.40120       3.52541       5.91291       2.62277       5.67814      86.01417       0.28458       8.38457 
   3500.83760       4.65006       5.45710       8.50000       6.33516       0.00751      89.11964     137.99084       8.35113       3.48465       5.91040       2.61878       5.43314      72.60000       0.28458       8.39280 
   3500.99000       5.76951       5.35083       8.50000       5.17233       0.00542      88.27924     137.07707       8.26780       3.52417       5.89325       2.60840       6.12754      79.00000       0.28458       8.26780 
   3501.14240       5.55185       5.64229       8.50000       6.18133       0.00543      88.27631     135.04121       8.26780       3.65691       5.86195       2.60828       5.36144     108.78320       0.28458       8.26780 
   3501.29480       5.13781       5.94073       8.50000       6.14277       0.00331      88.50631     133.94763       8.26780       3.79046       5.91081       2.61100       5.90333      96.00000       0.28458       8.24277 
   3501.44720       5.50022       5.66059       8.50000       5.94108       0.00833      87.75757     133.14024       8.26780       3.83596       5.91833       2.62179       6.01987      94.50971       0.28458       8.23114 
   3501.59960       4.71137       4.95262       8.50000       5.80551       0.00833      86.96502     132.02614       8.24277       3.83596       5.99237       2.62179       5.60223      70.81575       0.28458       8.27613 
