~Version Information
VERS  .          2.0                              :CWLS Log Ascii Standard - Version 2.0
WRAP  .          NO                               :One line per depth step
~Well Information Block
#MNEM.UNIT       Data Type                        Information
#---------       ---------                        -------------------------------
STRT  .M         3200.00000                       :START DEPTH
STOP  .M         3526.28800                       :STOP DEPTH
STEP  .M          0.15240                         :INCREMENT
NULL  .          -999.25                          :NULL DATA VALUE
COMP  .          Eni Australia Ltd                :COMPANY
WELL  .          Vesta-2	                    :WELL
FLD   .          Vesta                            :FIELD
LOC   .                                           :LOCATION
PROV  .                                           :PROVINCE
STAT  .                                           :STATE
CNTY  .                                           :COUNTY
CTRY  .                                           :COUNTRY
DATE  .                                           :DATE
UWI   .          Vesta-2                          :UNIQUE WELL UWI
LIC   .                                           :LICENSE NUMBER
API   .                                                                                                                                            :API NUMBER
SRVC  .                                           :SERVICE COMPANY
~Parameter Information Block
#MNEM.UNIT       Value                            Description
#---------       ---------                        -------------
~Curve Information Block
#MNEM.UNIT       API Code            Curve    Description
#--------        --------------      -----    -------------------
DEPT  .M                             :0       Index
BDAV  .OHMM                          :1       Average Deep Button Resistivity
BMAV  .OHMM                          :2       Average Medium Button Resistivity
BS    .IN                            :3       Bit Size                      
BSAV  .OHMM                          :4       Average Shallow Button Resistivity
DRHO  .G/C3                          :5       Bulk Density Correction       
DTCO  .US/F                          :6       Delta-T Compressional         
GR    .GAPI                          :7       Gamma Ray                     
HORD  .IN                            :8       Horizontal Hole Diameter      
PEF   .                              :9       Photoelectric Factor          
RBIT  .OHMM                          :10      Borehole-compensated Resistivity at the Bit
RHOB  .G/C3                          :11      Bulk Density                  
RING  .OHMM                          :12      Borehole-compensated Ring Resistivity
RPM   .RPM                           :13      Rotational Speed              
TNPH  .V/V                           :14      Thermal Neutron Porosity (Ratio Method) in Selected Lithology
VERD  .IN                            :15      Vertical Hole Diameter        
~Ascii Data Section
   3200.00000       0.10027       0.10111       8.50000       0.10103      -0.44370    -999.25000      72.31321      22.94180      16.47883       0.10561       2.76717       0.10721       0.00000       0.34024      22.87510 
   3200.15240       0.10027       0.10111       8.50000       0.10103      -0.44077    -999.25000      71.19386      22.94180      16.54624       0.10561       2.76920       0.10721       0.00000       0.33260      22.87510 
   3200.30480       0.10027       0.10111       8.50000       0.10103      -0.43618    -999.25000      70.49464      22.94180      16.55703       0.10561       2.77584       0.10721       0.00000       0.32572      22.87510 
   3200.45720       0.10027       0.10111       8.50000       0.10103      -0.43216    -999.25000      70.49464      22.94180      16.54488       0.10561       2.77984       0.10721       0.00000       0.32178      22.87510 
   3200.60960       0.10027       0.10111       8.50000       0.10103      -0.43527    -999.25000      70.49464      22.94180      16.65341       0.10561       2.76102       0.10721       0.00000       0.32221      22.87510 
   3200.76200       0.10027       0.10111       8.50000       0.10103      -0.44298    -999.25000      70.49464      22.94180      16.84758       0.10561       2.72845       0.10721      17.40000       0.32221      22.87510 
   3200.91440       0.10027       0.10111       8.50000       0.10103      -0.45045    -999.25000      69.76496      22.94180      17.04903       0.10561       2.69897       0.10721      17.40000       0.32222      22.87510 
   3201.06680       0.10027       0.10111       8.50000       0.10103      -0.45259    -999.25000      67.82084      22.94180      17.10146       0.10561       2.69010       0.10721      17.40000       0.31954      22.87510 
   3201.21920       0.10027       0.10111       8.50000       0.10103      -0.45247    -999.25000      65.87672      22.94180      17.06438       0.10561       2.69111       0.10721      17.40000       0.31275      22.87510 
   3201.37160       0.10027       0.10111       8.50000       0.10103      -0.45217    -999.25000      64.66228      22.94180      16.96580       0.10561       2.69379       0.10721      17.40000       0.30664      22.87510 
   3201.52400       0.10027       0.10111       8.50000       0.10103      -0.45187    -999.25000      64.66228      22.94180      16.86778       0.10561       2.69649       0.10721      17.40000       0.30314      22.87510 
   3201.67640       0.10027       0.10111       8.50000       0.10103      -0.45168    -999.25000      64.66228      22.94180      16.80676       0.10561       2.69818       0.10721      17.40000       0.30354      22.87510 
   3201.82880       0.10027       0.10111       8.50000       0.10103      -0.45168    -999.25000      64.66228      22.94180      16.80676       0.10561       2.69818       0.10721      29.00000       0.30355      22.87510 
   3201.98120       0.10027       0.10111       8.50000       0.10103      -0.45168    -999.25000      65.23386      22.94180      16.80676       0.10561       2.69818       0.10721      29.00000       0.31345      22.87510 
   3202.13360       0.10027       0.10111       8.50000       0.10103      -0.45185    -999.25000      66.75676      22.94180      16.77719       0.10561       2.69801       0.10721      29.00000       0.33957      22.87510 
   3202.28600       0.10027       0.10111       8.50000       0.10103      -0.45201    -999.25000      68.27965      22.94180      16.69169       0.10561       2.69874       0.10721      29.00000       0.36698      22.87510 
   3202.43840       0.10027       0.10111       8.50000       0.10103      -0.45170    -999.25000      69.23096      22.94180      16.59523       0.10561       2.70147       0.10721      29.00000       0.38372      22.87510 
   3202.59080       0.10027       0.10111       8.50000       0.10103      -0.45122    -999.25000      69.23096      22.94180      16.52833       0.10561       2.70437       0.10721      29.00000       0.38471      22.87510 
   3202.74320       0.10027       0.10111       8.50000       0.10103      -0.45074    -999.25000      69.23096      22.94180      16.51691       0.10561       2.70637       0.10721      29.00000       0.39764      22.87510 
   3202.89560       0.10027       0.10111       8.50000       0.10103      -0.45074    -999.25000      69.23096      22.94180      16.51691       0.10561       2.70637       0.10721      29.00000       0.41228      22.87510 
   3203.04800       0.10027       0.10111       8.50000       0.10103      -0.45347    -999.25000      69.23096      22.94180      16.53637       0.10561       2.70364       0.10721      29.00000       0.42236      22.87510 
   3203.20040       0.10027       0.10111       8.50000       0.10103      -0.45902    -999.25000      68.50238      22.94180      16.54661       0.10561       2.70366       0.10721      29.00000       0.42329      22.87510 
   3203.35280       0.10027       0.10111       8.50000       0.10103      -0.46165    -999.25000      66.56121      22.94180      16.48687       0.10561       2.71598       0.10721      29.00000       0.42696      22.87510 
   3203.50520       0.10027       0.10111       8.50000       0.10103      -0.46142    -999.25000      64.62003      22.94180      16.40546       0.10561       2.73158       0.10721      29.00000       0.43728      22.87510 
   3203.65760       0.10027       0.10111       8.50000       0.10103      -0.45969    -999.25000      63.40744      22.94180      16.36057       0.10561       2.74308       0.10721      29.00000       0.44874      22.87510 
   3203.81000       0.10027       0.10111       8.50000       0.10103      -0.46160    -999.25000      63.40744      22.94180      16.39289       0.10561       2.74670       0.10721      29.00000       0.46075      22.87510 
   3203.96240       0.10027       0.10111       8.50000       0.10103      -0.46057    -999.25000      63.40744      22.94180      16.35738       0.10561       2.76263       0.10721      29.00000       0.47337      22.87510 
   3204.11480       0.10027       0.10111       8.50000       0.10103      -0.45802    -999.25000      63.40744      22.94180      16.29239       0.10561       2.78047       0.10721      29.00000       0.49038      22.87510 
   3204.26720       0.10027       0.10111       8.50000       0.10103      -0.45494    -999.25000      63.40744      22.94180      16.22223       0.10561       2.79327       0.10721      29.00000       0.50725      22.87510 
   3204.41960       0.10027       0.10111       8.50000       0.10103      -0.45460    -999.25000      63.40744      22.94180      16.21214       0.10561       2.79760       0.10721      29.00000       0.51243      22.87510 
   3204.57200       0.10027       0.10111       8.50000       0.10103      -0.45369    -999.25000      63.49478      22.94180      16.18491       0.10561       2.80922       0.10721      29.00000       0.51212      22.87510 
   3204.72440       0.10027       0.10111       8.50000       0.10103      -0.45271    -999.25000      63.72748      22.94180      16.15679       0.10561       2.82111       0.10721      29.00000       0.50291      22.87510 
   3204.87680       0.10027       0.10111       8.50000       0.10103      -0.45301    -999.25000      63.96019      22.94180      16.15753       0.10561       2.82771       0.10721      29.00000       0.48738      22.87510 
   3205.02920       0.10027       0.10111       8.50000       0.10103      -0.45417    -999.25000      64.10555      22.94180      16.17752       0.10561       2.83078       0.10721      29.00000       0.45917      22.87510 
   3205.18160       0.10027       0.10111       8.50000       0.10103      -0.45403    -999.25000      64.10555      22.94180      16.16666       0.10561       2.84229       0.10721      29.00000       0.42804      22.87510 
   3205.33400       0.10027       0.10111       8.50000       0.10103      -0.45135    -999.25000      64.10555      22.94180      16.18067       0.10561       2.86108       0.10721      29.00000       0.41496      22.87510 
