~Version Information
VERS  .          2.0                              :CWLS Log Ascii Standard - Version 2.0
WRAP  .          NO                               :One line per depth step
~Well Information Block
#MNEM.UNIT       Data Type                        Information
#---------       ---------                        -------------------------------
STRT  .M         3200.00000                       :START DEPTH
STOP  .M         3526.28800                       :STOP DEPTH
STEP  .M          0.15240                         :INCREMENT
NULL  .          -999.25                          :NULL DATA VALUE
COMP  .          Eni Australia Ltd                :COMPANY
WELL  .          Vesta-2	                    :WELL
FLD   .          Vesta                            :FIELD
LOC   .                                           :LOCATION
PROV  .                                           :PROVINCE
STAT  .                                           :STATE
CNTY  .                                           :COUNTY
CTRY  .                                           :COUNTRY
DATE  .                                           :DATE
UWI   .          Vesta-2                          :UNIQUE WELL UWI
LIC   .                                           :LICENSE NUMBER
API   .                                                                                                                                            :API NUMBER
SRVC  .                                           :SERVICE COMPANY
~Parameter Information Block
#MNEM.UNIT       Value                            Description
#---------       ---------                        -------------
~Curve Information Block
#MNEM.UNIT       API Code            Curve    Description
#--------        --------------      -----    -------------------
DEPT  .M                             :0       Index
BDAV  .OHMM                          :1       Average Deep Button Resistivity
BMAV  .OHMM                          :2       Average Medium Button Resistivity
BS    .IN                            :3       Bit Size                      
BSAV  .OHMM                          :4       Average Shallow Button Resistivity
DRHO  .G/C3                          :5       Bulk Density Correction       
DTCO  .US/F                          :6       Delta-T Compressional         
GR    .GAPI                          :7       Gamma Ray                     
HORD  .IN                            :8       Horizontal Hole Diameter      
PEF   .                              :9       Photoelectric Factor          
RBIT  .OHMM                          :10      Borehole-compensated Resistivity at the Bit
RHOB  .G/C3                          :11      Bulk Density                  
RING  .OHMM                          :12      Borehole-compensated Ring Resistivity
RPM   .RPM                           :13      Rotational Speed              
TNPH  .V/V                           :14      Thermal Neutron Porosity (Ratio Method) in Selected Lithology
VERD  .IN                            :15      Vertical Hole Diameter        
~Ascii Data Section
# ...
   3518.21120       4.23250       5.04105       8.50000       4.83766       0.00833    -999.25000     139.63849       8.20110       3.83596       5.18672       2.62179       5.60250     105.42257       0.28458       8.26780 
   3518.36360       4.40122       4.67206       8.50000       4.87660       0.00833    -999.25000     137.39212       8.20110       3.83596       5.12536       2.62179       4.96583      86.01680       0.28458       8.26780 
   3518.51600       4.36699       4.52619       8.50000       5.02197       0.00833    -999.25000     134.38519       8.20110       3.83596       5.14476       2.62179       4.95185      95.87664       0.28458       8.26780 
   3518.66840       4.52046       4.77152       8.50000       4.53541       0.00833    -999.25000     134.74872       8.20110       3.83596       5.11593       2.62179       4.63909      95.19737       0.28458       8.26780 
   3518.82080       6.01556       5.28337       8.50000       5.30626       0.00833    -999.25000     135.71660       8.20110       3.83596       5.11365       2.62179       4.99833      72.40000       0.28458       8.26780 
   3518.97320       4.14572       4.63147       8.50000       4.69217       0.00833    -999.25000     136.73523       8.20110       3.83596       5.09886       2.62179       4.55568      62.06614       0.28458       8.26780 
   3519.12560       4.23131       4.84281       8.50000       4.64973       0.00833    -999.25000     136.61154       8.20110       3.83596       5.12984       2.62179       4.93800      74.08714       0.28458       8.26780 
   3519.27800       3.93170       5.34366       8.50000       4.52806       0.00833    -999.25000     137.48790       8.20110       3.83596       5.07802       2.62179       4.48601     110.37008       0.28458       8.26780 
   3519.43040       4.36303       5.38038       8.50000       4.76873       0.00833    -999.25000     136.54358       8.20110       3.83596       5.13421       2.62179       5.27380      64.38950       0.28458       8.26780 
   3519.58280       4.26383       5.30520       8.50000       5.22170       0.00833    -999.25000     134.19681       8.20110       3.83596       5.16561       2.62179       4.53745      74.16116       0.28458       8.26780 
   3519.73520       5.27285       4.83762       8.50000       5.12685       0.00833    -999.25000     130.11607       8.20110       3.83596       5.24126       2.62179       4.85477      70.00000       0.28458       8.26780 
   3519.88760       4.58483       5.36517       8.50000       5.18329       0.00833    -999.25000     130.60347       8.20110       3.83596       5.16989       2.62179       5.47952      96.11181       0.28458       8.26780 
   3520.04000       4.60659       5.30163       8.50000       5.71469       0.00833    -999.25000     130.91699       8.20110       3.83596       5.21921       2.62179       5.10625     104.14960       0.28458       8.26780 
   3520.19240       5.56424       5.56854       8.50000       5.35257       0.00833    -999.25000     133.28526       8.20110       3.83596       5.20166       2.62179       5.18518      84.48032       0.28458       8.26780 
   3520.34480       4.99463       5.10771       8.50000       5.24125       0.00833    -999.25000     129.98982       8.20110       3.83596       5.19771       2.62179       5.07475      75.98688       0.28458       8.26780 
   3520.49720       4.63443       4.90780       8.50000       4.85462       0.00833    -999.25000     128.20924       8.20110       3.83596       5.18122       2.62179       5.14157      56.93753       0.28458       8.26780 
   3520.64960       4.18456       4.84252       8.50000       5.53592       0.00833    -999.25000     127.85442       8.20110       3.83596       5.19719       2.62179       5.23043      87.00000       0.28458       8.26780 
   3520.80200       4.53786       5.27029       8.50000       4.94889       0.00833    -999.25000     131.39729       8.20110       3.83596       5.21027       2.62179       4.73171      85.00000       0.28458       8.26780 
   3520.95440       5.12109       4.79898       8.50000       5.80490       0.00833    -999.25000     134.91927       8.20110       3.83596       5.35808       2.62179       5.35261      74.40000       0.28458       8.26780 
   3521.10680       5.07149       5.40656       8.50000       6.50251       0.00833    -999.25000     136.47734       8.20110       3.83596       5.42081       2.62179       5.04381      86.06247       0.28458       8.26780 
   3521.25920       4.82358       4.77798       8.50000       5.50766       0.00833    -999.25000     135.26349       8.20110       3.83596       5.74756       2.62179       5.05915      96.58425       0.28458       8.26780 
   3521.41160       5.19204       6.49413       8.50000       5.76203       0.00833    -999.25000     132.81290       8.20110       3.83596       5.72325       2.62179       5.65388      98.95065       0.28458       8.26780 
   3521.56400       4.96544       5.28987       8.50000       5.96426       0.00833    -999.25000     132.78262       8.20110       3.83596       5.58367       2.62179       5.44383     103.51968       0.28458       8.26780 
   3521.71640       5.21929       6.18689       8.50000       5.89619       0.00833    -999.25000     134.12553       8.20110       3.83596       5.57953       2.62179       5.80653      90.60000       0.28458       8.26780 
   3521.86880       4.74194       4.84425       8.50000       5.16288       0.00833    -999.25000     135.65730       8.20110       3.83596       5.59494       2.62179       4.85920      97.00000       0.28458       8.26780 
   3522.02120       4.66876       4.73451       8.50000       5.71338       0.00833    -999.25000     136.74289       8.20110       3.83596       5.47053       2.62179       4.75883     117.00000       0.28458       8.26780 
   3522.17360       4.64781       5.02563       8.50000       5.23154       0.00833    -999.25000     137.63464       8.20110       3.83596       5.30598       2.62179       5.07674      98.98425       0.28458       8.26780 
   3522.32600       4.67708       5.14811       8.50000       5.12760       0.00833    -999.25000     135.71167       8.20110       3.83596       5.29965       2.62179       5.08011      71.80000       0.28458       8.26780 
   3522.47840       5.49378       5.02738       8.50000       5.89394       0.00833    -999.25000     133.19391       8.20110       3.83596       5.32448       2.62179       4.90765      66.40000       0.28458       8.26780 
   3522.63080       5.22328       4.66771       8.50000       5.15893       0.00833    -999.25000     131.93436       8.20110       3.83596       5.30699       2.62179       5.37761      96.00000       0.28458       8.26780 
   3522.78320       4.69076       5.17472       8.50000       4.98352       0.00833    -999.25000     134.10229       8.20110       3.83596       5.29286       2.62179       5.19742      85.80000       0.28458       8.26780 
   3522.93560       4.50874       6.56161       8.50000       6.01205       0.00833    -999.25000     136.08405       8.20110       3.83596       5.34559       2.62179       4.92266      86.41943       0.28458       8.26780 
   3523.08800       4.81393       4.99509       8.50000       5.16870       0.00833    -999.25000     134.91975       8.20110       3.83596       5.34586       2.62179       4.73425     110.29921       0.28458       8.26780 
   3523.24040       5.29005       5.99530       8.50000       5.30353       0.00833    -999.25000     133.40640       8.20110       3.83596       5.32795       2.62179       5.23459      83.18793       0.28458       8.26780 
   3523.39280       5.72620       4.83072       8.50000       5.80903       0.00833    -999.25000     133.45009       8.20110       3.83596       5.35244       2.62179       6.22972      97.41575       0.28458       8.26780 
   3523.54520       4.56380       4.56152       8.50000       4.78767       0.00833    -999.25000     135.17570       8.20110       3.83596       5.34383       2.62179       4.45140      99.00000       0.28458       8.26780 
