~Version Information
VERS  .          2.0                              :CWLS Log Ascii Standard - Version 2.0
WRAP  .          NO                               :One line per depth step
~Well Information Block
#MNEM.UNIT       Data Type                        Information
#---------       ---------                        -------------------------------
STRT  .M         3200.00000                       :START DEPTH
STOP  .M         3526.28800                       :STOP DEPTH
STEP  .M          0.15240                         :INCREMENT
NULL  .          -999.25                          :NULL DATA VALUE
COMP  .          Eni Australia Ltd                :COMPANY
WELL  .          Vesta-2	                    :WELL
FLD   .          Vesta                            :FIELD
LOC   .                                           :LOCATION
PROV  .                                           :PROVINCE
STAT  .                                           :STATE
CNTY  .                                           :COUNTY
CTRY  .                                           :COUNTRY
DATE  .                                           :DATE
UWI   .          Vesta-2                          :UNIQUE WELL UWI
LIC   .                                           :LICENSE NUMBER
API   .                                                                                                                                            :API NUMBER
SRVC  .                                           :SERVICE COMPANY
~Parameter Information Block
#MNEM.UNIT       Value                            Description
#---------       ---------                        -------------
~Curve Information Block
#MNEM.UNIT       API Code            Curve    Description
#--------        --------------      -----    -------------------
DEPT  .M                             :0       Index
BDAV  .OHMM                          :1       Average Deep Button Resistivity
BMAV  .OHMM                          :2       Average Medium Button Resistivity
BS    .IN                            :3       Bit Size                      
BSAV  .OHMM                          :4       Average Shallow Button Resistivity
DRHO  .G/C3                          :5       Bulk Density Correction       
DTCO  .US/F                          :6       Delta-T Compressional         
GR    .GAPI                          :7       Gamma Ray                     
HORD  .IN                            :8       Horizontal Hole Diameter      
PEF   .                              :9       Photoelectric Factor          
RBIT  .OHMM                          :10      Borehole-compensated Resistivity at the Bit
RHOB  .G/C3                          :11      Bulk Density                  
RING  .OHMM                          :12      Borehole-compensated Ring Resistivity
RPM   .RPM                           :13      Rotational Speed              
TNPH  .V/V                           :14      Thermal Neutron Porosity (Ratio Method) in Selected Lithology
VERD  .IN                            :15      Vertical Hole Diameter        
~Ascii Data Section
# ...
   3282.29600       4.65450       5.07063       8.50000       5.43115       0.08126      94.06464     141.39526       8.28447       3.64822       2.41147       2.56927       5.19126      26.90131       0.31107       8.40120 
   3282.44840       4.56216       5.01887       8.50000       5.47703       0.08997      95.36909     141.50157       8.32788       3.69487       2.42915       2.55332       5.08403      26.00000       0.31333       8.41121 
   3282.60080       4.77389       5.23044       8.50000       5.57814       0.08456      93.96319     141.69453       8.49297       3.73087       2.44445       2.54891       5.22930      26.00000       0.31510       8.46794 
   3282.75320       4.86952       5.49528       8.50000       5.57567       0.06775      93.78959     141.10680       8.57627       3.73319       2.46778       2.54598       5.58762      25.47402       0.31630       8.55963 
   3282.90560       4.90821       5.44156       8.50000       5.53060       0.06370      97.60732     139.28458       8.53460       3.76057       2.67656       2.55844       5.12127      26.00000       0.30469       8.60130 
   3283.05800       4.50903       5.18112       8.50000       5.38203       0.06473      96.66045     131.99211       8.58467       3.82505       2.72205       2.56817       5.13478      26.52598       0.29316       8.65137 
   3283.21040       4.82955       5.42110       8.50000       5.57151       0.07222      93.76748     112.63132       8.66800       3.78095       2.76127       2.58545       5.74621      26.52598       0.28561       8.73470 
   3283.36280       8.61061      28.10358       8.50000      10.35705       0.07302      88.35431      90.54530       8.64297       3.75664       2.82158       2.59369      21.45166      26.00000       0.26722       8.68463 
   3283.51520      42.90612      48.90697       8.50000      43.37199       0.08083      81.70561      82.03005       9.63272       3.70488       2.87467       2.61273      59.19633      27.12336       0.23170       9.63772 
   3283.66760       9.26061       9.44365       8.50000      11.64952       0.08789      80.18896      96.31705      10.26785       3.68659       2.86710       2.63240       6.70183      27.00000       0.19854      10.27619 
   3283.82000       5.42620       6.29537       8.50000       6.86211       0.08988      82.53651     117.64931       8.49293       3.54832       2.74998       2.64792       5.46479      27.00000       0.17823       8.46790 
   3283.97240       6.20894       7.46860       8.50000       6.64071       0.07860      83.34945     132.27617       8.48453       3.48529       2.61676       2.65432       7.33022      26.00000       0.17932       8.49293 
   3284.12480       5.77089       6.15155       8.50000       6.17535       0.05512      87.01014     136.89122       8.37617       3.67685       2.58730       2.65027       6.05982      23.00000       0.20332       8.50957 
   3284.27720       5.36602       6.59632       8.50000       7.00756       0.04622      90.83280     138.03577       8.25940       3.77859       2.60765       2.65084       6.03867      24.40000       0.24164       8.41783 
   3284.42960       6.56115       6.34509       8.50000       6.33128       0.05387      90.77670     136.75133       8.15943       3.72045       2.61629       2.64768       5.92971      24.00000       0.26161       8.35953 
   3284.58200       6.07149       6.39143       8.50000       6.84806       0.06649      89.15888     136.24771       8.20110       3.53502       2.64969       2.63241       5.71106      22.80000       0.25805       8.40120 
   3284.73440       5.41183       5.73410       8.50000       6.42487       0.06565      88.08431     136.63309       8.22613       3.46274       2.72207       2.60668       6.24032      22.00000       0.26325       8.37617 
   3284.88680       5.86888       6.16194       8.50000       6.69579       0.05714      87.76742     137.06921       8.28783       3.50516       2.73695       2.58717       5.91383      23.69869       0.27601       8.37456 
   3285.03920       5.51409       5.90405       8.50000       6.46565       0.05352      87.14843     132.02094       8.35120       3.59727       2.77921       2.58549       5.91655      24.12336       0.28230       8.47627 
   3285.19160       5.87628       6.52032       8.50000       6.68506       0.05802      88.33757     124.35557       8.47630       3.70064       2.81365       2.60625       7.17633      23.12336       0.27508       8.58467 
   3285.34400       6.77351       6.86957       8.50000       7.89867       0.06115      88.06183     114.98769       8.60130       3.81479       2.85480       2.63618       7.30807      22.92598       0.27230       8.66800 
   3285.49640       6.01542       6.61532       8.50000       6.59497       0.05656      86.99904     110.31683       8.52620       3.88559       2.87862       2.65150       6.79164      23.00000       0.27299       8.61793 
   3285.64880       6.95600      10.22028       8.50000      12.62821       0.04736      85.11169     110.90436       8.35113       3.97496       2.88459       2.64728       8.10169      22.37008       0.26194       8.55963 
   3285.80120       6.17559       7.43844       8.50000       8.22688       0.05135      82.50420     116.15852       8.31787       3.94556       2.88511       2.65044       8.71325      23.04934       0.24687       8.52620 
   3285.95360       5.36739       6.16609       8.50000       7.63110       0.06720      81.99698     119.42256       8.52637       3.83925       2.86701       2.66281       6.13022      23.17533       0.23651       8.42623 
   3286.10600       6.00956       6.92267       8.50000       7.52322       0.07803      83.35423     112.15626       8.65960       3.71571       2.81485       2.66138       6.19253      21.49344       0.23224       8.41783 
   3286.25840      16.19110       9.84271       8.50000       8.78613       0.08202      85.05484      96.74370       8.43446       3.74078       2.75442       2.64852      13.43253      23.90131       0.22735       8.33450 
   3286.41080      21.20825      24.81993       8.50000      22.57412       0.08235      77.78835      88.39774       8.29283       3.76000       2.75331       2.63641      13.18519      24.00000       0.21430       8.35953 
   3286.56320      15.56493      11.00181       8.50000      17.31857       0.08287      70.03837      97.64632       8.33450       3.71629       2.74342       2.63987      14.26282      24.00000       0.19035       8.42623 
   3286.71560       5.53181       6.91403       8.50000       8.77081       0.08045      68.27145     118.96446       8.33450       3.61870       2.67192       2.63355       6.03817      23.52598       0.17475       8.46790 
   3286.86800       5.46659       6.15789       8.50000       6.23397       0.07774      71.73203     136.91183       8.38457       3.62159       2.58231       2.62148       5.70844      23.95066       0.18357       8.49293 
   3287.02040       5.20625       5.22832       8.50000       5.93427       0.08928      78.24859     140.34042       9.54939       3.70346       2.51665       2.60881       5.48508      25.00000       0.22060       8.53460 
   3287.17280       6.00977       5.73662       8.50000       5.43451       0.10375      82.67211     133.31070      15.67528       3.72739       2.47889       2.59735       6.08689      23.40000       0.26477       8.53460 
   3287.32520       5.79795       8.60781       8.50000       5.45713       0.10890      84.97282     122.59355      17.46767       3.67043       2.47351       2.58918       9.30853      23.00000       0.28075       8.58467 
   3287.47760       7.27699       7.75138       8.50000       6.80217       0.09701      84.41092     121.17701       8.46790       3.64034       2.49961       2.58899       8.85483      24.42467       0.27847       8.66800 
   3287.63000       6.48718       6.11088       8.50000       7.23938       0.07342      83.35560     128.41762       8.46790       3.61407       2.52090       2.59417       5.03528      22.47402       0.26829       8.61793 
