~Version Information
VERS  .          2.0                              :CWLS Log Ascii Standard - Version 2.0
WRAP  .          NO                               :One line per depth step
~Well Information Block
#MNEM.UNIT       Data Type                        Information
#---------       ---------                        -------------------------------
STRT  .M         3200.00000                       :START DEPTH
STOP  .M         3526.28800                       :STOP DEPTH
STEP  .M          0.15240                         :INCREMENT
NULL  .          -999.25                          :NULL DATA VALUE
COMP  .          Eni Australia Ltd                :COMPANY
WELL  .          Vesta-2	                    :WELL
FLD   .          Vesta                            :FIELD
LOC   .                                           :LOCATION
PROV  .                                           :PROVINCE
STAT  .                                           :STATE
CNTY  .                                           :COUNTY
CTRY  .                                           :COUNTRY
DATE  .                                           :DATE
UWI   .          Vesta-2                          :UNIQUE WELL UWI
LIC   .                                           :LICENSE NUMBER
API   .                                                                                                                                            :API NUMBER
SRVC  .                                           :SERVICE COMPANY
~Parameter Information Block
#MNEM.UNIT       Value                            Description
#---------       ---------                        -------------
~Curve Information Block
#MNEM.UNIT       API Code            Curve    Description
#--------        --------------      -----    -------------------
DEPT  .M                             :0       Index
BDAV  .OHMM                          :1       Average Deep Button Resistivity
BMAV  .OHMM                          :2       Average Medium Button Resistivity
BS    .IN                            :3       Bit Size                      
BSAV  .OHMM                          :4       Average Shallow Button Resistivity
DRHO  .G/C3                          :5       Bulk Density Correction       
DTCO  .US/F                          :6       Delta-T Compressional         
GR    .GAPI                          :7       Gamma Ray                     
HORD  .IN                            :8       Horizontal Hole Diameter      
PEF   .                              :9       Photoelectric Factor          
RBIT  .OHMM                          :10      Borehole-compensated Resistivity at the Bit
RHOB  .G/C3                          :11      Bulk Density                  
RING  .OHMM                          :12      Borehole-compensated Ring Resistivity
RPM   .RPM                           :13      Rotational Speed              
TNPH  .V/V                           :14      Thermal Neutron Porosity (Ratio Method) in Selected Lithology
VERD  .IN                            :15      Vertical Hole Diameter        
~Ascii Data Section
# ...
   3243.89120       5.02715       3.72828       8.50000       1.54688       0.18096      80.65971      67.32755      14.56701       5.43791       0.10551       2.00073       0.37287       0.00000       0.42816      14.79197 
   3244.04360       5.55944       5.46448       8.50000       1.81100       0.19998      82.38092      78.24101      19.53712       5.50187       0.10551       1.97214      13.93912       0.00000       0.42742      19.33023 
   3244.19600       5.24305       3.70845       8.50000       0.31068       0.18773      84.82236      97.74977      13.04446       5.50626       0.10551       1.94609       9.91994      40.80000       0.43054      12.54416 
   3244.34840       5.42417       2.51529       8.50000       0.17972       0.18271      85.82452     115.47653      11.66950       5.54294       0.10551       1.95419       5.88597      27.20000       0.41128      11.03916 
   3244.50080       4.91433       1.50488       8.50000       0.16375       0.18439      85.79510     128.00833      11.64447       5.52507       0.10551       1.97193       5.28408       0.00000       0.41275      10.89403 
   3244.65320       4.79491       1.39583       8.50000       0.15948       0.19281      85.91224     131.33194      11.55273       5.42640       0.10551       1.99128       5.46294       0.00000       0.41697      10.71067 
   3244.80560       5.04712       1.42279       8.50000       0.18064       0.20042      84.65597     131.13150      11.41933       5.28294       0.10551       1.99762       6.16225       0.00000       0.45508      10.69403 
   3244.95800       4.47642       1.60539       8.50000       0.18053       0.20651      83.16676     129.32932      11.36103       5.27517       0.10551       2.00038       5.42221       0.00000       0.48617      10.73570 
   3245.11040       4.45708       1.71273       8.50000       0.18215       0.20522      82.63126     131.47896      11.37266       5.32114       0.61469       1.99580       5.47891       0.00000       0.48723      10.76574 
   3245.26280       4.63741       1.77741       8.50000       0.19065       0.20425      82.01413     133.12207      11.25256       5.37587       1.89105       1.99717       5.74510       0.00000       0.45871      10.88083 
   3245.41520       4.52687       1.74420       8.50000       0.19572       0.20260      80.76820     131.16106      11.13590       5.45353       1.92670       2.00140       5.50130       0.00000       0.45266      10.99417 
   3245.56760       4.37037       1.81603       8.50000       0.25003       0.20307      79.61308     127.81403      11.13590       5.47076       1.93568       2.00320       5.49317       0.00000       0.46478      11.02753 
   3245.72000       4.52872       1.64241       8.50000       0.26310       0.20193      80.80262     125.68022      11.13590       5.44565       1.95214       1.99593       5.56266       0.00000       0.46313      11.06920 
   3245.87240       4.88204       1.65056       8.50000       0.27374       0.20030      84.07701     121.84274      11.11087       5.34991       1.97781       1.98704       6.17598       0.00000       0.43405      11.04417 
   3246.02480       4.97729       1.61481       8.50000       0.27371       0.20019      87.01322     119.72395      11.08923       5.31250       2.00812       1.98472       6.26061       0.00000       0.41467      11.00250 
   3246.17720       4.69271       1.35560       8.50000       0.23293       0.20018      88.50692     121.15822      11.13758       5.37066       2.03474       1.98304       5.80340       0.00000       0.40938      11.01752 
   3246.32960       4.25593       1.21041       8.50000       0.25994       0.19735      89.10654     126.85647      11.17760       5.37494       2.05406       1.97544       5.79656       0.00000       0.41457      11.02750 
   3246.48200       4.04552       1.14807       8.50000       0.26964       0.19418      91.73447     131.05991      11.17757       5.31120       2.07505       1.96744       5.49688       0.00000       0.42255      11.00250 
   3246.63440       4.14846       1.15750       8.50000       0.27418       0.19260      93.83493     131.72725      11.13590       5.16763       2.10904       1.96305       5.96052       0.00000       0.43288      11.00250 
   3246.78680       4.24627       1.24364       8.50000       0.21562       0.17822      93.76254     131.22398      11.16093       5.14922       2.14944       1.95103       6.25676       0.00000       0.42289      11.02753 
   3246.93920       4.31099       0.91591       8.50000       0.21336       0.16088      90.81617     132.59363      11.20260       5.29358       2.20828       1.94401       6.35206       0.00000       0.39462      11.09423 
   3247.09160       3.89442       0.90888       8.50000       0.21224       0.14471      82.77690     131.87286      11.20260       5.43368       2.26442       1.93847       6.34689       0.00000       0.34983      11.11087 
   3247.24400       3.67992       0.87941       8.50000       0.20436       0.13248      75.30774     122.23209      11.20260       5.57299       2.31372       1.93517       5.79025      59.00000       0.30118      11.06920 
   3247.39640       4.16381       0.86522       8.50000       0.19606       0.11697      70.73608     103.31579      11.17757       5.69859       2.37708       1.92750       7.06122      59.00000       0.26915      11.04417 
   3247.54880       6.60237       0.92262       8.50000       0.22684       0.10472      66.87394      83.13902      11.12088       5.92463       2.42220       1.93041      14.38899      59.00000       0.23965      10.99249 
   3247.70120       7.65910       0.96990       8.50000       0.23250       0.09756      64.98096      69.38124      11.11090       6.22915       2.47567       1.93769      27.75400      59.60000       0.23181      10.96080 
   3247.85360       7.20346       0.99785       8.50000       0.22196       0.09754      66.02333      59.90461      11.11087       6.28712       2.49981       1.93997      20.16378      59.00000       0.24123      10.93580 
   3248.00600       8.34520       1.00176       8.50000       0.22204       0.10298      69.83220      52.93311      10.96906       5.97618       2.43820       1.93538      28.04884      59.04934       0.27946      10.88573 
   3248.15840       9.07746       1.03458       8.50000       0.24222       0.10834      76.56222      51.50343      10.62716       5.61920       2.34293       1.92849      30.12421      59.00000       0.33707      10.87750 
   3248.31080       8.42794       1.02254       8.50000       0.24451       0.11310      84.76114      64.44539      10.43564       5.42024       2.30523       1.92582      16.71910      59.00000       0.39980      10.97747 
   3248.46320       4.73618       0.94830       8.50000       0.20665       0.11088      89.84945      88.87090      11.15306       5.49044       2.20317       1.91938       9.52406      58.24672       0.45490      10.96083 
   3248.61560       3.63431       0.91289       8.50000       0.20779       0.10728      91.79307     114.83230      11.89446       5.54205       2.14323       1.91100       5.59523      59.00000       0.48710      10.97747 
   3248.76800       3.81258       0.86747       8.50000       0.24678       0.10463      89.90049     130.57983      11.85314       5.51336       2.10420       1.90492       5.99857      59.00000       0.48028      10.93580 
   3248.92040       3.70369       0.85271       8.50000       0.22869       0.10301      88.46343     135.13208      11.86925       5.34195       2.12391       1.90221       6.11917      59.00000       0.42600      10.96083 
   3249.07280       3.67270       0.86084       8.50000       0.21060       0.10276      87.47665     131.77330      11.35281       5.26529       2.18338       1.90423       6.09800      60.00000       0.37483      11.02753 
   3249.22520       3.66468       0.88543       8.50000       0.20864       0.10337      83.88519     125.77635      12.40390       5.34677       2.26431       1.90997       6.01879      59.52598       0.34423      11.06920 
