~Version Information
VERS  .          2.0                              :CWLS Log Ascii Standard - Version 2.0
WRAP  .          NO                               :One line per depth step
~Well Information Block
#MNEM.UNIT       Data Type                        Information
#---------       ---------                        -------------------------------
STRT  .M         3200.00000                       :START DEPTH
STOP  .M         3526.28800                       :STOP DEPTH
STEP  .M          0.15240                         :INCREMENT
NULL  .          -999.25                          :NULL DATA VALUE
COMP  .          Eni Australia Ltd                :COMPANY
WELL  .          Vesta-2	                    :WELL
FLD   .          Vesta                            :FIELD
LOC   .                                           :LOCATION
PROV  .                                           :PROVINCE
STAT  .                                           :STATE
CNTY  .                                           :COUNTY
CTRY  .                                           :COUNTRY
DATE  .                                           :DATE
UWI   .          Vesta-2                          :UNIQUE WELL UWI
LIC   .                                           :LICENSE NUMBER
API   .                                                                                                                                            :API NUMBER
SRVC  .                                           :SERVICE COMPANY
~Parameter Information Block
#MNEM.UNIT       Value                            Description
#---------       ---------                        -------------
~Curve Information Block
#MNEM.UNIT       API Code            Curve    Description
#--------        --------------      -----    -------------------
DEPT  .M                             :0       Index
BDAV  .OHMM                          :1       Average Deep Button Resistivity
BMAV  .OHMM                          :2       Average Medium Button Resistivity
BS    .IN                            :3       Bit Size                      
BSAV  .OHMM                          :4       Average Shallow Button Resistivity
DRHO  .G/C3                          :5       Bulk Density Correction       
DTCO  .US/F                          :6       Delta-T Compressional         
GR    .GAPI                          :7       Gamma Ray                     
HORD  .IN                            :8       Horizontal Hole Diameter      
PEF   .                              :9       Photoelectric Factor          
RBIT  .OHMM                          :10      Borehole-compensated Resistivity at the Bit
RHOB  .G/C3                          :11      Bulk Density                  
RING  .OHMM                          :12      Borehole-compensated Ring Resistivity
RPM   .RPM                           :13      Rotational Speed              
TNPH  .V/V                           :14      Thermal Neutron Porosity (Ratio Method) in Selected Lithology
VERD  .IN                            :15      Vertical Hole Diameter        
~Ascii Data Section
# ...
   3304.24160       7.28990       9.47532       8.50000      11.81682       0.05338      84.12656     114.09254       8.56786       3.50166       3.60332       2.67657       8.24516      23.62992       0.13282       8.40120 
   3304.39400       7.21470       8.01157       8.50000       7.08985       0.04860      84.79816     137.72388       8.40120       3.46936       3.57105       2.66835       7.48645      17.87664       0.13713       8.42623 
   3304.54640       7.54852       6.91736       8.50000       6.97849       0.05355      86.78870     151.09209       8.40120       3.35286       3.62872       2.64654       8.29727      20.00000       0.15654       8.44287 
   3304.69880       6.56619       6.59537       8.50000       6.44606       0.05685      87.77988     150.08476       8.40120       3.35384       3.76563       2.62465       8.03269      21.00000       0.20125       8.40120 
   3304.85120       7.74832       7.51871       8.50000       6.41791       0.05416      88.41787     131.20053       8.38618       3.45983       3.83655       2.60979       9.09180      18.00000       0.25146       8.37617 
   3305.00360      20.09583      12.51360       8.50000       7.24407       0.04996      83.77895      96.67466       8.37119       3.62910       3.98178       2.61730      16.16265      17.90131       0.26749       8.34451 
   3305.15600     299.64490     590.89069       8.50000     185.52809       0.03426      74.07092      63.30896       8.41790       3.89265       4.07345       2.63185     498.71976      21.80262       0.24233       8.37620 
   3305.30840     462.72653     735.59717       8.50000     343.52722       0.02445      68.25969      48.99221       8.46790       3.96192       4.13697       2.64041     761.12354      18.94803       0.19340       8.45127 
   3305.46080     187.33838     770.16833       8.50000     188.81792       0.03127      63.95875      63.08836       8.49293       3.63943       4.05862       2.64797     244.41319      21.72861       0.13829       8.48453 
   3305.61320       8.70540      15.27536       8.50000      10.96299       0.04677      68.34738      96.05343       8.50957       3.24546       3.83612       2.64651       7.20706      18.37008       0.10504       8.37617 
   3305.76560       5.93185       7.30405       8.50000       7.78629       0.05100      75.64707     125.28445       8.46790       3.16688       3.70000       2.62558       5.81206      20.32861       0.10104       8.33450 
   3305.91800       6.18062       6.37074       8.50000       0.60304       0.04282      75.47433     144.25504       8.44287       3.47896       3.60232       2.54355       6.21567      21.18320       0.12947       8.33450 
   3306.07040       5.67175       4.86586       8.50000       1.02105       0.06047      76.51581     153.64615       8.47630       3.86965       3.63793       2.45328       6.03698      21.80000       0.19894       8.35953 
   3306.22280       5.91018       4.95341       8.50000       0.94162       0.07859      80.85756     160.61360       9.00185       4.13963       3.77958       2.40061       6.13219      19.60000       0.27666       8.55141 
   3306.37520       5.94167       4.88278       8.50000       1.85046       0.08477      84.67317     161.07892       9.49326       4.19732       3.98125       2.39310       6.35278      20.00000       0.33773       9.20195 
   3306.52760       5.46361       5.12627       8.50000       0.73172       0.07563      87.48358     155.54677       9.20160       4.05160       4.25530       2.40937       6.21497      20.42467       0.35324       9.86860 
   3306.68000       5.88140       5.19928       8.50000       1.05799       0.08095      90.02528     146.87384       9.07643       3.90480       4.45801       2.42049       6.81989      20.00000       0.34389       9.74343 
   3306.83240       6.27092       5.70203       8.50000       1.66119       0.09080      83.02960     134.97664       8.93820       3.83784       4.57875       2.41993       6.86688      20.00000       0.32838       9.58517 
   3306.98480       7.54674       6.51669       8.50000       1.86267       0.09208      76.30954     117.51068       9.16000       3.83820       4.62408       2.42816       8.16685      19.60000       0.29910       9.74360 
   3307.13720      12.35730       8.79394       8.50000       6.85405       0.08807      76.02602     100.92978       9.33500       3.75039       4.70177       2.46564      11.08508      20.95066       0.26324       9.71839 
   3307.28960       8.13454       5.37652       8.50000       5.05610       0.06943      73.88227      92.88469       9.25990       3.56040       4.82921       2.50874       8.20032      20.40000       0.22910       9.44337 
   3307.44200       5.46068       5.09723       8.50000       1.53260       0.05289      74.00059      91.04664       8.92461       3.38518       4.97036       2.51727       6.38992      18.60000       0.19478       9.01617 
   3307.59440       5.10697       3.83988       8.50000       0.42385       0.03760      72.15781      85.35633       8.53456       3.44701       4.98879       2.44359       7.17746      19.52598       0.16508       8.43460 
   3307.74680      14.64139      14.99979       8.50000       1.05489       0.05090      68.53098      68.49925       8.69321       3.68730       5.15873       2.34564      13.65369      19.47402       0.14204       8.45950 
   3307.89920      14.83723      13.16976       8.50000       6.25790       0.07161      68.18125      49.35711       9.11827       3.65493       5.49535       2.32274      16.81440      18.52598       0.13623       8.60988 
   3308.05160      12.36796       9.13398       8.50000       6.16799       0.06257      70.02946      35.90418       9.42691       3.25387       5.68053       2.35835      15.12154      19.95066       0.13626       8.91799 
   3308.20400      10.24633       8.05991       8.50000       4.28427       0.03659      70.92268      30.57032       9.55156       2.71090       5.74944       2.43068      14.31122      19.40000       0.12386       8.66800 
   3308.35640      10.28152       5.51964       8.50000       3.33533       0.00535      70.57974      28.73728       8.83449       2.39913       5.63135       2.45804      11.97754      19.92598       0.10321       8.51779 
   3308.50880       8.85898       5.17534       8.50000       3.23554       0.00616      70.27381      28.02267       8.32449       2.37972       5.49297       2.45995      11.71884      18.40000       0.08786       8.26780 
   3308.66120       7.90317       5.19913       8.50000       3.41292       0.01077      69.72182      27.98140       8.30782       2.47361       5.37037       2.46127      11.22745      19.00000       0.08453       8.26780 
   3308.81360       7.47910       5.61062       8.50000       3.90204       0.01469      68.99247      27.92792       8.31783       2.54296       5.20493       2.47277      10.72099      19.00000       0.08761       8.26780 
   3308.96600       7.80865       5.64899       8.50000       4.05429       0.01259      68.48305      27.42267       8.30947       2.51396       5.08036       2.48661      10.63910      16.00000       0.09096       8.26780 
   3309.11840       8.18887       6.04019       8.50000       4.09545       0.00625      67.93751      27.26434       8.26780       2.44282       4.91574       2.48998      10.67314      19.60000       0.09254       8.26780 
   3309.27080       8.39381       5.98229       8.50000       4.09075      -0.00083      67.41661      27.84968       8.26780       2.46904       4.75845       2.47472      10.97501      18.18058       0.09303       8.26780 
   3309.42320       8.05599       5.89706       8.50000       3.78210       0.00062      67.68716      28.56282       8.26780       2.55601       4.61963       2.46162      10.97419      23.00000       0.09321       8.26780 
   3309.57560       6.97254       5.07475       8.50000       3.09436       0.01014      69.29649      30.33035       8.24277       2.61128       4.44324       2.45807      10.01382      22.00000       0.09418       8.24277 
