~Version Information
VERS  .          2.0                              :CWLS Log Ascii Standard - Version 2.0
WRAP  .          NO                               :One line per depth step
~Well Information Block
#MNEM.UNIT       Data Type                        Information
#---------       ---------                        -------------------------------
STRT  .M         3200.00000                       :START DEPTH
STOP  .M         3526.28800                       :STOP DEPTH
STEP  .M          0.15240                         :INCREMENT
NULL  .          -999.25                          :NULL DATA VALUE
COMP  .          Eni Australia Ltd                :COMPANY
WELL  .          Vesta-2	                    :WELL
FLD   .          Vesta                            :FIELD
LOC   .                                           :LOCATION
PROV  .                                           :PROVINCE
STAT  .                                           :STATE
CNTY  .                                           :COUNTY
CTRY  .                                           :COUNTRY
DATE  .                                           :DATE
UWI   .          Vesta-2                          :UNIQUE WELL UWI
LIC   .                                           :LICENSE NUMBER
API   .                                                                                                                                            :API NUMBER
SRVC  .                                           :SERVICE COMPANY
~Parameter Information Block
#MNEM.UNIT       Value                            Description
#---------       ---------                        -------------
~Curve Information Block
#MNEM.UNIT       API Code            Curve    Description
#--------        --------------      -----    -------------------
DEPT  .M                             :0       Index
BDAV  .OHMM                          :1       Average Deep Button Resistivity
BMAV  .OHMM                          :2       Average Medium Button Resistivity
BS    .IN                            :3       Bit Size                      
BSAV  .OHMM                          :4       Average Shallow Button Resistivity
DRHO  .G/C3                          :5       Bulk Density Correction       
DTCO  .US/F                          :6       Delta-T Compressional         
GR    .GAPI                          :7       Gamma Ray                     
HORD  .IN                            :8       Horizontal Hole Diameter      
PEF   .                              :9       Photoelectric Factor          
RBIT  .OHMM                          :10      Borehole-compensated Resistivity at the Bit
RHOB  .G/C3                          :11      Bulk Density                  
RING  .OHMM                          :12      Borehole-compensated Ring Resistivity
RPM   .RPM                           :13      Rotational Speed              
TNPH  .V/V                           :14      Thermal Neutron Porosity (Ratio Method) in Selected Lithology
VERD  .IN                            :15      Vertical Hole Diameter        
~Ascii Data Section
# ...
   3221.94560       0.10027       0.10112       8.50000       0.10104      -0.44435    -999.25000      67.47240      14.62531      18.85990       0.10562       2.60307       0.10727       0.00000       0.40583       9.59340 
   3222.09800       0.10027       0.10112       8.50000       0.10104      -0.44483    -999.25000      67.47240      17.86822      18.95983       0.10562       2.59479       0.10727       0.00000       0.42347       9.49343 
   3222.25040       0.10027       0.10112       8.50000       0.10104      -0.44368    -999.25000      67.47240       9.56514      18.92293       0.10562       2.59705       0.10727       0.00000       0.43041       9.56013 
   3222.40280       0.10027       0.10112       8.50000       0.10104      -0.44383    -999.25000      67.47240       9.63517      18.64767       0.10562       2.60307       0.10727       0.00000       0.42943       9.62683 
   3222.55520       0.10027       0.10112       8.50000       0.10104      -0.44519    -999.25000      67.47240       9.64347      18.49093       0.10562       2.60539       0.10727       0.00000       0.42745       9.64347 
   3222.70760       0.10027       0.10112       8.50000       0.10104      -0.44696    -999.25000      67.47240       9.67690      17.98039       0.10562       2.60372       0.10727       0.00000       0.43340       9.65187 
   3222.86000       0.10027       0.10112       8.50000       0.10104      -0.44776    -999.25000      67.47240       9.85197      17.77789       0.10562       2.60408       0.10727       0.00000       0.44430       9.81030 
   3223.01240       0.10027       0.10112       8.50000       0.10104      -0.44536    -999.25000      68.75709      10.11054      17.62689       0.10562       2.61517       0.10727       0.00000       0.44785      10.03544 
   3223.16480       0.10027       0.10112       8.50000       0.10104      -0.44437    -999.25000      72.17992      10.40220      17.84287       0.10562       2.61672       0.10727       0.00000       0.45403      10.32727 
   3223.31720       0.10027       0.10112       8.50000       0.10104      -0.44566    -999.25000      75.60274      10.45227      18.04920       0.10562       2.61345       0.10727       0.00000       0.44207      10.56063 
   3223.46960       0.10027       0.10112       8.50000       0.10104      -0.44618    -999.25000      77.74088      12.74363      18.23195       0.10562       2.61072       0.10727       0.00000       0.43003      12.20450 
   3223.62200       0.10027       0.10112       8.50000       0.10104      -0.44596    -999.25000      76.94486      14.04528      18.66093       0.10562       2.61109       0.10727       0.00000       0.41422      12.86835 
   3223.77440       0.10027       0.10112       8.50000       0.10104      -0.44356    -999.25000      74.37846       9.93516      18.88640       0.10562       2.62136       0.10727       0.00000       0.41500       9.53510 
   3223.92680       0.10027       0.10112       8.50000       0.10104      -0.44332    -999.25000      71.07051       9.66850      18.80926       0.10562       2.62830       0.10727       0.00000       0.40800       9.51007 
   3224.07920       0.10027       0.10112       8.50000       0.10104      -0.44579    -999.25000      68.55858       9.64347      18.45043       0.10562       2.62725       0.10727       0.00000       0.41039       9.46840 
   3224.23160       0.10027       0.10112       8.50000       0.10104      -0.45021    -999.25000      67.81704       9.60180      18.29051       0.10562       2.61058       0.10727       0.00000       0.40577       9.49343 
   3224.38400       0.10027       0.10112       8.50000       0.10104      -0.45552    -999.25000      67.81704       9.60180      18.42885       0.10562       2.59243       0.10727       0.00000       0.40898       9.53510 
   3224.53640       0.10027       0.10112       8.50000       0.10104      -0.45531    -999.25000      67.81704       9.60180      18.57433       0.10562       2.59748       0.10727       0.00000       0.41070       9.48503 
   3224.68880       0.10027       0.10112       8.50000       0.10104      -0.45466    -999.25000      67.81704       9.62683      18.54480       0.10562       2.60540       0.10727       0.00000       0.40829       9.45177 
   3224.84120       0.10027       0.10112       8.50000       0.10104      -0.45332    -999.25000      67.81704       9.64847      18.38739       0.10562       2.61424       0.10727       0.00000       0.40515       9.49504 
   3224.99360       0.10027       0.10109       8.50000       0.10102      -0.45595    -999.25000      67.81704       9.62015      18.24618       0.10559       2.60579       0.10712       0.00000       0.40995       9.42337 
   3225.14600       0.10026       0.10105       8.50000       0.10098      -0.45596    -999.25000      67.81704       9.64350      18.18981       0.10553       2.60478       0.10686       0.00000       0.44337       9.41003 
   3225.29840       0.10026       0.10105       8.50000       0.10098      -0.45618    -999.25000      67.81704       9.66850      18.55099       0.10553       2.59831       0.10686       0.00000       0.47575       9.45177 
   3225.45080       0.10026       0.10105       8.50000       0.10098      -0.45684    -999.25000      67.81704       9.66850      18.94784       0.10553       2.58962       0.10686       0.00000       0.48532       9.51007 
   3225.60320       0.10026       0.10105       8.50000       0.10098      -0.45940    -999.25000      67.81704       9.66850      19.00113       0.10553       2.57870       0.10686       0.00000       0.47718       9.49343 
   3225.75560       0.10026       0.10105       8.50000       0.10098      -0.45872    -999.25000      67.81704       9.64347      18.81055       0.10553       2.58294       0.10686       0.00000       0.46197       9.51007 
   3225.90800       0.10026       0.10105       8.50000       0.10098      -0.45609    -999.25000      67.81704       9.61181      18.69427       0.10553       2.59029       0.10686       0.00000       0.44433       9.45338 
   3226.06040       0.10026       0.10105       8.50000       0.10098      -0.45181    -999.25000      67.81704       9.61847      18.65593       0.10553       2.60717       0.10686       0.00000       0.42677       9.44340 
   3226.21280       0.10026       0.10105       8.50000       0.10098      -0.45035    -999.25000      67.81704       9.60180      18.42112       0.10553       2.61945       0.10686       0.00000       0.41617       9.46840 
   3226.36520       0.10026       0.10105       8.50000       0.10098      -0.45152    -999.25000      67.61803       9.60180      17.55485       0.10553       2.63059       0.10686       0.00000       0.42006       9.46840 
   3226.51760       0.10026       0.10105       8.50000       0.10098      -0.45459    -999.25000      67.08782       9.60180      16.80223       0.10553       2.63002       0.10686       0.00000       0.41866       9.46840 
   3226.67000       0.10026       0.10105       8.50000       0.10098      -0.45504    -999.25000      66.55761       9.60180      16.58010       0.10553       2.63164       0.10686       0.00000       0.42415       9.46840 
   3226.82240       0.10026       0.10105       8.50000       0.10098      -0.45334    -999.25000      66.22640       9.60180      17.27345       0.10553       2.63683       0.10686       0.00000       0.41719       9.46840 
   3226.97480       0.10026       0.10105       8.50000       0.10098      -0.45098    -999.25000      66.22640       9.60180      18.02830       0.10553       2.64411       0.10686       0.00000       0.41413       9.46840 
   3227.12720       0.10026       0.10105       8.50000       0.10098      -0.45150    -999.25000      66.22640       9.57677      18.44286       0.10553       2.63885       0.10686       0.00000       0.40679       9.49343 
   3227.27960       0.10026       0.10105       8.50000       0.10098      -0.45271    -999.25000      66.22640       9.53510      18.49275       0.10553       2.62932       0.10686       0.00000       0.40739       9.53009 
