~Version Information
VERS  .          2.0                              :CWLS Log Ascii Standard - Version 2.0
WRAP  .          NO                               :One line per depth step
~Well Information Block
#MNEM.UNIT       Data Type                        Information
#---------       ---------                        -------------------------------
STRT  .M         3200.00000                       :START DEPTH
STOP  .M         3526.28800                       :STOP DEPTH
STEP  .M          0.15240                         :INCREMENT
NULL  .          -999.25                          :NULL DATA VALUE
COMP  .          Eni Australia Ltd                :COMPANY
WELL  .          Vesta-2	                    :WELL
FLD   .          Vesta                            :FIELD
LOC   .                                           :LOCATION
PROV  .                                           :PROVINCE
STAT  .                                           :STATE
CNTY  .                                           :COUNTY
CTRY  .                                           :COUNTRY
DATE  .                                           :DATE
UWI   .          Vesta-2                          :UNIQUE WELL UWI
LIC   .                                           :LICENSE NUMBER
API   .                                                                                                                                            :API NUMBER
SRVC  .                                           :SERVICE COMPANY
~Parameter Information Block
#MNEM.UNIT       Value                            Description
#---------       ---------                        -------------
~Curve Information Block
#MNEM.UNIT       API Code            Curve    Description
#--------        --------------      -----    -------------------
DEPT  .M                             :0       Index
BDAV  .OHMM                          :1       Average Deep Button Resistivity
BMAV  .OHMM                          :2       Average Medium Button Resistivity
BS    .IN                            :3       Bit Size                      
BSAV  .OHMM                          :4       Average Shallow Button Resistivity
DRHO  .G/C3                          :5       Bulk Density Correction       
DTCO  .US/F                          :6       Delta-T Compressional         
GR    .GAPI                          :7       Gamma Ray                     
HORD  .IN                            :8       Horizontal Hole Diameter      
PEF   .                              :9       Photoelectric Factor          
RBIT  .OHMM                          :10      Borehole-compensated Resistivity at the Bit
RHOB  .G/C3                          :11      Bulk Density                  
RING  .OHMM                          :12      Borehole-compensated Ring Resistivity
RPM   .RPM                           :13      Rotational Speed              
TNPH  .V/V                           :14      Thermal Neutron Porosity (Ratio Method) in Selected Lithology
VERD  .IN                            :15      Vertical Hole Diameter        
~Ascii Data Section
# ...
   3392.02400       4.20108       4.40732       8.50000       4.35277       0.00257      93.44626     133.47662       8.13440       3.62777       4.80519       2.58854       4.65828      86.84147       0.27263       8.13440 
   3392.17640       3.95843       4.59522       8.50000       4.25258       0.00529      93.38969     136.63492       8.13440       3.62127       4.79167       2.58928       4.18812      89.80000       0.27570       8.13440 
   3392.32880       4.07952       4.42017       8.50000       4.91828       0.01350      92.34437     139.37134       8.13440       3.63671       4.84356       2.60753       4.60372      86.22205       0.27963       8.13440 
   3392.48120       4.17303       4.38012       8.50000       4.59129       0.02039      91.29153     139.81271       8.13440       3.60023       4.93533       2.63115       4.52723      94.00000       0.28511       8.13440 
   3392.63360       4.43085       4.77032       8.50000       4.80176       0.02648      90.55810     138.69685       8.13440       3.59714       5.03682       2.64328       4.33260      78.00000       0.28719       8.13440 
   3392.78600       4.07027       4.27801       8.50000       4.45050       0.02553      89.87778     136.89076       8.13440       3.57836       5.06226       2.63396       4.40446      97.00000       0.28298       8.13440 
   3392.93840       4.04320       6.12740       8.50000       5.85767       0.01911      90.19228     136.58501       8.15943       3.56386       5.18361       2.61512       4.44909      91.00000       0.28529       8.13440 
   3393.09080       4.45786       4.93882       8.50000       5.17642       0.01117      90.40796     134.99048       8.17607       3.62944       5.36269       2.60452       5.35584      90.75328       0.28601       8.13440 
   3393.24320       5.38143       4.93545       8.50000       5.18598       0.00369      90.16293     134.50624       8.15943       3.78419       5.55705       2.60351       5.54755     102.08976       0.28754       8.15943 
   3393.39560       4.88531       5.79925       8.50000       5.68799       0.00396      90.82780     131.07799       8.20110       3.89930       5.68902       2.61520       5.27817      72.94804       0.27569       8.17607 
   3393.54800       4.90748       5.24184       8.50000       5.94571       0.00363      90.62954     127.42480       8.20110       3.91850       5.75438       2.62513       5.10234      82.00000       0.27319       8.13440 
   3393.70040       6.12038       6.06210       8.50000       6.65705       0.00867      88.99065     125.64440       8.20110       3.93141       5.70467       2.63937       6.51132      86.80263       0.27000       8.15943 
   3393.85280       4.91917       5.83474       8.50000       6.80664       0.00460      86.67583     126.74906       8.20110       4.18274       5.51804       2.64395       5.40393      87.00000       0.27485       8.20110 
   3394.00520       6.07715       5.43335       8.50000       6.06018       0.00418      85.61963     131.07925       8.20110       4.29961       5.31790       2.65297       5.90585      78.20000       0.28154       8.20110 
   3394.15760       4.78056       5.17409       8.50000       5.38605       0.00409      86.26113     135.61736       8.22613       4.31126       5.21045       2.65517       5.04820      92.38320       0.28058       8.22613 
   3394.31000       4.63029       5.10893       8.50000       5.28691       0.00732      88.13482     139.35960       8.24277       4.13942       5.20337       2.64591       4.78432      88.00000       0.27840       8.24277 
   3394.46240       4.50698       4.74968       8.50000       4.78497       0.01089      90.70257     141.37184       8.20110       3.91456       5.10886       2.62764       4.60649      80.00000       0.27025       8.17607 
   3394.61480       4.49948       4.79809       8.50000       4.99211       0.01132      91.66042     140.58321       8.17607       3.69165       5.12842       2.61051       4.72790      85.80000       0.28073       8.15943 
   3394.76720       4.98472       4.60581       8.50000       5.17655       0.01614      91.27631     139.06584       8.15943       3.53577       5.18435       2.60410       5.18033      81.20000       0.29268       8.20110 
   3394.91960       5.11103       5.35137       8.50000       5.66277       0.01905      90.84962     135.95901       8.20110       3.61898       5.26473       2.60168       4.87215      87.80000       0.30190       8.20110 
   3395.07200       4.76584       5.00757       8.50000       5.49896       0.01643      92.23617     134.82489       8.17607       3.73254       5.32905       2.59987       5.08684      81.40000       0.30431       8.17607 
   3395.22440       4.17500       4.49727       8.50000       5.42495       0.01548      92.80236     135.57751       8.13440       3.76418       5.42910       2.60145       5.26077      85.45721       0.31044       8.13440 
   3395.37680       4.69632       5.05622       8.50000       5.31383       0.01735      91.16892     136.99663       8.13440       3.76600       5.41664       2.61330       4.96921      82.99213       0.31068       8.15943 
   3395.52920       5.45319       5.58813       8.50000       5.43342       0.02165      90.11169     137.45425       8.15943       3.79395       5.37937       2.62402       5.90793      98.44935       0.30945       8.20110 
   3395.68160       5.11059       5.18257       8.50000       5.61608       0.02034      88.38010     135.17920       8.17607       3.86781       5.39856       2.63237       5.09115     107.00000       0.30241       8.17607 
   3395.83400       4.48240       4.90609       8.50000       5.20235       0.02106      87.81442     133.17740       8.13440       3.89394       5.35625       2.64255       4.71386      83.51916       0.30319       8.14942 
   3395.98640       4.48126       5.82129       8.50000       5.05285       0.02349      88.76117     130.46860       8.13440       3.91945       5.18879       2.65060       4.82175      86.21417       0.30400       8.17943 
   3396.13880       4.71389       5.02664       8.50000       5.40135       0.02407      88.95042     131.43573       8.13440       3.93396       5.14318       2.65098       5.08971      80.39317       0.30623       8.19277 
   3396.29120       4.75914       4.66944       8.50000       4.91964       0.01679      89.03535     133.92068       8.13440       3.89215       5.17105       2.63614       4.56614      83.61680       0.30648       8.20110 
   3396.44360       4.44833       4.74082       8.50000       4.81520       0.01079      89.45304     137.47894       8.15943       3.90523       5.16076       2.62862       4.57353     100.60000       0.30367       8.20110 
   3396.59600       4.60062       4.78789       8.50000       5.18734       0.01193      89.93063     139.78391       8.20110       3.84474       5.12513       2.63125       5.33236      80.76640       0.29870       8.20110 
   3396.74840       5.29717       4.64858       8.50000       4.74529       0.01212      90.28864     141.31830       8.20110       3.83561       5.09564       2.62633       4.55483      78.80000       0.30156       8.20110 
   3396.90080       4.86436       4.72062       8.50000       4.64001       0.01145      89.58801     143.47150       8.17607       3.80705       5.14640       2.62278       5.13614     102.16483       0.30504       8.20110 
   3397.05320       4.65781       5.06070       8.50000       5.44738       0.00421      88.97399     143.54507       8.15943       3.80482       5.25638       2.60665       4.95038     105.50656       0.29982       8.22613 
   3397.20560       4.96936       5.30474       8.50000       5.32149       0.00606      89.12801     140.44946       8.17607       3.80352       5.27849       2.60644       5.16640     101.49344       0.28974       8.24277 
   3397.35800       5.30486       5.40342       8.50000       5.80564       0.01257      89.73650     137.38910       8.13440       3.69880       5.30982       2.61002       5.40901      79.20000       0.28489       8.20110 
