~Version Information
VERS  .          2.0                              :CWLS Log Ascii Standard - Version 2.0
WRAP  .          NO                               :One line per depth step
~Well Information Block
#MNEM.UNIT       Data Type                        Information
#---------       ---------                        -------------------------------
STRT  .M         3200.00000                       :START DEPTH
STOP  .M         3526.28800                       :STOP DEPTH
STEP  .M          0.15240                         :INCREMENT
NULL  .          -999.25                          :NULL DATA VALUE
COMP  .          Eni Australia Ltd                :COMPANY
WELL  .          Vesta-2	                    :WELL
FLD   .          Vesta                            :FIELD
LOC   .                                           :LOCATION
PROV  .                                           :PROVINCE
STAT  .                                           :STATE
CNTY  .                                           :COUNTY
CTRY  .                                           :COUNTRY
DATE  .                                           :DATE
UWI   .          Vesta-2                          :UNIQUE WELL UWI
LIC   .                                           :LICENSE NUMBER
API   .                                                                                                                                            :API NUMBER
SRVC  .                                           :SERVICE COMPANY
~Parameter Information Block
#MNEM.UNIT       Value                            Description
#---------       ---------                        -------------
~Curve Information Block
#MNEM.UNIT       API Code            Curve    Description
#--------        --------------      -----    -------------------
DEPT  .M                             :0       Index
BDAV  .OHMM                          :1       Average Deep Button Resistivity
BMAV  .OHMM                          :2       Average Medium Button Resistivity
BS    .IN                            :3       Bit Size                      
BSAV  .OHMM                          :4       Average Shallow Button Resistivity
DRHO  .G/C3                          :5       Bulk Density Correction       
DTCO  .US/F                          :6       Delta-T Compressional         
GR    .GAPI                          :7       Gamma Ray                     
HORD  .IN                            :8       Horizontal Hole Diameter      
PEF   .                              :9       Photoelectric Factor          
RBIT  .OHMM                          :10      Borehole-compensated Resistivity at the Bit
RHOB  .G/C3                          :11      Bulk Density                  
RING  .OHMM                          :12      Borehole-compensated Ring Resistivity
RPM   .RPM                           :13      Rotational Speed              
TNPH  .V/V                           :14      Thermal Neutron Porosity (Ratio Method) in Selected Lithology
VERD  .IN                            :15      Vertical Hole Diameter        
~Ascii Data Section
# ...
   3435.91520       5.69392       6.26112       8.50000       6.33108       0.01328      89.47062     140.01022       8.20110       3.52761       6.76652       2.62023       6.40479      85.61522       0.26604       8.20110 
   3436.06760       5.70921       6.44742       8.50000       6.80433       0.01592      89.06512     140.55872       8.20110       3.55038       6.86590       2.63430       6.37303      96.00000       0.27198       8.20110 
   3436.22000       6.26401       6.46957       8.50000       6.47894       0.02150      89.16172     140.76392       8.20110       3.58135       6.81396       2.64767       6.41770      82.95853       0.27570       8.20110 
   3436.37240       6.54176       6.70604       8.50000       6.89468       0.01727      88.98759     138.84518       8.20110       3.62306       6.74005       2.64069       6.85363     100.80000       0.27371       8.20110 
   3436.52480       6.06838       6.84094       8.50000       6.87316       0.01336      89.03574     135.01126       8.20110       3.65250       6.96124       2.63059       6.38232      94.01312       0.26732       8.22613 
   3436.67720       6.22288       6.10080       8.50000       6.46204       0.01064      89.45304     132.58315       8.22613       3.66881       7.10208       2.62617       6.86230      78.40000       0.26723       8.26780 
   3436.82960       5.55406       6.16371       8.50000       6.96247       0.01701      89.93063     133.86734       8.26780       3.62333       7.20829       2.63587       5.67957      76.63255       0.26897       8.26780 
   3436.98200       5.93614       5.65979       8.50000       5.89814       0.01760      90.70490     134.74530       8.26780       3.63821       7.17901       2.63874       6.77202      85.25984       0.26480       8.26780 
   3437.13440       7.37048       7.86296       8.50000       7.63183       0.01992      90.32021     131.51715       8.26780       3.59286       7.27352       2.64631       7.99264     111.00000       0.26714       8.26780 
   3437.28680       7.71446       7.74664       8.50000       7.79192       0.01086      89.71252     128.31467       8.26780       3.62702       7.39952       2.64334       8.16696      82.80000       0.26866       8.26780 
   3437.43920       6.21578       7.04193       8.50000       7.22687       0.00701      89.35075     130.63431       8.26780       3.62788       7.09267       2.64461       7.33158     115.21049       0.27126       8.26780 
   3437.59160       5.90720       6.81329       8.50000       6.74663       0.00689      88.48098     134.81410       8.27281       3.66192       6.66051       2.64482       6.39975     104.37533       0.26516       8.26780 
   3437.74400       8.12849       8.22756       8.50000       6.95321       0.01489      88.10335     135.62735       8.30117       3.73278       6.51482       2.65584       7.24536      90.05827       0.26300       8.26780 
   3437.89640       5.52435       5.60860       8.50000       6.17667       0.01312      87.97168     133.09468       8.33450       3.77409       6.35599       2.65214       5.92967      78.51916       0.26148       8.26780 
   3438.04880       5.05785       5.36934       8.50000       5.60309       0.01151      87.61601     133.39946       8.30947       3.72083       6.33247       2.64404       5.39434      98.16273       0.26792       8.26780 
   3438.20120       5.33204       5.79725       8.50000       6.03113       0.00745      88.48753     135.00960       8.26780       3.60176       6.21923       2.62944       6.03133      61.80000       0.27525       8.26780 
   3438.35360       5.66994       6.22211       8.50000       6.65253       0.01608      88.82430     135.28670       8.26780       3.53599       6.12860       2.64214       6.22464      86.00000       0.28586       8.26780 
   3438.50600       6.09965       6.87113       8.50000       6.69168       0.01366      88.90880     135.47003       8.26780       3.61677       6.16871       2.64451       6.32798      97.00000       0.28711       8.26780 
   3438.65840       5.11045       5.47970       8.50000       6.04757       0.01108      89.25245     134.83389       8.26780       3.68641       6.29671       2.64145       5.85235      80.00000       0.28619       8.26780 
   3438.81080       5.71888       6.12251       8.50000       6.22291       0.00421      88.27200     135.61108       8.24277       3.74393       6.40184       2.62983       6.59138      95.60997       0.28224       8.26780 
   3438.96320       6.32673       6.06684       8.50000       8.32832      -0.00151      87.56834     136.84235       8.22613       3.85161       6.34912       2.62655       5.96401     105.02625       0.27749       8.26780 
   3439.11560       5.49090       5.54243       8.50000       5.92389       0.00158      87.16411     138.00648       8.24277       3.82232       6.31135       2.63539       5.73157      92.85040       0.27475       8.26780 
   3439.26800       5.36792       5.82503       8.50000       5.96350       0.00748      87.50081     137.32516       8.20110       3.79507       6.33169       2.63651       5.90558      89.00000       0.28152       8.26780 
   3439.42040       5.92324       6.94331       8.50000       6.16252       0.01224      88.94923     135.68181       8.21111       3.66775       6.20488       2.62958       6.03030      88.87664       0.29161       8.26780 
   3439.57280       5.81705       5.94784       8.50000       5.95326       0.01149      89.98477     137.23471       8.23279       3.71063       6.17868       2.62044       5.97070     105.49344       0.29945       8.26780 
   3439.72520       5.81709       5.89984       8.50000       6.53296       0.01400      89.82242     136.52744       8.22610       3.79949       6.26514       2.62945       5.98207     120.27296       0.29278       8.26780 
   3439.87760       5.44989       5.78318       8.50000       6.06056       0.01745      88.69312     134.69930       8.25117       3.93739       6.26196       2.64581       5.89161      88.60000       0.28728       8.29283 
   3440.03000       6.14875       6.22005       8.50000       5.79919       0.01666      87.55562     132.52036       8.30947       4.02342       6.12807       2.65751       6.41409      98.00000       0.28477       8.30947 
   3440.18240       5.17640       5.55524       8.50000       6.19268       0.01155      86.91371     134.18732       8.26780       4.00148       6.09383       2.65321       5.72558      83.74645       0.28346       8.26780 
   3440.33480       5.74608       5.52589       8.50000       6.05354       0.00876      86.68336     137.24648       8.26780       3.81588       6.09114       2.64389       6.01475      80.25984       0.28187       8.26780 
   3440.48720       5.24355       6.00839       8.50000       6.10051       0.00698      86.81463     138.69012       8.24277       3.67491       6.03448       2.63065       5.64909      91.66929       0.28328       8.26780 
   3440.63960       5.05842       5.68787       8.50000       5.74605       0.00733      87.55669     137.73041       8.22613       3.55854       5.97423       2.62613       5.81837      73.76640       0.29447       8.26780 
   3440.79200       5.22420       5.70111       8.50000       5.89741       0.00688      88.14999     136.08440       8.29283       3.61296       5.92629       2.62160       5.58853      94.87664       0.31057       8.29283 
   3440.94440       5.22862       5.56046       8.50000       6.00340       0.00706      88.27102     134.70085       8.30947       3.69750       5.91653       2.61645       5.65748      87.46719       0.31703       8.30947 
   3441.09680       5.65997       6.08706       8.50000       6.69792       0.00731      88.60539     134.96472       8.26780       3.76183       5.95448       2.61228       5.94953     103.00000       0.30884       8.26780 
   3441.24920       5.01347       5.68876       8.50000       5.93408       0.00697      88.92473     137.01143       8.26780       3.84978       5.97929       2.61331       5.37065      89.80524       0.30089       8.26780 
