~Version Information
VERS  .          2.0                              :CWLS Log Ascii Standard - Version 2.0
WRAP  .          NO                               :One line per depth step
~Well Information Block
#MNEM.UNIT       Data Type                        Information
#---------       ---------                        -------------------------------
STRT  .M         3200.00000                       :START DEPTH
STOP  .M         3526.28800                       :STOP DEPTH
STEP  .M          0.15240                         :INCREMENT
NULL  .          -999.25                          :NULL DATA VALUE
COMP  .          Eni Australia Ltd                :COMPANY
WELL  .          Vesta-2	                    :WELL
FLD   .          Vesta                            :FIELD
LOC   .                                           :LOCATION
PROV  .                                           :PROVINCE
STAT  .                                           :STATE
CNTY  .                                           :COUNTY
CTRY  .                                           :COUNTRY
DATE  .                                           :DATE
UWI   .          Vesta-2                          :UNIQUE WELL UWI
LIC   .                                           :LICENSE NUMBER
API   .                                                                                                                                            :API NUMBER
SRVC  .                                           :SERVICE COMPANY
~Parameter Information Block
#MNEM.UNIT       Value                            Description
#---------       ---------                        -------------
~Curve Information Block
#MNEM.UNIT       API Code            Curve    Description
#--------        --------------      -----    -------------------
DEPT  .M                             :0       Index
BDAV  .OHMM                          :1       Average Deep Button Resistivity
BMAV  .OHMM                          :2       Average Medium Button Resistivity
BS    .IN                            :3       Bit Size                      
BSAV  .OHMM                          :4       Average Shallow Button Resistivity
DRHO  .G/C3                          :5       Bulk Density Correction       
DTCO  .US/F                          :6       Delta-T Compressional         
GR    .GAPI                          :7       Gamma Ray                     
HORD  .IN                            :8       Horizontal Hole Diameter      
PEF   .                              :9       Photoelectric Factor          
RBIT  .OHMM                          :10      Borehole-compensated Resistivity at the Bit
RHOB  .G/C3                          :11      Bulk Density                  
RING  .OHMM                          :12      Borehole-compensated Ring Resistivity
RPM   .RPM                           :13      Rotational Speed              
TNPH  .V/V                           :14      Thermal Neutron Porosity (Ratio Method) in Selected Lithology
VERD  .IN                            :15      Vertical Hole Diameter        
~Ascii Data Section
# ...
   3348.13280       6.66596       6.02645       8.50000       4.52822       0.00983      85.21033     130.83965       8.85952       3.88944       5.42442       2.67192       6.80270     121.21207       0.26534       9.01813 
   3348.28520       5.34926       5.59708       8.50000       4.58741       0.00777      83.88798     124.91091       8.51135       3.91278       5.51991       2.65723       7.28229     112.00000       0.25831       8.86470 
   3348.43760       6.53526       6.50288       8.50000       7.64088       0.01069      84.26958     126.35984       8.60956       3.94389       5.62890       2.65197       5.13466     106.40000       0.26791       8.61786 
   3348.59000       4.72014       5.25681       8.50000       5.25286       0.00966      85.85744     130.16281       8.61811       4.06793       5.57780       2.65366       4.71955      98.00000       0.28589       8.47630 
   3348.74240       5.62088       5.91679       8.50000       5.64034       0.01238      87.85712     132.77005       8.63778       4.02022       5.49802       2.65400       5.65264     126.14960       0.28926       8.47112 
   3348.89480       5.32560       6.03158       8.50000       5.92059       0.01556      88.25192     133.12761       8.23443       3.95979       5.52163       2.65718       5.59448     114.00000       0.29035       8.20940 
   3349.04720       4.24121       4.39723       8.50000       4.63102       0.00931      86.76876     133.25003       8.50151       4.09065       5.53470       2.65307       4.35897     104.03202       0.28932       8.33467 
   3349.19960       4.56530       4.90226       8.50000       5.13237       0.00707      85.11249     130.23726       8.92640       4.03462       5.28025       2.65334       4.88210     113.80000       0.29048       8.79317 
   3349.35200       5.02990       5.58843       8.50000       5.49655       0.00811      84.90762     127.19492       8.57609       3.85771       5.16146       2.64894       5.69068      96.99738       0.28864       8.69107 
   3349.50440       3.95976       4.38260       8.50000       4.80586       0.01478      87.11234     128.87102       8.44143       3.67100       5.02485       2.65000       4.21201     103.01312       0.29395       8.55995 
   3349.65680       4.24640       4.64387       8.50000       5.04540       0.01493      89.55372     134.96892       9.00164       3.57562       4.95659       2.64790       3.89129      84.17532       0.30193       9.25167 
   3349.80920       4.03900       4.35074       8.50000       4.58069       0.01490      89.91006     140.78732       9.09306       3.57260       4.85236       2.65255       3.78088     116.23360       0.30457       9.08466 
   3349.96160       3.90573       4.14673       8.50000       4.70906       0.00835      88.56030     142.97330       8.89152       3.75135       5.00372       2.65989       3.83638     123.00000       0.29999       8.71306 
   3350.11400       4.05597       3.65126       8.50000       3.93687       0.00152      87.22982     141.05284       9.08658       4.09196       5.04773       2.66325       4.15328      98.11024       0.29596       8.90322 
   3350.26640       5.22601       5.08526       8.50000       5.43314       0.00260      86.71957     136.84607       9.12653       4.05906       5.14246       2.66420       5.05685      93.65197       0.28999       9.13494 
   3350.41880       7.25444       8.28036       8.50000       6.83089       0.00568      87.89732     135.53645       9.11827       3.79730       5.34967       2.64424       6.85821      92.50656       0.28765       9.17657 
   3350.57120       4.73821       5.01946       8.50000       5.34425       0.01192      90.34290     139.00212       9.22663       3.67523       5.66082       2.62672       5.32197     106.50656       0.28777       9.18497 
   3350.72360       4.77732       4.41216       8.50000       5.31953       0.00792      91.63241     142.67473       9.26830       3.99332       5.90162       2.61387       4.96046     101.89291       0.27678       9.24327 
   3350.87600       4.38182       4.84946       8.50000       4.90987       0.00709      91.23461     141.41483       9.19320       3.97858       6.30513       2.61936       4.60785      92.60000       0.25874       9.02636 
   3351.02840       6.30948       4.11451       8.50000       6.96582       0.00678      88.89242     135.58292       9.04317       3.59674       7.52167       2.62972       5.32925      73.61680       0.23622       8.85987 
   3351.18080       6.32507       4.20776       8.50000       4.60475       0.00743      84.28485     120.07887       8.92640       3.09945       6.97222       2.63643       5.11535      89.38320       0.20787       9.06820 
   3351.33320      44.28955       7.10175       8.50000       4.57717       0.00971      79.60492      99.57388       8.82643       3.14682       7.08474       2.64438       5.14367      83.13648       0.18741       8.94303 
   3351.48560    1404.90894  111565.85156       8.50000     718.36322       0.00449      78.35109      91.30613       9.04334       3.48869       7.36918       2.64661      30.96312      96.00000       0.19361       8.93498 
   3351.63800       7.14349       9.59850       8.50000      10.08712       0.00185      81.79216     103.71809       9.10969       3.67016       8.46885       2.64773       6.50526      87.20000       0.22430       9.14313 
   3351.79040       6.46581       9.18981       8.50000       7.98497       0.00093      84.77206     120.82281       8.85987       3.51650       9.44849       2.64470       7.32810      88.99055       0.25665       9.00990 
   3351.94280       7.29211       6.30199       8.50000       6.00206       0.00401      85.37735     123.36926       8.89296       3.23598       6.81896       2.64424       6.85827     106.16273       0.24896       8.90959 
   3352.09520       7.42426       7.23117       8.50000       6.58686       0.00624      84.88458     118.00425       8.72647       3.29713       6.87483       2.64922       9.40681      87.00000       0.24311       8.65977 
   3352.24760     391.85818      47.22545       8.50000      12.47839      -0.00048      83.57304     120.27413       9.00990       3.65775       7.20089       2.63853       8.40468     114.00000       0.24599       9.01831 
   3352.40000       6.38343       7.55128       8.50000       9.75813       0.00363      86.25126     129.17271       9.18497       3.76581       7.65081       2.63240       6.68613      82.75328       0.24702       9.29333 
   3352.55240       7.20096       9.32148       8.50000       6.98991       0.01022      87.26275     139.00127       9.26830       3.70655       9.00474       2.62912       7.61165      95.62363       0.25521       9.33500 
   3352.70480       6.49512       6.34011       8.50000       5.74981       0.01454      84.59750     136.33847       9.26830       3.42785       9.14655       2.63619       7.60229      80.80000       0.24909       9.25990 
   3352.85720       5.77327       5.32749       8.50000       5.65605       0.00828      81.61091     121.59122       8.91782       3.32096       8.03345       2.63231       7.13576      86.11024       0.23779       9.03476 
   3353.00960       7.83823     117.28252       8.50000      17.18924       0.00470      86.31398     107.33778       8.30947       3.36961       8.05777       2.63183      10.06651      95.36378       0.22952       8.64279 
   3353.16200      20.71929      13.08954       8.50000      26.37698       0.00283      91.85642     109.28411       8.31787       3.64459       8.26608       2.63636      12.42691      77.81417       0.24395       8.54318 
   3353.31440       9.77674      10.51485       8.50000      10.14017       0.00543      92.98616     123.21134       8.43124       3.93075       8.75234       2.64641       8.01120      83.50656       0.27989       9.01151 
   3353.46680      12.42254      11.28959       8.50000       9.97218       0.00272      91.71735     137.90468       8.72658       4.14557       8.84126       2.64421      10.36292     108.40000       0.30481       9.06824 
