~Version Information
VERS  .          2.0                              :CWLS Log Ascii Standard - Version 2.0
WRAP  .          NO                               :One line per depth step
~Well Information Block
#MNEM.UNIT       Data Type                        Information
#---------       ---------                        -------------------------------
STRT  .M         3200.00000                       :START DEPTH
STOP  .M         3526.28800                       :STOP DEPTH
STEP  .M          0.15240                         :INCREMENT
NULL  .          -999.25                          :NULL DATA VALUE
COMP  .          Eni Australia Ltd                :COMPANY
WELL  .          Vesta-2	                    :WELL
FLD   .          Vesta                            :FIELD
LOC   .                                           :LOCATION
PROV  .                                           :PROVINCE
STAT  .                                           :STATE
CNTY  .                                           :COUNTY
CTRY  .                                           :COUNTRY
DATE  .                                           :DATE
UWI   .          Vesta-2                          :UNIQUE WELL UWI
LIC   .                                           :LICENSE NUMBER
API   .                                                                                                                                            :API NUMBER
SRVC  .                                           :SERVICE COMPANY
~Parameter Information Block
#MNEM.UNIT       Value                            Description
#---------       ---------                        -------------
~Curve Information Block
#MNEM.UNIT       API Code            Curve    Description
#--------        --------------      -----    -------------------
DEPT  .M                             :0       Index
BDAV  .OHMM                          :1       Average Deep Button Resistivity
BMAV  .OHMM                          :2       Average Medium Button Resistivity
BS    .IN                            :3       Bit Size                      
BSAV  .OHMM                          :4       Average Shallow Button Resistivity
DRHO  .G/C3                          :5       Bulk Density Correction       
DTCO  .US/F                          :6       Delta-T Compressional         
GR    .GAPI                          :7       Gamma Ray                     
HORD  .IN                            :8       Horizontal Hole Diameter      
PEF   .                              :9       Photoelectric Factor          
RBIT  .OHMM                          :10      Borehole-compensated Resistivity at the Bit
RHOB  .G/C3                          :11      Bulk Density                  
RING  .OHMM                          :12      Borehole-compensated Ring Resistivity
RPM   .RPM                           :13      Rotational Speed              
TNPH  .V/V                           :14      Thermal Neutron Porosity (Ratio Method) in Selected Lithology
VERD  .IN                            :15      Vertical Hole Diameter        
~Ascii Data Section
# ...
   3474.32000       5.95413       7.38743       8.50000       5.78425       0.01812      90.10748     138.99438       8.34952       3.91050       5.03572       2.64046       5.14458      79.23517       0.32358       8.44287 
   3474.47240       4.17327       4.47388       8.50000       4.64408       0.02255      89.67747     137.86627       8.38453       3.85162       5.01353       2.65066       4.57769      86.39317       0.32261       8.40120 
   3474.62480       4.41134       4.62670       8.50000       4.83420       0.01826      89.51688     136.47475       8.45127       3.80657       5.08097       2.64111       4.95637      74.20000       0.31796       8.42623 
   3474.77720       4.72797       5.30267       8.50000       5.12853       0.01206      88.64065     134.16217       8.64475       3.96256       5.04927       2.62678       4.68967      65.89081       0.31857       8.52798 
   3474.92960       4.54062       6.35836       8.50000       5.30963       0.01092      88.47084     131.01689       8.81807       3.95650       5.11747       2.61918       5.67530      80.35853       0.31174       8.61797 
   3475.08200       4.22440       4.61284       8.50000       5.05934       0.00999      89.37370     128.70749       8.57609       3.83261       5.12341       2.61609       4.85579      95.54593       0.30583       8.47613 
   3475.23440       4.06928       6.07328       8.50000       5.09122       0.00300      89.47209     128.54530       8.21612       3.69153       5.09335       2.60667       4.82969     102.00000       0.30612       8.26780 
   3475.38680       5.01909       5.09447       8.50000       6.32875       0.00388      89.26435     131.76085       8.23611       3.69537       5.03975       2.60514       5.55414      68.40000       0.30892       8.26780 
   3475.53920       4.29576       4.48470       8.50000       4.67217       0.01062      89.48829     136.58714       8.46811       3.73162       5.11180       2.60728       4.66776      93.00000       0.31594       8.44304 
   3475.69160       4.14595       4.86137       8.50000       4.70476       0.01524      89.18174     138.91238       8.79300       3.79292       5.07215       2.60892       4.49507      70.60000       0.31349       8.63456 
   3475.84400       4.85788       5.93505       8.50000       5.37716       0.01283      89.23711     139.13182       8.69303       3.84178       5.14656       2.61169       5.07660      80.42204       0.31485       8.49293 
   3475.99640       4.58446       4.73851       8.50000       5.18735       0.00766      89.77959     137.40543       8.75973       3.74290       5.30577       2.61564       4.73121      89.90236       0.30921       8.63474 
   3476.14880       4.97279       5.84075       8.50000       4.90680       0.00961      89.12572     136.95532       8.81642       3.76811       5.39253       2.62607       5.37362      68.20000       0.30873       8.83144 
   3476.30120       4.61807       5.18292       8.50000       5.20982       0.01087      87.95015     134.80493       8.80136       3.93592       5.49739       2.63081       4.77877      89.21417       0.30947       8.67616 
   3476.45360       5.32205       5.54453       8.50000       5.99791       0.01891      88.69044     132.79573       8.68463       4.11625       5.68111       2.63872       6.04891      88.41575       0.30971       8.43464 
   3476.60600       5.09506       4.88068       8.50000       5.64769       0.02298      89.65039     132.23888       8.52620       4.09345       5.74703       2.64112       5.70037     105.43412       0.30157       8.50116 
   3476.75840       4.91399       5.60640       8.50000       5.82143       0.01606      90.83076     135.11858       8.35113       3.87773       5.75815       2.62534       5.51050     106.11024       0.29299       8.30947 
   3476.91080       5.98095       6.39507       8.50000       6.61850       0.00456      91.50403     137.33351       8.34290       3.70396       5.49300       2.61149       6.97612      87.01155       0.28961       8.26780 
   3477.06320       4.97273       5.03466       8.50000       5.63775       0.00229      90.49255     137.45308       8.36776       3.58558       5.35662       2.61372       5.06681      88.61680       0.29458       8.29283 
   3477.21560       4.52476       4.94492       8.50000       4.73059       0.00953      89.54794     135.42584       8.21612       3.49695       5.31026       2.62711       4.86088     100.01050       0.30084       8.33450 
   3477.36800       5.37920       4.97469       8.50000       5.60984       0.01091      89.52410     135.74815       8.25113       3.47652       5.20796       2.63039       5.44607      80.34541       0.29831       8.30947 
   3477.52040       4.58382       5.18283       8.50000       5.05722       0.00062      89.34863     136.21390       8.24277       3.53894       5.13956       2.61886       4.80967      84.40000       0.29458       8.24277 
   3477.67280       5.27148       5.16205       8.50000       6.19124      -0.00061      89.56329     136.12144       8.32627       3.53715       5.19932       2.61775       5.50101      85.18951       0.29121       8.35131 
   3477.82520       4.55825       5.12199       8.50000       5.11613       0.00331      90.14025     135.73547       8.63474       3.59038       5.16849       2.61562       5.01897      75.06509       0.29783       8.60130 
   3477.97760       4.29446       5.42321       8.50000       4.89557       0.00849      90.48581     135.53572       8.87650       3.66938       5.26993       2.61120       5.26635      94.00000       0.30217       8.72647 
   3478.13000       4.41799       5.23002       8.50000       5.64222       0.00572      89.85197     136.04649       9.05157       3.79506       5.22815       2.60748       4.90237      83.32231       0.30406       8.83466 
   3478.28240       4.54509       4.84321       8.50000       5.25347       0.00183      88.23530     134.60851       9.00973       3.80736       5.21627       2.61316       4.96827      63.91549       0.30560       8.66800 
   3478.43480       4.80697       5.29256       8.50000       5.39933       0.00219      87.20221     135.05893       9.00168       3.68458       5.21014       2.62188       5.56151      90.87874       0.31294       8.69303 
   3478.58720       4.86873       4.93315       8.50000       6.44816       0.00682      87.76018     135.85799       9.20983       3.61797       5.19967       2.62895       4.97126      76.54436       0.31819       8.73470 
   3478.73960       4.46837       4.60882       8.50000       5.10254       0.00860      88.80958     136.72754       8.85129       3.67800       5.20076       2.61827       4.83447      97.24672       0.30981       8.65960 
   3478.89200       4.36984       4.77356       8.50000       5.59807       0.01319      89.45052     136.56764       8.45610       3.74460       5.14899       2.61436       5.25513     106.00000       0.29567       8.41444 
   3479.04440       4.63699       4.69494       8.50000       5.13087       0.01183      89.68087     137.42818       8.24949       3.74584       5.16655       2.60306       4.88717     103.45721       0.28921       8.24949 
   3479.19680       4.19274       4.56261       8.50000       5.39217       0.00882      90.29889     137.08009       8.47805       3.73775       5.13214       2.59712       5.27218      78.85984       0.30012       8.41797 
   3479.34920       4.39428       4.96138       8.50000       5.19191       0.00031      90.10883     134.06068       8.73635       3.78872       5.16414       2.59059       4.93448     102.20000       0.30834       8.58127 
   3479.50160       4.20236       4.56361       8.50000       4.75708       0.00242      89.17794     131.88806       8.50943       3.78047       5.17248       2.60011       6.35901      90.89344       0.30724       8.44280 
   3479.65400       4.54208       4.85071       8.50000       5.19261       0.00799      88.28858     133.30196       8.27620       3.82344       5.17655       2.61358       4.66216     129.48662       0.30486       8.29283 
