~Version Information
VERS  .          2.0                              :CWLS Log Ascii Standard - Version 2.0
WRAP  .          NO                               :One line per depth step
~Well Information Block
#MNEM.UNIT       Data Type                        Information
#---------       ---------                        -------------------------------
STRT  .M         3200.00000                       :START DEPTH
STOP  .M         3526.28800                       :STOP DEPTH
STEP  .M          0.15240                         :INCREMENT
NULL  .          -999.25                          :NULL DATA VALUE
COMP  .          Eni Australia Ltd                :COMPANY
WELL  .          Vesta-2	                    :WELL
FLD   .          Vesta                            :FIELD
LOC   .                                           :LOCATION
PROV  .                                           :PROVINCE
STAT  .                                           :STATE
CNTY  .                                           :COUNTY
CTRY  .                                           :COUNTRY
DATE  .                                           :DATE
UWI   .          Vesta-2                          :UNIQUE WELL UWI
LIC   .                                           :LICENSE NUMBER
API   .                                                                                                                                            :API NUMBER
SRVC  .                                           :SERVICE COMPANY
~Parameter Information Block
#MNEM.UNIT       Value                            Description
#---------       ---------                        -------------
~Curve Information Block
#MNEM.UNIT       API Code            Curve    Description
#--------        --------------      -----    -------------------
DEPT  .M                             :0       Index
BDAV  .OHMM                          :1       Average Deep Button Resistivity
BMAV  .OHMM                          :2       Average Medium Button Resistivity
BS    .IN                            :3       Bit Size                      
BSAV  .OHMM                          :4       Average Shallow Button Resistivity
DRHO  .G/C3                          :5       Bulk Density Correction       
DTCO  .US/F                          :6       Delta-T Compressional         
GR    .GAPI                          :7       Gamma Ray                     
HORD  .IN                            :8       Horizontal Hole Diameter      
PEF   .                              :9       Photoelectric Factor          
RBIT  .OHMM                          :10      Borehole-compensated Resistivity at the Bit
RHOB  .G/C3                          :11      Bulk Density                  
RING  .OHMM                          :12      Borehole-compensated Ring Resistivity
RPM   .RPM                           :13      Rotational Speed              
TNPH  .V/V                           :14      Thermal Neutron Porosity (Ratio Method) in Selected Lithology
VERD  .IN                            :15      Vertical Hole Diameter        
~Ascii Data Section
# ...
   3370.07840       4.32547       4.66185       8.50000       5.19946       0.00886      89.83485     135.65535       8.33110       3.65191       5.11789       2.61425       4.58084      96.84042       0.27882       8.24777 
   3370.23080       5.04089       5.70731       8.50000       5.84993       0.00988      90.82896     135.63918       8.18440       3.56714       5.09714       2.61270       5.35880      88.06876       0.28623       8.18440 
   3370.38320       4.79917       5.43897       8.50000       5.54970       0.01660      91.43659     135.40257       8.13440       3.49592       5.09515       2.62401       4.86797     117.79265       0.28350       8.13440 
   3370.53560       4.34015       4.68951       8.50000       5.11558       0.01751      91.50005     135.37552       8.13440       3.62230       5.07752       2.63712       5.05797      98.00000       0.28262       8.13440 
   3370.68800       5.46302       5.72442       8.50000       5.60800       0.01353      90.62631     136.76367       8.29462       3.76218       5.08544       2.63941       5.25456     101.00000       0.27934       8.31465 
   3370.84040       4.32240       4.33790       8.50000       4.71961       0.00614      91.20580     138.34496       8.40106       3.79928       5.14728       2.62091       4.36162      81.00000       0.27933       8.43439 
   3370.99280       4.64761       5.10662       8.50000       5.29646       0.00358      92.66070     139.18948       8.15443       3.76320       5.29089       2.60759       4.50976     112.25984       0.28157       8.13440 
   3371.14520       5.23135       4.93351       8.50000       6.16372       0.00207      92.33823     138.05861       8.18776       3.80057       5.46420       2.61083       5.19694      79.00000       0.28408       8.13440 
   3371.29760       5.89691       5.98182       8.50000       6.47052       0.00130      90.78277     133.70251       8.19277       3.98401       5.49330       2.63389       5.84377      92.51549       0.27906       8.13440 
   3371.45000      10.37698       5.66629       8.50000      10.21978       0.00172      88.46013     131.64589       8.20110       4.13704       5.51869       2.65519       5.63862      81.21523       0.27520       8.13440 
   3371.60240       5.30991       4.26961       8.50000       5.20811      -0.00010      87.27875     134.31544       8.20110       4.10708       5.47811       2.65402       4.64382      81.38216       0.27309       8.13440 
   3371.75480       4.31637       4.74265       8.50000       4.94243       0.00399      87.46988     137.17831       8.20110       3.93047       5.36011       2.64267       4.34744      90.60525       0.27618       8.15943 
   3371.90720       4.42399       5.32575       8.50000       5.70629       0.01132      89.36030     138.73502       8.20110       3.83080       5.30773       2.63557       4.69967      89.88976       0.27341       8.20110 
   3372.05960       4.64881       5.14892       8.50000       5.23495       0.02142      90.99223     136.36913       8.20110       3.82555       5.08993       2.64688       4.80488      76.80000       0.26916       8.20110 
   3372.21200       5.09515       5.16382       8.50000       5.31759       0.01858      91.00426     134.38338       8.17607       3.87278       5.20193       2.65161       5.42624      85.60629       0.27195       8.17607 
   3372.36440       5.34511       5.64952       8.50000       6.06052       0.01022      90.27251     131.93364       8.15943       3.84060       5.35417       2.65219       5.44712      84.70393       0.27400       8.13440 
   3372.51680       5.24395       5.12652       8.50000       5.41407       0.00654      89.63790     130.31552       8.20110       3.87862       5.50677       2.65314       5.09240      77.00000       0.27170       8.15943 
   3372.66920       5.83664       6.15000       8.50000       6.48527       0.00688      89.55780     132.61247       8.17607       3.90085       5.59061       2.65033       5.90494     102.20000       0.26496       8.17607 
   3372.82160       5.30994       5.63351       8.50000       5.39406       0.01194      90.01506     136.42523       8.13440       3.88705       5.65383       2.64209       5.21488      90.00000       0.26103       8.13440 
   3372.97400       4.98969       5.35705       8.50000       5.67384       0.01426      90.20196     137.30434       8.13440       3.80867       5.72389       2.62859       5.20032     102.09239       0.26225       8.13440 
   3373.12640       5.23907       5.64946       8.50000       6.49735       0.01549      89.19581     134.35558       8.23454       3.80979       5.67504       2.62767       5.93323      78.40000       0.26222       8.28461 
   3373.27880       5.41158       5.85015       8.50000       6.28820       0.00961      87.95092     129.72391       8.32610       3.92224       5.54800       2.63492       5.50493      78.53911       0.26347       8.38439 
   3373.43120       6.01403       6.47153       8.50000       6.67862       0.00483      87.44163     127.34927       8.20110       3.96313       5.62393       2.64326       6.20612      72.28294       0.26537       8.15943 
   3373.58360       5.74189       6.43427       8.50000       6.68321       0.00488      86.87104     127.85019       8.19609       3.81621       5.49328       2.64342       5.76393      83.27927       0.27211       8.19609 
   3373.73600       4.87549       5.26909       8.50000       5.64381       0.00586      86.89079     131.02020       8.16773       3.61610       5.34728       2.63110       4.92317      87.71391       0.28160       8.16773 
   3373.88840       4.75382       5.12779       8.50000       5.48117       0.01034      87.26640     133.42039       8.15443       3.57781       5.29014       2.62523       4.87538      93.00000       0.28116       8.13440 
   3374.04080       4.62918       5.17170       8.50000       5.40081       0.01063      87.53514     133.40742       8.59332       3.75247       5.22606       2.63494       4.60630      98.12965       0.27773       8.53495 
   3374.19320       5.24719       5.19732       8.50000       4.92046       0.01142      86.61366     129.61703       9.22824       3.93581       5.01622       2.65132       5.06721      98.53281       0.27408       9.20160 
   3374.34560       5.85096       5.83260       8.50000       6.02813       0.00861      85.44377     128.86565       9.15157       3.90567       4.98607       2.65066       5.90847      78.79737       0.27262       9.20160 
   3374.49800       5.15807       5.05487       8.50000       5.31489       0.00676      85.72649     131.15329       8.98469       3.68302       5.02688       2.62986       4.78716      93.00000       0.26748       9.15153 
   3374.65040       3.57712       3.85209       8.50000       4.74802       0.00668      87.24400     136.46053       8.85987       3.44883       5.04991       2.60792       3.83858      79.62992       0.26071       9.14330 
   3374.80280       4.47175       4.70173       8.50000       4.15696       0.00883      88.34291     138.94333       9.09323       3.37347       4.76575       2.60563       4.68069      91.00000       0.26391       9.24327 
   3374.95520       4.61041       4.97904       8.50000       5.48320       0.01075      88.94688     138.85480       8.80945       3.49840       4.79446       2.61297       5.01724      85.00000       0.26868       8.85112 
   3375.10760       5.04681       5.34538       8.50000       5.48013       0.00942      89.28557     137.51779       8.29784       3.62131       5.02316       2.61907       5.01079      93.00000       0.27176       8.51814 
   3375.26000       3.46294       3.91775       8.50000       4.03833       0.00537      88.60540     134.54341       8.31780       3.77297       5.08345       2.62355       4.53920      79.95065       0.28024       8.65942 
   3375.41240       5.11243       5.69598       8.50000       5.80778       0.00243      88.05418     133.15857       8.31787       3.84293       5.11288       2.62711       5.52160      77.44409       0.29399       8.30124 
