~Version Information
VERS.             2.0 : CWLS log ASCII standard - Version 2.0
WRAP.             NO  : One line per depth step
#
~Well Information Block
#MNEM.UNIT                   Data Type:Information
#__________________________________________________________
  STRT.M            823.0000 : START INDEX                   
  STOP.M           4535.0000 : STOP INDEX                    
  STEP.M              0.5000 : STEP                          
  NULL.              -999.25 : NULL VALUE                    
  COMP.           ESSO AUSTRALIA PTY LTD : COMPANY                       
  WELL.             WKF W12A : WELL                          
   FLD.           WEST KINGFISH : FIELD                         
   LOC.           BASS STRAIT : LOCATION                      
  PROV.            GIPPSLAND : PROVINCE                      
  CNTY.                  N/A : COUNTY                        
  STAT.                  VIC : STATE                         
  CTRY.            AUSTRALIA : COUNTRY                       
  SRVC.           SCHLUMBERGER D&M : SERVICE COMPANY               
  DATE.            24-MAR-10 : LOG DATE                      
   UWI.                  N/A : UNIQUE WELL ID                
   API.                  N/A : API NUMBER                    
#
~Curve Information Block
#MNEM.UNIT                     : Curve Description
#---------                     --------------------
DEPT        .M                 : Bit Depth 2hz                                                   
ROP5_RM     .M/HR              : Rate of Penetration, Averaged over Last 5ft                     
GR_ARC      .GAPI              : ARC Gamma Ray                                                   
TAB_ARC_RES .HR                : ARC Resistivity Time After Bit                                  
TAB_DEN     .HR                : Density Time After Bit                                          
TAB_NEU     .HR                : Neutron Time After Bit                                          
RPM_ADN     .RPM               : ADN Rotational Speed                                            
P16H        .OHMM              : ARC Phase-Shift Resistivity 16-in. at 2 MHz                     
P22H        .OHMM              : ARC Phase-Shift Resistivity 22-in. at 2 MHz                     
P28H        .OHMM              : ARC Phase-Shift Resistivity 28-in. at 2 MHz                     
P34H        .OHMM              : ARC Phase-Shift Resistivity 34-in. at 2 MHz                     
P40H        .OHMM              : ARC Phase-Shift Resistivity 40-in. at 2 MHz                     
A16H        .OHMM              : ARC Attenuation Resistivity 16-in. at 2 MHz                     
A22H        .OHMM              : ARC Attenuation Resistivity 22-in. at 2 MHz                     
A28H        .OHMM              : ARC Attenuation Resistivity 28-in. at 2 MHz                     
A34H        .OHMM              : ARC Attenuation Resistivity 34-in. at 2 MHz                     
A40H        .OHMM              : ARC Attenuation Resistivity 40-in. at 2 MHz                     
TNPH        .V/V               : Thermal Neutron Porosity (Ratio Method) in Selected Lithology   
ROBB        .G/C3              : Bulk Density, Bottom                                            
DRHB        .G/C3              : Bulk Density Correction, Bottom                                 
RHOB        .G/C3              : Bulk Density                                                    
ROBU        .G/C3              : Bulk Density, Up                                                
ROBL        .G/C3              : Bulk Density, Left                                              
ROBR        .G/C3              : Bulk Density, Right                                             
PEB         .----              : Photoelectric Factor, Bottom                                    
DCAV        .IN                : Density Caliper, Average                                        
TTEM_ADN    .DEGC              : ADN Tool Temperature                                            
#
~Parameter Information Block
#MNEM.UNIT                       Value:Description
#__________________________________________________________
#
~Other Information Block

#
~A    DEPT    ROP5_RM     GR_ARC TAB_ARC_RES    TAB_DEN    TAB_NEU    RPM_ADN       P16H       P22H       P28H       P34H       P40H       A16H       A22H       A28H       A34H       A40H       TNPH       ROBB       DRHB       RHOB       ROBU       ROBL       ROBR          PEB       DCAV   TTEM_ADN
# ...
 4265.5000      74.65      72.04        0.20       1.09       1.12     161.00       1.52       1.59       1.63       1.67       1.74       1.33       1.38       1.40       1.41       1.45       0.20       2.47      -0.02       2.47       2.47       2.47       2.48         5.25       9.61      96.00
 4266.0000      53.28      79.22        0.19       1.09       1.12     163.67       1.29       1.25       1.22       1.20       1.17       1.54       1.47       1.46       1.46       1.45       0.21       2.50      -0.03       2.47       2.46       2.47       2.47         5.79       9.65      96.00
 4266.5000      48.40      60.07        0.20       1.10       1.12      97.33       1.50       1.56       1.59       1.58       1.60       1.42       1.47       1.48       1.46       1.45       0.22       2.46      -0.04       2.45       2.45       2.45       2.44         5.44       9.69      96.00
 4267.0000      46.95      67.21        0.20       1.10       1.12      92.00       1.22       1.21       1.20       1.20       1.18       1.32       1.30       1.30       1.31       1.30       0.23       2.50      -0.01       2.46       2.39       2.47       2.48         5.44       9.66      96.00
 4267.5000      58.62      74.53        0.20       1.10       1.13      91.50       1.10       1.13       1.13       1.13       1.14       1.17       1.21       1.23       1.23       1.25       0.23       2.42      -0.01       2.43       2.46       2.44       2.39         6.96       9.63      96.00
 4268.0000      58.29      65.31        0.20       1.10       1.13      92.00       1.24       1.25       1.25       1.25       1.24       1.28       1.28       1.28       1.28       1.27       0.21       2.47      -0.01       2.45       2.44       2.44       2.44         6.11       9.67      96.00
 4268.5000      54.45      70.75        0.20       1.10       1.13      91.00       1.16       1.17       1.17       1.17       1.17       1.29       1.30       1.31       1.31       1.32       0.23       2.47       0.01       2.48       2.51       2.46       2.46         7.10       9.68      96.00
 4269.0000      51.76      70.52        0.20       1.10       1.13      92.00       1.32       1.34       1.34       1.33       1.34       1.37       1.38       1.39       1.39       1.40       0.24       2.46      -0.00       2.47       2.46       2.48       2.48         6.37       9.62      96.00
 4269.5000      50.73      68.03        0.20       1.11       1.13      92.33       1.23       1.22       1.22       1.21       1.21       1.35       1.36       1.36       1.36       1.36       0.24       2.53       0.02       2.47       2.47       2.45       2.44         5.75       9.66      96.00
 4270.0000      49.29      69.00        0.20       1.10       1.13      92.00       1.21       1.21       1.21       1.22       1.22       1.30       1.32       1.34       1.35       1.35       0.20       2.48       0.01       2.47       2.46       2.47       2.45         7.23       9.62      96.00
 4270.5000      51.57      73.01        0.21       1.11       1.13      99.00       1.17       1.18       1.18       1.17       1.16       1.32       1.33       1.33       1.33       1.33       0.22       2.45       0.00       2.44       2.43       2.46       2.44         7.04       9.63      96.00
 4271.0000      50.52      57.28        0.21       1.11       1.13      90.00       1.57       1.59       1.58       1.58       1.60       1.41       1.41       1.40       1.39       1.38       0.24       2.49       0.01       2.46       2.45       2.44       2.45         6.51       9.61      96.00
 4271.5000      52.28      70.07        0.21       1.11       1.13      88.50       1.15       1.15       1.16       1.16       1.15       1.22       1.21       1.22       1.24       1.22       0.17       2.49      -0.02       2.49       2.47       2.52       2.47         6.27       9.66      96.00
 4272.0000      46.90      83.30        0.21       1.11       1.13      94.00       0.91       0.91       0.90       0.89       0.90       1.06       1.11       1.13       1.12       1.13       0.23       2.42      -0.03       2.42       2.42       2.41       2.43         6.21       9.64      96.00
 4272.5000      50.07      60.16        0.22       1.11       1.13      96.00       1.54       1.55       1.55       1.57       1.60       1.29       1.30       1.29       1.29       1.30       0.25       2.52       0.03       2.47       2.42       2.51       2.44         6.77       9.65      96.00
 4273.0000      55.43      82.32        0.22       1.11       1.13      92.00       0.88       0.88       0.88       0.87       0.85       1.01       1.01       1.03       1.02       1.00       0.22       2.44      -0.01       2.49       2.53       2.53       2.47         7.45       9.63      96.00
 4273.5000      58.36      81.78        0.22       1.11       1.13      91.00       0.92       0.94       0.94       0.95       0.97       0.97       1.02       1.04       1.06       1.09       0.27       2.42      -0.01       2.45       2.47       2.45       2.47         6.70       9.68      96.00
 4274.0000      57.33      79.58        0.23       1.11       1.14      93.00       1.07       1.05       1.03       1.03       1.02       1.13       1.11       1.11       1.11       1.11       0.24       2.43      -0.01       2.45       2.47       2.45       2.45         7.25       9.65      96.00
 4274.5000      54.86      72.63        0.23       1.12       1.15      95.50       1.17       1.20       1.21       1.21       1.21       1.16       1.17       1.18       1.18       1.17       0.27       2.44      -0.01       2.44       2.43       2.47       2.43         7.47       9.64      96.00
 4275.0000      52.26      72.56        0.23       1.11       1.15      65.75       1.06       1.08       1.08       1.07       1.07       1.14       1.16       1.16       1.15       1.15       0.23       2.45      -0.01       2.47       2.47       2.51       2.45         7.09       9.65      96.00
 4275.5000      47.61      78.09        0.23       1.13       1.15      95.50       1.12       1.12       1.13       1.13       1.15       1.20       1.23       1.25       1.27       1.29       0.24       2.51       0.01       2.47       2.50       2.41       2.47         6.49       9.63      96.00
 4276.0000      49.18      85.32        0.23       1.13       1.15      89.33       1.11       1.10       1.09       1.08       1.06       1.24       1.22       1.22       1.21       1.20       0.23       2.47       0.01       2.47       2.46       2.47       2.47         7.23       9.63      96.00
 4276.5000      61.64      69.45        0.23       1.13       1.18      95.00       1.43       1.45       1.46       1.48       1.49       1.31       1.31       1.32       1.32       1.31       0.20       2.41       0.01       2.47       2.48       2.50       2.49         8.37       9.69      96.00
 4277.0000      61.53      78.38        0.23       1.13       1.19      95.00       1.05       1.05       1.05       1.04       1.02       1.23       1.23       1.23       1.24       1.24       0.27       2.46      -0.00       2.47       2.48       2.48       2.47         6.81       9.60      96.00
 4277.5000      57.04      72.26        0.24       1.16       1.19      93.50       1.16       1.16       1.15       1.15       1.17       1.31       1.35       1.37       1.39       1.42       0.23       2.52      -0.04       2.50       2.47       2.52       2.49         5.61       9.66      96.00
 4278.0000      54.33      68.05        0.24       1.17       1.20      90.33       1.30       1.29       1.29       1.28       1.26       1.38       1.36       1.37       1.38       1.35       0.20       2.48      -0.04       2.47       2.46       2.49       2.46         6.20       9.65      96.00
 4278.5000      55.21      76.57        0.25       1.17       1.20      92.00       1.42       1.47       1.47       1.45       1.45       1.33       1.36       1.36       1.34       1.36       0.21       2.45      -0.01       2.48       2.46       2.49       2.51         6.87       9.66      96.00
