~Version Information
VERS.             2.0 : CWLS log ASCII standard - Version 2.0
WRAP.             NO  : One line per depth step
#
~Well Information Block
#MNEM.UNIT                   Data Type:Information
#__________________________________________________________
  STRT.M            823.0000 : START INDEX                   
  STOP.M           4535.0000 : STOP INDEX                    
  STEP.M              0.5000 : STEP                          
  NULL.              -999.25 : NULL VALUE                    
  COMP.           ESSO AUSTRALIA PTY LTD : COMPANY                       
  WELL.             WKF W12A : WELL                          
   FLD.           WEST KINGFISH : FIELD                         
   LOC.           BASS STRAIT : LOCATION                      
  PROV.            GIPPSLAND : PROVINCE                      
  CNTY.                  N/A : COUNTY                        
  STAT.                  VIC : STATE                         
  CTRY.            AUSTRALIA : COUNTRY                       
  SRVC.           SCHLUMBERGER D&M : SERVICE COMPANY               
  DATE.            24-MAR-10 : LOG DATE                      
   UWI.                  N/A : UNIQUE WELL ID                
   API.                  N/A : API NUMBER                    
#
~Curve Information Block
#MNEM.UNIT                     : Curve Description
#---------                     --------------------
DEPT        .M                 : Bit Depth 2hz                                                   
ROP5_RM     .M/HR              : Rate of Penetration, Averaged over Last 5ft                     
GR_ARC      .GAPI              : ARC Gamma Ray                                                   
TAB_ARC_RES .HR                : ARC Resistivity Time After Bit                                  
TAB_DEN     .HR                : Density Time After Bit                                          
TAB_NEU     .HR                : Neutron Time After Bit                                          
RPM_ADN     .RPM               : ADN Rotational Speed                                            
P16H        .OHMM              : ARC Phase-Shift Resistivity 16-in. at 2 MHz                     
P22H        .OHMM              : ARC Phase-Shift Resistivity 22-in. at 2 MHz                     
P28H        .OHMM              : ARC Phase-Shift Resistivity 28-in. at 2 MHz                     
P34H        .OHMM              : ARC Phase-Shift Resistivity 34-in. at 2 MHz                     
P40H        .OHMM              : ARC Phase-Shift Resistivity 40-in. at 2 MHz                     
A16H        .OHMM              : ARC Attenuation Resistivity 16-in. at 2 MHz                     
A22H        .OHMM              : ARC Attenuation Resistivity 22-in. at 2 MHz                     
A28H        .OHMM              : ARC Attenuation Resistivity 28-in. at 2 MHz                     
A34H        .OHMM              : ARC Attenuation Resistivity 34-in. at 2 MHz                     
A40H        .OHMM              : ARC Attenuation Resistivity 40-in. at 2 MHz                     
TNPH        .V/V               : Thermal Neutron Porosity (Ratio Method) in Selected Lithology   
ROBB        .G/C3              : Bulk Density, Bottom                                            
DRHB        .G/C3              : Bulk Density Correction, Bottom                                 
RHOB        .G/C3              : Bulk Density                                                    
ROBU        .G/C3              : Bulk Density, Up                                                
ROBL        .G/C3              : Bulk Density, Left                                              
ROBR        .G/C3              : Bulk Density, Right                                             
PEB         .----              : Photoelectric Factor, Bottom                                    
DCAV        .IN                : Density Caliper, Average                                        
TTEM_ADN    .DEGC              : ADN Tool Temperature                                            
#
~Parameter Information Block
#MNEM.UNIT                       Value:Description
#__________________________________________________________
#
~Other Information Block

#
~A    DEPT    ROP5_RM     GR_ARC TAB_ARC_RES    TAB_DEN    TAB_NEU    RPM_ADN       P16H       P22H       P28H       P34H       P40H       A16H       A22H       A28H       A34H       A40H       TNPH       ROBB       DRHB       RHOB       ROBU       ROBL       ROBR          PEB       DCAV   TTEM_ADN
# ...
 2794.0000     114.71      73.01        0.37       0.61       0.62     162.00       1.98       2.08       2.17       2.27       2.40       1.76       1.79       1.81       1.83       1.86       0.30       2.41      -0.03       2.40       2.36       2.40       2.42         4.71       9.69      80.00
 2794.5000     121.88      80.19        0.37       0.61       0.62     163.50       1.99       2.08       2.16       2.23       2.34       1.83       1.86       1.88       1.90       1.90       0.28       2.38      -0.02       2.35       2.32       2.36       2.34         4.58       9.70      80.00
 2795.0000     114.70      78.43        0.37       0.61       0.62     146.00       1.95       2.04       2.11       2.16       2.24       1.87       1.89       1.91       1.93       1.93       0.30       2.36      -0.02       2.33       2.28       2.35       2.31         5.00       9.72      80.00
 2795.5000      86.76      75.57        0.36       0.60       0.61     146.00       1.95       2.02       2.08       2.14       2.20       1.89       1.91       1.92       1.94       1.96       0.29       2.42      -0.01       2.36       2.30       2.34       2.38         6.08       9.71      80.00
 2796.0000      64.75      63.40        0.36       0.60       0.61     143.00       1.97       2.03       2.09       2.16       2.25       1.83       1.85       1.87       1.89       1.91       0.25       2.35      -0.04       2.38       2.31       2.39       2.45         6.12       9.66      80.00
 2796.5000      60.29      70.81        0.36       0.60       0.61     145.00       1.95       2.03       2.09       2.15       2.22       1.82       1.85       1.88       1.89       1.89       0.24       2.35      -0.06       2.38       2.40       2.37       2.39         4.74       9.75      80.00
 2797.0000      68.85      66.89        0.37       0.60       0.61     143.00       2.05       2.12       2.14       2.14       2.19       2.02       2.05       2.04       2.03       2.06       0.28       2.41      -0.02       2.43       2.42       2.45       2.45         6.06       9.74      80.00
 2797.5000      82.39      55.79        0.37       0.60       0.90     145.00       2.55       2.53       2.51       2.52       2.57       2.16       2.10       2.08       2.07       2.05       0.31       2.40      -0.02       2.37       2.35       2.37       2.37         5.75       9.63      80.00
 2798.0000      91.47      69.39        0.38       0.60       0.90     145.00       1.98       2.01       2.05       2.06       2.04       1.95       1.95       1.96       1.96       1.93       0.28       2.32      -0.03       2.34       2.34       2.38       2.32         5.20       9.66      80.00
 2798.5000      99.06      73.94        0.38       0.60       0.90      80.00       1.86       1.92       1.97       1.98       1.98       1.89       1.91       1.93       1.95       1.99       0.28       2.36      -0.02       2.35       2.30       2.36       2.37         6.32       9.64      80.00
 2799.0000     104.51      79.06        0.38       0.89       0.90     125.33       1.92       1.97       2.03       2.07       2.10       1.84       1.87       1.89       1.90       1.92       0.32       2.39      -0.04       2.34       2.30       2.33       2.36         5.39       9.69      80.00
 2799.5000     110.18      79.67        0.38       0.89       0.90     141.50       1.96       2.01       2.07       2.12       2.18       1.85       1.85       1.85       1.87       1.88       0.27       2.39      -0.03       2.36       2.33       2.38       2.36         5.53       9.68      80.00
 2800.0000     114.30      72.78        0.38       0.89       0.90     140.00       1.94       2.01       2.09       2.16       2.22       1.81       1.82       1.84       1.84       1.84       0.28       2.33      -0.05       2.37       2.37       2.42       2.36         5.50       9.66      81.00
 2800.5000      98.92      70.45        0.38       0.89       0.90     141.00       1.91       1.99       2.06       2.13       2.19       1.78       1.80       1.82       1.83       1.85       0.28       2.39      -0.02       2.36       2.36       2.34       2.38         5.25       9.67      81.00
 2801.0000      87.97      70.29        0.38       0.89       0.90     138.00       1.90       1.98       2.03       2.10       2.19       1.79       1.81       1.83       1.84       1.84       0.25       2.37      -0.00       2.36       2.32       2.38       2.38         5.11       9.66      81.00
 2801.5000      82.38      71.20        0.38       0.89       0.90     140.00       1.90       1.97       2.04       2.10       2.17       1.82       1.83       1.84       1.85       1.87       0.28       2.35      -0.03       2.34       2.37       2.35       2.32         5.40       9.69      81.00
 2802.0000      91.19      72.63        0.38       0.89       0.90     141.00       1.89       1.94       2.01       2.07       2.12       1.81       1.82       1.83       1.84       1.85       0.28       2.40      -0.01       2.35       2.38       2.32       2.31         5.88       9.69      81.00
 2802.5000     103.94      72.06        0.38       0.89       0.90     142.00       1.85       1.93       2.01       2.08       2.16       1.76       1.76       1.77       1.79       1.81       0.29       2.41      -0.01       2.38       2.37       2.38       2.36         4.90       9.67      81.00
 2803.0000     107.16      70.16        0.37       0.89       0.90     144.00       1.83       1.93       2.01       2.08       2.16       1.71       1.72       1.74       1.75       1.77       0.27       2.36      -0.01       2.40       2.42       2.40       2.43         6.05       9.72      81.00
 2803.5000     105.11      68.48        0.37       0.89       0.90     145.00       1.87       1.95       2.01       2.06       2.14       1.68       1.70       1.73       1.76       1.78       0.27       2.34      -0.04       2.35       2.32       2.33       2.41         5.08       9.74      81.00
 2804.0000     100.51      67.73        0.37       0.89       0.90     144.00       1.81       1.87       1.94       2.02       2.10       1.71       1.72       1.73       1.76       1.80       0.32       2.36      -0.03       2.36       2.37       2.34       2.37         5.12       9.72      81.00
 2804.5000     102.26      71.52        0.12       0.64       0.65     143.00       1.77       1.87       1.96       2.04       2.11       1.66       1.68       1.71       1.73       1.76       0.31       2.38      -0.03       2.35       2.36       2.33       2.33         4.86       9.68      81.00
 2805.0000      74.47      77.45        0.12       0.64       0.65     142.00       1.75       1.85       1.95       2.02       2.10       1.65       1.68       1.71       1.73       1.75       0.28       2.39      -0.02       2.35       2.30       2.35       2.39         5.24       9.69      81.00
 2805.5000      92.99      78.45        0.12       0.64       0.65     142.00       1.77       1.86       1.95       2.04       2.14       1.62       1.66       1.69       1.71       1.73       0.28       2.41      -0.01       2.37       2.34       2.33       2.41         5.17       9.63      81.00
 2806.0000     111.97      80.17        0.12       0.64       0.65     143.00       1.80       1.90       2.00       2.11       2.24       1.61       1.65       1.68       1.70       1.72       0.29       2.41      -0.01       2.35       2.27       2.39       2.34         5.19       9.75      81.00
 2806.5000     110.58      78.38        0.12       0.64       0.65     142.00       1.80       1.92       2.02       2.12       2.23       1.62       1.65       1.68       1.71       1.72       0.26       2.34      -0.03       2.35       2.38       2.34       2.33         5.86       9.70      81.00
 2807.0000      67.61      73.69        0.11       0.63       0.65     142.00       1.84       1.95       2.06       2.18       2.30       1.64       1.67       1.70       1.73       1.75       0.33       2.37      -0.04       2.33       2.28       2.36       2.31         5.76       9.67      81.00
