~Version Information
VERS.             2.0 : CWLS log ASCII standard - Version 2.0
WRAP.             NO  : One line per depth step
#
~Well Information Block
#MNEM.UNIT                   Data Type:Information
#__________________________________________________________
  STRT.M            823.0000 : START INDEX                   
  STOP.M           4535.0000 : STOP INDEX                    
  STEP.M              0.5000 : STEP                          
  NULL.              -999.25 : NULL VALUE                    
  COMP.           ESSO AUSTRALIA PTY LTD : COMPANY                       
  WELL.             WKF W12A : WELL                          
   FLD.           WEST KINGFISH : FIELD                         
   LOC.           BASS STRAIT : LOCATION                      
  PROV.            GIPPSLAND : PROVINCE                      
  CNTY.                  N/A : COUNTY                        
  STAT.                  VIC : STATE                         
  CTRY.            AUSTRALIA : COUNTRY                       
  SRVC.           SCHLUMBERGER D&M : SERVICE COMPANY               
  DATE.            24-MAR-10 : LOG DATE                      
   UWI.                  N/A : UNIQUE WELL ID                
   API.                  N/A : API NUMBER                    
#
~Curve Information Block
#MNEM.UNIT                     : Curve Description
#---------                     --------------------
DEPT        .M                 : Bit Depth 2hz                                                   
ROP5_RM     .M/HR              : Rate of Penetration, Averaged over Last 5ft                     
GR_ARC      .GAPI              : ARC Gamma Ray                                                   
TAB_ARC_RES .HR                : ARC Resistivity Time After Bit                                  
TAB_DEN     .HR                : Density Time After Bit                                          
TAB_NEU     .HR                : Neutron Time After Bit                                          
RPM_ADN     .RPM               : ADN Rotational Speed                                            
P16H        .OHMM              : ARC Phase-Shift Resistivity 16-in. at 2 MHz                     
P22H        .OHMM              : ARC Phase-Shift Resistivity 22-in. at 2 MHz                     
P28H        .OHMM              : ARC Phase-Shift Resistivity 28-in. at 2 MHz                     
P34H        .OHMM              : ARC Phase-Shift Resistivity 34-in. at 2 MHz                     
P40H        .OHMM              : ARC Phase-Shift Resistivity 40-in. at 2 MHz                     
A16H        .OHMM              : ARC Attenuation Resistivity 16-in. at 2 MHz                     
A22H        .OHMM              : ARC Attenuation Resistivity 22-in. at 2 MHz                     
A28H        .OHMM              : ARC Attenuation Resistivity 28-in. at 2 MHz                     
A34H        .OHMM              : ARC Attenuation Resistivity 34-in. at 2 MHz                     
A40H        .OHMM              : ARC Attenuation Resistivity 40-in. at 2 MHz                     
TNPH        .V/V               : Thermal Neutron Porosity (Ratio Method) in Selected Lithology   
ROBB        .G/C3              : Bulk Density, Bottom                                            
DRHB        .G/C3              : Bulk Density Correction, Bottom                                 
RHOB        .G/C3              : Bulk Density                                                    
ROBU        .G/C3              : Bulk Density, Up                                                
ROBL        .G/C3              : Bulk Density, Left                                              
ROBR        .G/C3              : Bulk Density, Right                                             
PEB         .----              : Photoelectric Factor, Bottom                                    
DCAV        .IN                : Density Caliper, Average                                        
TTEM_ADN    .DEGC              : ADN Tool Temperature                                            
#
~Parameter Information Block
#MNEM.UNIT                       Value:Description
#__________________________________________________________
#
~Other Information Block

#
~A    DEPT    ROP5_RM     GR_ARC TAB_ARC_RES    TAB_DEN    TAB_NEU    RPM_ADN       P16H       P22H       P28H       P34H       P40H       A16H       A22H       A28H       A34H       A40H       TNPH       ROBB       DRHB       RHOB       ROBU       ROBL       ROBR          PEB       DCAV   TTEM_ADN
# ...
 3523.0000     121.53      87.74        0.10       0.64       0.65     163.00       1.53       1.67       1.82       1.99       2.16       1.20       1.26       1.34       1.42       1.50       0.29       2.38      -0.03       2.34       2.33       2.34       2.33         4.94       9.66      87.00
 3523.5000     129.37      78.61        0.38       0.64       0.65     163.00       1.43       1.55       1.65       1.74       1.86       1.26       1.31       1.38       1.46       1.57       0.33       2.37      -0.01       2.35       2.34       2.34       2.36         5.34       9.64      87.00
 3524.0000     154.39      75.87        0.38       0.64       0.65     165.00       1.47       1.61       1.74       1.86       1.99       1.28       1.35       1.41       1.47       1.55       0.36       2.37      -0.04       2.33       2.28       2.33       2.35         4.82       9.69      87.00
 3524.5000     140.71      75.12        0.38       0.64       0.65     165.00       1.54       1.64       1.76       1.89       2.04       1.31       1.37       1.42       1.49       1.58       0.40       2.38      -0.03       2.36       2.37       2.36       2.32         4.98       9.66      87.00
 3525.0000     106.39      79.20        0.38       0.64       0.65     163.00       1.55       1.67       1.81       1.94       2.09       1.34       1.39       1.44       1.51       1.61       0.27       2.40      -0.02       2.35       2.33       2.33       2.34         5.45       9.72      88.00
 3525.5000      86.71      74.82        0.38       0.63       0.65     164.00       1.62       1.76       1.91       2.07       2.27       1.38       1.41       1.45       1.50       1.59       0.30       2.36      -0.03       2.35       2.34       2.32       2.37         5.62       9.70      88.00
 3526.0000      85.91      75.41        0.38       0.64       0.65     165.00       1.61       1.73       1.85       1.97       2.12       1.41       1.44       1.47       1.54       1.62       0.31       2.38      -0.04       2.36       2.37       2.34       2.37         5.22       9.71      88.00
 3526.5000     102.36      79.51        0.38       0.64       0.65     165.00       1.63       1.75       1.86       1.98       2.14       1.42       1.45       1.49       1.53       1.58       0.28       2.39      -0.01       2.37       2.32       2.40       2.39         5.16       9.68      88.00
 3527.0000     103.51      81.30        0.38       0.64       0.90     168.00       1.64       1.74       1.83       1.93       2.05       1.42       1.45       1.48       1.53       1.56       0.33       2.37      -0.02       2.34       2.36       2.33       2.31         5.25       9.67      88.00
 3527.5000     103.51      84.11        0.37       0.64       0.91     163.00       1.64       1.75       1.85       1.97       2.11       1.39       1.43       1.46       1.50       1.53       0.31       2.36      -0.02       2.32       2.30       2.34       2.30         5.41       9.71      88.00
 3528.0000     105.51      83.82        0.37       0.89       0.91     105.00       1.58       1.68       1.79       1.89       2.01       1.41       1.43       1.46       1.50       1.57       0.41       2.35      -0.01       2.35       2.35       2.35       2.35         6.30       9.54      88.00
 3528.5000     105.50      79.13        0.37       0.89       0.90     117.00       1.57       1.66       1.77       1.89       2.01       1.38       1.40       1.43       1.49       1.56       0.35       2.32      -0.02       2.32       2.32       2.32       2.32         6.47       9.57      88.00
 3529.0000     101.59      84.64        0.37       0.89       0.90     164.00       1.53       1.64       1.75       1.84       1.95       1.30       1.34       1.39       1.44       1.49       0.30       2.37      -0.03       2.30       2.24       2.29       2.32         4.29       9.77      88.00
 3529.5000      99.74      89.17        0.37       0.89       0.90     163.00       1.51       1.63       1.74       1.84       1.94       1.29       1.33       1.37       1.42       1.47       0.34       2.30      -0.01       2.31       2.31       2.35       2.29         5.08       9.72      88.00
 3530.0000      95.43      88.33        0.37       0.89       0.90     163.00       1.45       1.55       1.65       1.74       1.87       1.23       1.28       1.34       1.38       1.43       0.36       2.31      -0.02       2.29       2.26       2.27       2.34         5.56       9.74      88.00
 3530.5000     102.02      84.82        0.38       0.89       0.91     160.00       1.39       1.47       1.54       1.61       1.68       1.27       1.31       1.35       1.41       1.46       0.42       2.33      -0.02       2.31       2.29       2.28       2.33         5.22       9.74      88.00
 3531.0000      99.30      75.89        0.38       0.89       0.91     163.00       1.44       1.52       1.62       1.72       1.80       1.28       1.33       1.38       1.43       1.47       0.34       2.35      -0.01       2.32       2.31       2.32       2.32         5.76       9.63      88.00
 3531.5000      96.28      76.34        0.38       0.89       0.91     164.00       1.53       1.64       1.77       1.89       2.00       1.31       1.35       1.39       1.45       1.51       0.31       2.43      -0.02       2.36       2.29       2.37       2.34         5.55       9.67      88.00
 3532.0000      97.71      71.61        0.39       0.90       0.91     161.00       1.60       1.75       1.91       2.07       2.25       1.32       1.35       1.39       1.44       1.50       0.27       2.37      -0.04       2.37       2.33       2.40       2.39         5.58       9.69      88.00
 3532.5000     102.76      63.47        0.40       0.90       0.91     166.00       1.60       1.74       1.88       2.04       2.24       1.34       1.37       1.41       1.47       1.55       0.35       2.38      -0.02       2.38       2.34       2.40       2.38         5.42       9.64      88.00
 3533.0000     107.57      65.37        0.40       0.90       0.90     166.00       1.57       1.70       1.82       1.95       2.10       1.34       1.38       1.43       1.48       1.54       0.29       2.36      -0.03       2.35       2.33       2.35       2.36         5.29       9.68      88.00
 3533.5000     106.07      68.41        0.41       0.89       0.90     164.00       1.55       1.66       1.78       1.92       2.06       1.32       1.36       1.41       1.47       1.56       0.36       2.36      -0.02       2.35       2.33       2.34       2.35         5.65       9.68      88.00
 3534.0000      99.74      73.08        0.14       0.62       0.63     165.00       1.51       1.64       1.78       1.92       2.07       1.28       1.34       1.39       1.46       1.52       0.32       2.40      -0.02       2.37       2.34       2.37       2.35         6.04       9.68      88.00
 3534.5000      82.16      73.42        0.14       0.62       0.63     164.00       1.49       1.62       1.76       1.90       2.05       1.25       1.30       1.37       1.45       1.55       0.26       2.38      -0.01       2.33       2.30       2.35       2.32         5.36       9.66      88.00
 3535.0000      92.26      76.05        0.13       0.62       0.62     163.00       1.50       1.64       1.80       1.96       2.10       1.24       1.29       1.35       1.43       1.53       0.44       2.40      -0.02       2.35       2.27       2.39       2.34         4.44       9.70      88.00
 3535.5000      98.61      79.04        0.13       0.61       0.62     163.00       1.51       1.65       1.77       1.90       2.04       1.20       1.27       1.35       1.43       1.51       0.30       2.32      -0.03       2.33       2.29       2.33       2.38         5.33       9.67      88.00
 3536.0000     121.93      77.29        0.14       0.62       0.63     164.00       1.45       1.57       1.71       1.85       1.98       1.18       1.25       1.31       1.40       1.50       0.29       2.36      -0.02       2.34       2.34       2.31       2.36         5.31       9.68      88.00
