~Version Information
VERS.             2.0 : CWLS log ASCII standard - Version 2.0
WRAP.             NO  : One line per depth step
#
~Well Information Block
#MNEM.UNIT                   Data Type:Information
#__________________________________________________________
  STRT.M            823.0000 : START INDEX                   
  STOP.M           4535.0000 : STOP INDEX                    
  STEP.M              0.5000 : STEP                          
  NULL.              -999.25 : NULL VALUE                    
  COMP.           ESSO AUSTRALIA PTY LTD : COMPANY                       
  WELL.             WKF W12A : WELL                          
   FLD.           WEST KINGFISH : FIELD                         
   LOC.           BASS STRAIT : LOCATION                      
  PROV.            GIPPSLAND : PROVINCE                      
  CNTY.                  N/A : COUNTY                        
  STAT.                  VIC : STATE                         
  CTRY.            AUSTRALIA : COUNTRY                       
  SRVC.           SCHLUMBERGER D&M : SERVICE COMPANY               
  DATE.            24-MAR-10 : LOG DATE                      
   UWI.                  N/A : UNIQUE WELL ID                
   API.                  N/A : API NUMBER                    
#
~Curve Information Block
#MNEM.UNIT                     : Curve Description
#---------                     --------------------
DEPT        .M                 : Bit Depth 2hz                                                   
ROP5_RM     .M/HR              : Rate of Penetration, Averaged over Last 5ft                     
GR_ARC      .GAPI              : ARC Gamma Ray                                                   
TAB_ARC_RES .HR                : ARC Resistivity Time After Bit                                  
TAB_DEN     .HR                : Density Time After Bit                                          
TAB_NEU     .HR                : Neutron Time After Bit                                          
RPM_ADN     .RPM               : ADN Rotational Speed                                            
P16H        .OHMM              : ARC Phase-Shift Resistivity 16-in. at 2 MHz                     
P22H        .OHMM              : ARC Phase-Shift Resistivity 22-in. at 2 MHz                     
P28H        .OHMM              : ARC Phase-Shift Resistivity 28-in. at 2 MHz                     
P34H        .OHMM              : ARC Phase-Shift Resistivity 34-in. at 2 MHz                     
P40H        .OHMM              : ARC Phase-Shift Resistivity 40-in. at 2 MHz                     
A16H        .OHMM              : ARC Attenuation Resistivity 16-in. at 2 MHz                     
A22H        .OHMM              : ARC Attenuation Resistivity 22-in. at 2 MHz                     
A28H        .OHMM              : ARC Attenuation Resistivity 28-in. at 2 MHz                     
A34H        .OHMM              : ARC Attenuation Resistivity 34-in. at 2 MHz                     
A40H        .OHMM              : ARC Attenuation Resistivity 40-in. at 2 MHz                     
TNPH        .V/V               : Thermal Neutron Porosity (Ratio Method) in Selected Lithology   
ROBB        .G/C3              : Bulk Density, Bottom                                            
DRHB        .G/C3              : Bulk Density Correction, Bottom                                 
RHOB        .G/C3              : Bulk Density                                                    
ROBU        .G/C3              : Bulk Density, Up                                                
ROBL        .G/C3              : Bulk Density, Left                                              
ROBR        .G/C3              : Bulk Density, Right                                             
PEB         .----              : Photoelectric Factor, Bottom                                    
DCAV        .IN                : Density Caliper, Average                                        
TTEM_ADN    .DEGC              : ADN Tool Temperature                                            
#
~Parameter Information Block
#MNEM.UNIT                       Value:Description
#__________________________________________________________
#
~Other Information Block

#
~A    DEPT    ROP5_RM     GR_ARC TAB_ARC_RES    TAB_DEN    TAB_NEU    RPM_ADN       P16H       P22H       P28H       P34H       P40H       A16H       A22H       A28H       A34H       A40H       TNPH       ROBB       DRHB       RHOB       ROBU       ROBL       ROBR          PEB       DCAV   TTEM_ADN
# ...
 2294.5000      99.08      49.13        0.10       0.55       0.56     163.00       4.22       4.24       4.24       4.25       4.30       3.92       3.94       3.95       3.96       3.96       0.17       2.36      -0.04       2.45       2.44       2.50       2.47         6.32       9.70      73.00
 2295.0000      92.62      55.11        0.10       0.55       0.56     161.00       4.13       4.23       4.27       4.27       4.28       3.95       3.94       3.95       3.96       3.98       0.22       2.36      -0.00       2.39       2.47       2.38       2.36         5.32       9.69      73.00
 2295.5000      91.96      58.28        0.10       0.55       0.56     162.00       4.02       4.07       4.06       4.02       4.01       3.88       3.94       4.00       4.03       4.01       0.22       2.42       0.00       2.37       2.30       2.41       2.36         5.82       9.63      73.00
 2296.0000     101.59      55.09        0.10       0.55       0.56     170.00       3.61       3.65       3.70       3.73       3.74       3.98       4.05       4.09       4.07       4.04       0.21       2.46      -0.05       2.41       2.38       2.43       2.38         5.02       9.69      73.00
 2296.5000     101.22      49.44        0.10       0.55       0.56     162.00       3.48       3.57       3.63       3.66       3.69       3.77       3.83       3.87       3.91       3.95       0.20       2.45      -0.03       2.45       2.42       2.46       2.48         5.64       9.62      73.00
 2297.0000     101.22      47.56        0.10       0.55       0.56     164.00       3.51       3.57       3.60       3.64       3.70       3.61       3.67       3.71       3.73       3.77       0.19       2.46      -0.00       2.46       2.40       2.51       2.47         6.60       9.66      73.00
 2297.5000      96.94      43.87        0.10       0.55       0.56     163.00       3.58       3.62       3.64       3.66       3.70       3.60       3.66       3.68       3.69       3.71       0.20       2.47      -0.00       2.45       2.44       2.45       2.45         5.79       9.65      73.00
 2298.0000     105.50      46.50        0.10       0.55       0.56     163.00       3.61       3.63       3.66       3.68       3.71       3.66       3.69       3.69       3.70       3.72       0.19       2.50       0.01       2.43       2.41       2.36       2.43         5.54       9.70      73.00
 2298.5000     107.57      47.47        0.33       0.55       0.57     166.00       3.55       3.62       3.67       3.69       3.70       3.72       3.74       3.74       3.72       3.69       0.21       2.42      -0.01       2.44       2.38       2.51       2.46         5.70       9.64      73.00
 2299.0000     108.87      51.76        0.33       0.55       0.57     166.00       3.55       3.60       3.63       3.65       3.67       3.73       3.75       3.74       3.72       3.70       0.25       2.45      -0.00       2.39       2.40       2.34       2.38         6.53       9.68      73.00
 2299.5000     107.57      53.82        0.33       0.56       0.57     166.00       3.51       3.57       3.61       3.63       3.66       3.66       3.68       3.68       3.67       3.65       0.20       2.51       0.00       2.41       2.32       2.37       2.44         5.63       9.79      73.00
 2300.0000     107.57      52.62        0.33       0.56       0.57     163.00       3.52       3.57       3.60       3.62       3.66       3.60       3.62       3.62       3.60       3.58       0.22       2.44      -0.01       2.43       2.43       2.42       2.42         6.53       9.67      73.00
 2300.5000      96.49      48.45        0.33       0.56       0.56     167.00       3.54       3.57       3.58       3.59       3.61       3.47       3.50       3.51       3.51       3.49       0.17       2.43      -0.02       2.46       2.48       2.47       2.47         7.08       9.68      73.00
 2301.0000      89.24      50.12        0.33       0.55       0.56     163.00       3.48       3.49       3.51       3.52       3.53       3.46       3.45       3.44       3.43       3.44       0.18       2.42      -0.04       2.45       2.47       2.45       2.45         6.11       9.72      73.00
 2301.5000      85.74      56.83        0.33       0.55       0.56     162.00       3.38       3.43       3.46       3.48       3.52       3.44       3.43       3.42       3.42       3.42       0.19       2.34      -0.01       2.39       2.46       2.42       2.34         6.75       9.71      73.00
 2302.0000      94.62      59.46        0.33       0.55       0.56     165.00       3.35       3.40       3.42       3.44       3.46       3.41       3.44       3.45       3.44       3.42       0.21       2.38      -0.01       2.39       2.40       2.39       2.39         6.15       9.69      73.00
 2302.5000     102.24      58.96        0.33       0.55       0.78     164.50       3.16       3.20       3.24       3.27       3.30       3.38       3.40       3.41       3.42       3.42       0.22       2.43       0.01       2.42       2.37       2.46       2.42         8.21       9.71      73.00
 2303.0000     112.44      63.81        0.33       0.55       0.78     164.00       3.08       3.14       3.18       3.20       3.22       3.28       3.32       3.34       3.33       3.31       0.21       2.43      -0.01       2.41       2.39       2.43       2.40         6.39       9.69      73.00
 2303.5000     116.48      64.15        0.33       0.77       0.78      93.00       3.02       3.06       3.09       3.11       3.14       3.07       3.16       3.21       3.22       3.22       0.22       2.39      -0.01       2.39       2.39       2.39       2.39         6.97       9.53      73.00
 2304.0000     119.15      55.18        0.33       0.77       0.78     166.00       2.99       3.03       3.05       3.07       3.11       2.99       3.05       3.09       3.12       3.14       0.21       2.41      -0.03       2.35       2.32       2.35       2.33         4.91       9.74      73.00
 2304.5000     109.73      56.92        0.33       0.77       0.78     160.00       2.98       2.99       3.00       3.02       3.04       2.94       2.99       3.01       3.03       3.06       0.22       2.47       0.01       2.43       2.42       2.44       2.40         6.20       9.69      74.00
 2305.0000     105.50      62.59        0.33       0.77       0.78     166.00       2.95       2.98       3.00       3.02       3.03       2.95       2.99       3.02       3.03       3.04       0.25       2.45      -0.01       2.39       2.31       2.43       2.38         5.58       9.69      74.00
 2305.5000     110.85      66.28        0.33       0.77       0.78     164.00       2.87       2.92       2.95       2.97       2.98       2.99       3.00       3.01       3.02       3.02       0.22       2.37      -0.02       2.36       2.36       2.39       2.33         5.55       9.68      74.00
 2306.0000     122.97      66.46        0.33       0.77       0.78     160.00       2.83       2.88       2.91       2.93       2.94       2.94       2.96       2.97       2.97       2.96       0.24       2.46      -0.01       2.41       2.36       2.37       2.46         6.51       9.64      74.00
 2306.5000     122.47      66.35        0.33       0.77       0.78     162.00       2.82       2.86       2.89       2.91       2.95       2.90       2.93       2.94       2.94       2.92       0.25       2.43      -0.03       2.42       2.35       2.39       2.52         6.45       9.67      74.00
 2307.0000     113.72      65.99        0.33       0.77       0.78     163.00       2.80       2.86       2.88       2.88       2.90       2.82       2.85       2.87       2.86       2.84       0.22       2.36      -0.02       2.38       2.41       2.38       2.39         6.75       9.64      74.00
 2307.5000     101.59      61.11        0.33       0.77       0.77     165.00       2.83       2.85       2.87       2.88       2.90       2.82       2.82       2.82       2.81       2.82       0.24       2.44      -0.02       2.40       2.39       2.36       2.41         5.78       9.68      74.00
