~Version Information
VERS.             2.0 : CWLS log ASCII standard - Version 2.0
WRAP.             NO  : One line per depth step
#
~Well Information Block
#MNEM.UNIT                   Data Type:Information
#__________________________________________________________
  STRT.M            823.0000 : START INDEX                   
  STOP.M           4535.0000 : STOP INDEX                    
  STEP.M              0.5000 : STEP                          
  NULL.              -999.25 : NULL VALUE                    
  COMP.           ESSO AUSTRALIA PTY LTD : COMPANY                       
  WELL.             WKF W12A : WELL                          
   FLD.           WEST KINGFISH : FIELD                         
   LOC.           BASS STRAIT : LOCATION                      
  PROV.            GIPPSLAND : PROVINCE                      
  CNTY.                  N/A : COUNTY                        
  STAT.                  VIC : STATE                         
  CTRY.            AUSTRALIA : COUNTRY                       
  SRVC.           SCHLUMBERGER D&M : SERVICE COMPANY               
  DATE.            24-MAR-10 : LOG DATE                      
   UWI.                  N/A : UNIQUE WELL ID                
   API.                  N/A : API NUMBER                    
#
~Curve Information Block
#MNEM.UNIT                     : Curve Description
#---------                     --------------------
DEPT        .M                 : Bit Depth 2hz                                                   
ROP5_RM     .M/HR              : Rate of Penetration, Averaged over Last 5ft                     
GR_ARC      .GAPI              : ARC Gamma Ray                                                   
TAB_ARC_RES .HR                : ARC Resistivity Time After Bit                                  
TAB_DEN     .HR                : Density Time After Bit                                          
TAB_NEU     .HR                : Neutron Time After Bit                                          
RPM_ADN     .RPM               : ADN Rotational Speed                                            
P16H        .OHMM              : ARC Phase-Shift Resistivity 16-in. at 2 MHz                     
P22H        .OHMM              : ARC Phase-Shift Resistivity 22-in. at 2 MHz                     
P28H        .OHMM              : ARC Phase-Shift Resistivity 28-in. at 2 MHz                     
P34H        .OHMM              : ARC Phase-Shift Resistivity 34-in. at 2 MHz                     
P40H        .OHMM              : ARC Phase-Shift Resistivity 40-in. at 2 MHz                     
A16H        .OHMM              : ARC Attenuation Resistivity 16-in. at 2 MHz                     
A22H        .OHMM              : ARC Attenuation Resistivity 22-in. at 2 MHz                     
A28H        .OHMM              : ARC Attenuation Resistivity 28-in. at 2 MHz                     
A34H        .OHMM              : ARC Attenuation Resistivity 34-in. at 2 MHz                     
A40H        .OHMM              : ARC Attenuation Resistivity 40-in. at 2 MHz                     
TNPH        .V/V               : Thermal Neutron Porosity (Ratio Method) in Selected Lithology   
ROBB        .G/C3              : Bulk Density, Bottom                                            
DRHB        .G/C3              : Bulk Density Correction, Bottom                                 
RHOB        .G/C3              : Bulk Density                                                    
ROBU        .G/C3              : Bulk Density, Up                                                
ROBL        .G/C3              : Bulk Density, Left                                              
ROBR        .G/C3              : Bulk Density, Right                                             
PEB         .----              : Photoelectric Factor, Bottom                                    
DCAV        .IN                : Density Caliper, Average                                        
TTEM_ADN    .DEGC              : ADN Tool Temperature                                            
#
~Parameter Information Block
#MNEM.UNIT                       Value:Description
#__________________________________________________________
#
~Other Information Block

#
~A    DEPT    ROP5_RM     GR_ARC TAB_ARC_RES    TAB_DEN    TAB_NEU    RPM_ADN       P16H       P22H       P28H       P34H       P40H       A16H       A22H       A28H       A34H       A40H       TNPH       ROBB       DRHB       RHOB       ROBU       ROBL       ROBR          PEB       DCAV   TTEM_ADN
# ...
 4508.5000      38.42      56.92        0.30    -999.25    -999.25    -999.25       1.30       1.29       1.29       1.30       1.31       1.16       1.11       1.09       1.09       1.08    -999.25    -999.25    -999.25    -999.25    -999.25    -999.25    -999.25      -999.25    -999.25    -999.25
 4509.0000      40.04      85.68        0.30    -999.25    -999.25    -999.25       0.88       0.89       0.89       0.88       0.87       0.92       0.93       0.94       0.94       0.93    -999.25    -999.25    -999.25    -999.25    -999.25    -999.25    -999.25      -999.25    -999.25    -999.25
 4509.5000      35.63      80.58        0.30    -999.25    -999.25    -999.25       0.89       0.88       0.87       0.87       0.88       0.87       0.87       0.89       0.90       0.89    -999.25    -999.25    -999.25    -999.25    -999.25    -999.25    -999.25      -999.25    -999.25    -999.25
 4510.0000      33.06      78.81        0.31    -999.25    -999.25    -999.25       0.84       0.84       0.85       0.84       0.85       0.84       0.85       0.87       0.87       0.88    -999.25    -999.25    -999.25    -999.25    -999.25    -999.25    -999.25      -999.25    -999.25    -999.25
 4510.5000      33.20      93.86        0.31    -999.25    -999.25    -999.25       0.92       0.92       0.90       0.89       0.89       0.96       0.97       0.98       0.99       1.01    -999.25    -999.25    -999.25    -999.25    -999.25    -999.25    -999.25      -999.25    -999.25    -999.25
 4511.0000      38.47     101.04        0.32    -999.25    -999.25    -999.25       1.15       1.15       1.16       1.16       1.16       1.14       1.13       1.14       1.14       1.12    -999.25    -999.25    -999.25    -999.25    -999.25    -999.25    -999.25      -999.25    -999.25    -999.25
 4511.5000      42.00     114.19        0.33    -999.25    -999.25    -999.25       1.26       1.31       1.33       1.35       1.36       1.16       1.18       1.20       1.20       1.20    -999.25    -999.25    -999.25    -999.25    -999.25    -999.25    -999.25      -999.25    -999.25    -999.25
 4512.0000      41.16     106.23        0.34    -999.25    -999.25    -999.25       0.99       0.96       0.93       0.91       0.90       1.09       1.04       1.02       1.02       1.03    -999.25    -999.25    -999.25    -999.25    -999.25    -999.25    -999.25      -999.25    -999.25    -999.25
 4512.5000      39.65      78.52        0.34    -999.25    -999.25    -999.25       1.10       1.15       1.17       1.17       1.19       0.97       1.01       1.03       1.02       1.01    -999.25    -999.25    -999.25    -999.25    -999.25    -999.25    -999.25      -999.25    -999.25    -999.25
 4513.0000      39.76      54.50        0.35    -999.25    -999.25    -999.25       0.81       0.80       0.79       0.78       0.77       0.83       0.83       0.84       0.85       0.86    -999.25    -999.25    -999.25    -999.25    -999.25    -999.25    -999.25      -999.25    -999.25    -999.25
 4513.5000      41.88      45.37        0.37    -999.25    -999.25    -999.25       0.82       0.82       0.81       0.82       0.82       0.79       0.79       0.80       0.82       0.83    -999.25    -999.25    -999.25    -999.25    -999.25    -999.25    -999.25      -999.25    -999.25    -999.25
 4514.0000      40.81      51.48        0.38    -999.25    -999.25    -999.25       0.73       0.73       0.72       0.71       0.70       0.72       0.73       0.74       0.74       0.73    -999.25    -999.25    -999.25    -999.25    -999.25    -999.25    -999.25      -999.25    -999.25    -999.25
 4514.5000      37.95      61.68        0.38    -999.25    -999.25    -999.25       0.75       0.75       0.74       0.74       0.74       0.72       0.73       0.74       0.74       0.74    -999.25    -999.25    -999.25    -999.25    -999.25    -999.25    -999.25      -999.25    -999.25    -999.25
 4515.0000      30.09      65.01        0.38    -999.25    -999.25    -999.25       0.73       0.72       0.72       0.71       0.71       0.72       0.71       0.72       0.73       0.74    -999.25    -999.25    -999.25    -999.25    -999.25    -999.25    -999.25      -999.25    -999.25    -999.25
 4515.5000      28.63      60.16        0.38    -999.25    -999.25    -999.25       0.71       0.70       0.69       0.69       0.69       0.69       0.70       0.70       0.70       0.71    -999.25    -999.25    -999.25    -999.25    -999.25    -999.25    -999.25      -999.25    -999.25    -999.25
 4516.0000      28.76      59.10        0.69    -999.25    -999.25    -999.25       0.70       0.70       0.69       0.69       0.69       0.69       0.69       0.70       0.71       0.72    -999.25    -999.25    -999.25    -999.25    -999.25    -999.25    -999.25      -999.25    -999.25    -999.25
 4516.5000      32.61      54.34        0.71    -999.25    -999.25    -999.25       0.70       0.70       0.69       0.68       0.68       0.68       0.69       0.69       0.69       0.69    -999.25    -999.25    -999.25    -999.25    -999.25    -999.25    -999.25      -999.25    -999.25    -999.25
 4517.0000      34.05      55.63        0.71    -999.25    -999.25    -999.25       0.68       0.68       0.68       0.67       0.67       0.67       0.67       0.67       0.68       0.69    -999.25    -999.25    -999.25    -999.25    -999.25    -999.25    -999.25      -999.25    -999.25    -999.25
 4517.5000      34.15      59.42        0.71    -999.25    -999.25    -999.25       0.65       0.65       0.64       0.64       0.64       0.66       0.66       0.66       0.68       0.69    -999.25    -999.25    -999.25    -999.25    -999.25    -999.25    -999.25      -999.25    -999.25    -999.25
 4518.0000      33.81      56.24        0.72    -999.25    -999.25    -999.25       0.66       0.66       0.66       0.65       0.66       0.67       0.67       0.67       0.68       0.69    -999.25    -999.25    -999.25    -999.25    -999.25    -999.25    -999.25      -999.25    -999.25    -999.25
 4518.5000      31.54      60.39        0.72    -999.25    -999.25    -999.25       0.69       0.69       0.68       0.68       0.69       0.69       0.70       0.70       0.70       0.71    -999.25    -999.25    -999.25    -999.25    -999.25    -999.25    -999.25      -999.25    -999.25    -999.25
 4519.0000      31.90      61.61        0.72    -999.25    -999.25    -999.25       0.71       0.70       0.70       0.70       0.70       0.71       0.71       0.72       0.72       0.73    -999.25    -999.25    -999.25    -999.25    -999.25    -999.25    -999.25      -999.25    -999.25    -999.25
 4519.5000      31.17      60.23        0.72    -999.25    -999.25    -999.25       0.71       0.71       0.71       0.71       0.71       0.70       0.70       0.71       0.72       0.73    -999.25    -999.25    -999.25    -999.25    -999.25    -999.25    -999.25      -999.25    -999.25    -999.25
 4520.0000      31.75      64.72        0.72    -999.25    -999.25    -999.25       0.68       0.67       0.67       0.67       0.67       0.67       0.68       0.68       0.69       0.70    -999.25    -999.25    -999.25    -999.25    -999.25    -999.25    -999.25      -999.25    -999.25    -999.25
 4520.5000      29.88      62.66        0.73    -999.25    -999.25    -999.25       0.62       0.62       0.63       0.63       0.63       0.65       0.66       0.68       0.69       0.69    -999.25    -999.25    -999.25    -999.25    -999.25    -999.25    -999.25      -999.25    -999.25    -999.25
 4521.0000      30.11      82.96        0.73    -999.25    -999.25    -999.25       0.72       0.73       0.72       0.72       0.72       0.83       0.88       0.90       0.91       0.96    -999.25    -999.25    -999.25    -999.25    -999.25    -999.25    -999.25      -999.25    -999.25    -999.25
 4521.5000      29.38     117.81        0.74    -999.25    -999.25    -999.25       2.28       2.19       2.15       2.17       2.17       1.96       1.82       1.77       1.77       1.77    -999.25    -999.25    -999.25    -999.25    -999.25    -999.25    -999.25      -999.25    -999.25    -999.25
